,Postcode,Suburb Name,Recent Sales,Suburb Link,Street Address,Latitude,Longitude,Property Type,Beds,Baths,Cars,Sold Price,Sold Date,Property Link
0,2615,Florey,56,https://www.auhouseprices.com/sold/list/ACT/2615/Florey/,17 Camfield Place ,-35.2216912,149.0549462,house,2,1,1,"$682,000",20 Mar 2021,https://www.auhouseprices.com/sold/view/ACT/341600270/17+Camfield+Place%2C+Florey+ACT/
1,2615,Florey,56,https://www.auhouseprices.com/sold/list/ACT/2615/Florey/,52 Summerville Crescent ,-35.2295510,149.0529031,house,4,2,2,"$832,000",19 Feb 2021,https://www.auhouseprices.com/sold/view/ACT/341178770/52+Summerville+Crescent%2C+Florey+ACT/
2,2615,Florey,56,https://www.auhouseprices.com/sold/list/ACT/2615/Florey/,21 Summerville Crescent ,-35.2280363,149.0523815,house,3,1,1,"$485,000",13 Feb 2021,https://www.auhouseprices.com/sold/view/ACT/341749670/21+Summerville+Crescent%2C+Florey+ACT/
3,2615,Florey,56,https://www.auhouseprices.com/sold/list/ACT/2615/Florey/,1 Lightfoot Crescent ,-35.2295803,149.0564856,house,4,2,2,"$923,000",6 Feb 2021,https://www.auhouseprices.com/sold/view/ACT/341757570/1+Lightfoot+Crescent%2C+Florey+ACT/
4,2615,Florey,56,https://www.auhouseprices.com/sold/list/ACT/2615/Florey/,4/7 Gabriel Place ,-35.2285609,149.0557231,townhouse,2,1,2,"$500,000",12 Jan 2021,https://www.auhouseprices.com/sold/view/ACT/341379260/4-7+Gabriel+Place%2C+Florey+ACT/
5,2615,Florey,56,https://www.auhouseprices.com/sold/list/ACT/2615/Florey/,4 Sloane Place ,-35.2208138,149.0572421,house,3,1,2,"$685,804",30 Dec 2020,https://www.auhouseprices.com/sold/view/ACT/341543670/4+Sloane+Place%2C+Florey+ACT/
6,2615,Florey,56,https://www.auhouseprices.com/sold/list/ACT/2615/Florey/,28 Ratcliffe Crescent ,-35.2287258,149.0499927,house,4,2,1,"$828,000",8 Dec 2020,https://www.auhouseprices.com/sold/view/ACT/341376860/28+Ratcliffe+Crescent%2C+Florey+ACT/
7,2615,Florey,56,https://www.auhouseprices.com/sold/list/ACT/2615/Florey/,1 Fielder Place ,-35.2215473,149.0528003,house,4,2,3,"$867,500",Dec 2020,https://www.auhouseprices.com/sold/view/ACT/341261860/1+Fielder+Place%2C+Florey+ACT/
8,2615,Florey,56,https://www.auhouseprices.com/sold/list/ACT/2615/Florey/,6 Lidgett Place ,-35.2275449,149.0547752,house,3,2,2,"$626,000",21 Nov 2020,https://www.auhouseprices.com/sold/view/ACT/341217560/6+Lidgett+Place%2C+Florey+ACT/
9,2615,Florey,56,https://www.auhouseprices.com/sold/list/ACT/2615/Florey/,13 Edman Close ,-35.2244373,149.0609811,house,4,2,2,"$809,000",14 Nov 2020,https://www.auhouseprices.com/sold/view/ACT/341085450/13+Edman+Close%2C+Florey+ACT/
10,2615,Florey,56,https://www.auhouseprices.com/sold/list/ACT/2615/Florey/,12 Skertchly Place ,-35.2279900,149.0396575,house,2,1,1,"$545,000",13 Nov 2020,https://www.auhouseprices.com/sold/view/ACT/341710450/12+Skertchly+Place%2C+Florey+ACT/
11,2615,Florey,56,https://www.auhouseprices.com/sold/list/ACT/2615/Florey/,31 Camfield Place ,-35.2209817,149.0547855,house,3,1,1,"$695,000",13 Nov 2020,https://www.auhouseprices.com/sold/view/ACT/341027450/31+Camfield+Place%2C+Florey+ACT/
12,2615,Florey,56,https://www.auhouseprices.com/sold/list/ACT/2615/Florey/,24/15 John Cleland Crescent ,-35.2259805,149.0592952,townhouse,3,1,2,"$434,000",12 Nov 2020,https://www.auhouseprices.com/sold/view/ACT/341987350/24-15+John+Cleland+Crescent%2C+Florey+ACT/
13,2615,Florey,56,https://www.auhouseprices.com/sold/list/ACT/2615/Florey/,1 Spry Place ,-35.2274617,149.0501147,house,2,1,2,"$575,000",7 Nov 2020,https://www.auhouseprices.com/sold/view/ACT/341131350/1+Spry+Place%2C+Florey+ACT/
14,2615,Florey,56,https://www.auhouseprices.com/sold/list/ACT/2615/Florey/,15 Beddome Place ,-35.2324290,149.0554258,house,3,2,2,"$687,000",24 Oct 2020,https://www.auhouseprices.com/sold/view/ACT/341385050/15+Beddome+Place%2C+Florey+ACT/
15,2615,Florey,56,https://www.auhouseprices.com/sold/list/ACT/2615/Florey/,1 Gabriel Place ,-35.2286505,149.0549679,house,3,1,2,"$599,000",17 Oct 2020,https://www.auhouseprices.com/sold/view/ACT/341123950/1+Gabriel+Place%2C+Florey+ACT/
16,2615,Florey,56,https://www.auhouseprices.com/sold/list/ACT/2615/Florey/,5 Bryce Place ,-35.2252354,149.0484876,house,3,1,4,"$685,500",19 Sep 2020,https://www.auhouseprices.com/sold/view/ACT/341468440/5+Bryce+Place%2C+Florey+ACT/
17,2615,Florey,56,https://www.auhouseprices.com/sold/list/ACT/2615/Florey/,22 Flecker Place ,-35.2251683,149.0556382,townhouse,2,1,1,"$446,000",5 Sep 2020,https://www.auhouseprices.com/sold/view/ACT/341997240/22+Flecker+Place%2C+Florey+ACT/
18,2615,Florey,56,https://www.auhouseprices.com/sold/list/ACT/2615/Florey/,79 Mellor Circuit ,-35.2236059,149.0536761,house,4,2,2,"$685,000",26 Aug 2020,https://www.auhouseprices.com/sold/view/ACT/341370040/79+Mellor+Circuit%2C+Florey+ACT/
19,2615,Florey,56,https://www.auhouseprices.com/sold/list/ACT/2615/Florey/,22 Barnard Circuit ,-35.2264856,149.0401252,house,4,2,4,"$779,500",22 Aug 2020,https://www.auhouseprices.com/sold/view/ACT/341015040/22+Barnard+Circuit%2C+Florey+ACT/
20,2615,Florey,56,https://www.auhouseprices.com/sold/list/ACT/2615/Florey/,87 Barnard Circuit ,-35.2256064,149.0393342,house,4,3,2,"$746,000",21 Aug 2020,https://www.auhouseprices.com/sold/view/ACT/341516040/87+Barnard+Circuit%2C+Florey+ACT/
21,2615,Florey,56,https://www.auhouseprices.com/sold/list/ACT/2615/Florey/,4 Priestley Place ,-35.2220310,149.0513774,house,4,2,2,"$910,000",7 Aug 2020,https://www.auhouseprices.com/sold/view/ACT/341605840/4+Priestley+Place%2C+Florey+ACT/
22,2615,Florey,56,https://www.auhouseprices.com/sold/list/ACT/2615/Florey/,3 Belfield Crescent ,-35.2214162,149.0589272,house,7,4,3,"$930,000",14 Jul 2020,https://www.auhouseprices.com/sold/view/ACT/341022940/3+Belfield+Crescent%2C+Florey+ACT/
23,2615,Florey,56,https://www.auhouseprices.com/sold/list/ACT/2615/Florey/,6 Audas Place ,-35.2281213,149.0553391,house,3,1,4,"$562,000",11 Jul 2020,https://www.auhouseprices.com/sold/view/ACT/341355529/6+Audas+Place%2C+Florey+ACT/
24,2615,Florey,56,https://www.auhouseprices.com/sold/list/ACT/2615/Florey/,7 Enright Crescent ,-35.2274560,149.0515099,house,4,2,2,"$722,000",4 Jul 2020,https://www.auhouseprices.com/sold/view/ACT/341797429/7+Enright+Crescent%2C+Florey+ACT/
25,2615,Florey,56,https://www.auhouseprices.com/sold/list/ACT/2615/Florey/,125 Summerville Crescent ,-35.2303716,149.0491661,house,3,1,2,"$695,000",3 Jul 2020,https://www.auhouseprices.com/sold/view/ACT/341835429/125+Summerville+Crescent%2C+Florey+ACT/
26,2615,Florey,56,https://www.auhouseprices.com/sold/list/ACT/2615/Florey/,Unit 132/15 John Cleland Cres ,-35.2259805,149.0592952,townhouse,2,2,1,"$360,000",12 Jun 2020,https://www.auhouseprices.com/sold/view/ACT/341611229/Unit+132-15+John+Cleland+Cres%2C+Florey+ACT/
27,2615,Florey,56,https://www.auhouseprices.com/sold/list/ACT/2615/Florey/,10 Bibby Place ,-35.2251445,149.0580985,house,4,2,3,"$796,888",12 Jun 2020,https://www.auhouseprices.com/sold/view/ACT/341878129/10+Bibby+Place%2C+Florey+ACT/
28,2615,Florey,56,https://www.auhouseprices.com/sold/list/ACT/2615/Florey/,7 Colefax Place ,-35.2279430,149.0477100,house,4,2,2,"$815,000",6 Jun 2020,https://www.auhouseprices.com/sold/view/ACT/341643129/7+Colefax+Place%2C+Florey+ACT/
29,2615,Florey,56,https://www.auhouseprices.com/sold/list/ACT/2615/Florey/,31 Pawsey Cct ,-35.2278405,149.0421038,house,3,1,2,"$560,000",8 May 2020,https://www.auhouseprices.com/sold/view/ACT/341009729/31+Pawsey+Cct%2C+Florey+ACT/
30,2615,Florey,56,https://www.auhouseprices.com/sold/list/ACT/2615/Florey/,105/15 John Cleland Crescent ,-35.2259805,149.0592952,house,3,2,1,"$420,000",8 May 2020,https://www.auhouseprices.com/sold/view/ACT/341764829/105-15+John+Cleland+Crescent%2C+Florey+ACT/
31,2615,Florey,56,https://www.auhouseprices.com/sold/list/ACT/2615/Florey/,29 Boswell Crescent ,-35.2267761,149.0501414,house,3,1,2,"$580,000",6 May 2020,https://www.auhouseprices.com/sold/view/ACT/341038729/29+Boswell+Crescent%2C+Florey+ACT/
32,2615,Florey,56,https://www.auhouseprices.com/sold/list/ACT/2615/Florey/,8 Belfield Crescent ,-35.2208178,149.0585935,house,5,2,2,"$850,000",21 Apr 2020,https://www.auhouseprices.com/sold/view/ACT/341432629/8+Belfield+Crescent%2C+Florey+ACT/
33,2615,Florey,56,https://www.auhouseprices.com/sold/list/ACT/2615/Florey/,31 Le Souef Crescent ,-35.2268504,149.0510772,house,3,1,1,"$500,000",14 Apr 2020,https://www.auhouseprices.com/sold/view/ACT/341998629/31+Le+Souef+Crescent%2C+Florey+ACT/
34,2615,Florey,56,https://www.auhouseprices.com/sold/list/ACT/2615/Florey/,42 Ennor Crescent ,-35.2240745,149.0451735,house,3,2,2,"$628,000",9 Apr 2020,https://www.auhouseprices.com/sold/view/ACT/341374519/42+Ennor+Crescent%2C+Florey+ACT/
35,2615,Florey,56,https://www.auhouseprices.com/sold/list/ACT/2615/Florey/,11 Maccallum Circuit ,-35.2234055,149.0479472,house,3,2,2,"$575,000",4 Apr 2020,https://www.auhouseprices.com/sold/view/ACT/341808419/11+Maccallum+Circuit%2C+Florey+ACT/
36,2615,Florey,56,https://www.auhouseprices.com/sold/list/ACT/2615/Florey/,6 Hamlet Place ,-35.2292070,149.0524549,house,2,1,2,"$536,100",27 Mar 2020,https://www.auhouseprices.com/sold/view/ACT/341567319/6+Hamlet+Place%2C+Florey+ACT/
37,2615,Florey,56,https://www.auhouseprices.com/sold/list/ACT/2615/Florey/,7 Priestley Place ,-35.2222201,149.0519205,house,4,2,2,"$787,000",24 Mar 2020,https://www.auhouseprices.com/sold/view/ACT/341133319/7+Priestley+Place%2C+Florey+ACT/
38,2615,Florey,56,https://www.auhouseprices.com/sold/list/ACT/2615/Florey/,19 Roughley Place ,-35.2257300,149.0564300,house,3,2,1,"$511,000",21 Mar 2020,https://www.auhouseprices.com/sold/view/ACT/341558219/19+Roughley+Place%2C+Florey+ACT/
39,2615,Florey,56,https://www.auhouseprices.com/sold/list/ACT/2615/Florey/,56 Enright Crescent ,-35.2277669,149.0539129,townhouse,2,1,1,"$450,000",19 Mar 2020,https://www.auhouseprices.com/sold/view/ACT/341426219/56+Enright+Crescent%2C+Florey+ACT/
40,2615,Florey,56,https://www.auhouseprices.com/sold/list/ACT/2615/Florey/,8/1 Flecker Place ,-35.2245559,149.0565209,townhouse,3,1,1,"$450,000",19 Mar 2020,https://www.auhouseprices.com/sold/view/ACT/341915219/8-1+Flecker+Place%2C+Florey+ACT/
41,2615,Florey,56,https://www.auhouseprices.com/sold/list/ACT/2615/Florey/,35 Whittell Crescent ,-35.2210277,149.0504802,house,6,3,4,"$955,000",24 Feb 2020,https://www.auhouseprices.com/sold/view/ACT/341289819/35+Whittell+Crescent%2C+Florey+ACT/
42,2615,Florey,56,https://www.auhouseprices.com/sold/list/ACT/2615/Florey/,18 Tadgell Place ,-35.2311711,149.0557127,house,4,2,2,"$880,500",19 Feb 2020,https://www.auhouseprices.com/sold/view/ACT/341191819/18+Tadgell+Place%2C+Florey+ACT/
43,2615,Florey,56,https://www.auhouseprices.com/sold/list/ACT/2615/Florey/,27 Tunney Crescent ,-35.2299145,149.0495392,house,4,2,2,"$730,000",17 Feb 2020,https://www.auhouseprices.com/sold/view/ACT/341821819/27+Tunney+Crescent%2C+Florey+ACT/
44,2615,Florey,56,https://www.auhouseprices.com/sold/list/ACT/2615/Florey/,15/1 Flecker Place ,-35.2245559,149.0565209,townhouse,2,1,2,"$390,000",11 Feb 2020,https://www.auhouseprices.com/sold/view/ACT/341870719/15-1+Flecker+Place%2C+Florey+ACT/
45,2615,Florey,56,https://www.auhouseprices.com/sold/list/ACT/2615/Florey/,4 Lumholtz Place ,-35.2261019,149.0393575,house,3,1,1,"$590,000",30 Jan 2020,https://www.auhouseprices.com/sold/view/ACT/341534509/4+Lumholtz+Place%2C+Florey+ACT/
46,2615,Florey,56,https://www.auhouseprices.com/sold/list/ACT/2615/Florey/,66 Eddy Crescent ,-35.2261706,149.0465006,house,4,2,2,"$753,000",9 Jan 2020,https://www.auhouseprices.com/sold/view/ACT/341607309/66+Eddy+Crescent%2C+Florey+ACT/
47,2615,Florey,56,https://www.auhouseprices.com/sold/list/ACT/2615/Florey/,16 Summerville Crescent ,-35.2286311,149.0518581,house,4,2,2,"$815,000",6 Jan 2020,https://www.auhouseprices.com/sold/view/ACT/341262009/16+Summerville+Crescent%2C+Florey+ACT/
48,2615,Florey,56,https://www.auhouseprices.com/sold/list/ACT/2615/Florey/,30 Mellor Circuit ,-35.2214221,149.0516766,house,4,2,3,"$770,000",23 Dec 2019,https://www.auhouseprices.com/sold/view/ACT/341614009/30+Mellor+Circuit%2C+Florey+ACT/
49,2615,Florey,56,https://www.auhouseprices.com/sold/list/ACT/2615/Florey/,3/15 Musson Close ,-35.2240060,149.0579737,townhouse,3,1,1,"$452,000",20 Dec 2019,https://www.auhouseprices.com/sold/view/ACT/341998009/3-15+Musson+Close%2C+Florey+ACT/
50,2615,Florey,56,https://www.auhouseprices.com/sold/list/ACT/2615/Florey/,24/18 Tattersall Crescent ,-35.2240372,149.0568466,townhouse,3,1,1,"$440,000",20 Dec 2019,https://www.auhouseprices.com/sold/view/ACT/341319009/24-18+Tattersall+Crescent%2C+Florey+ACT/
51,2615,Florey,56,https://www.auhouseprices.com/sold/list/ACT/2615/Florey/,45 Whittell Crescent ,-35.2217111,149.0495196,house,4,2,6,"$676,000",12 Dec 2019,https://www.auhouseprices.com/sold/view/ACT/341220109/45+Whittell+Crescent%2C+Florey+ACT/
52,2615,Florey,56,https://www.auhouseprices.com/sold/list/ACT/2615/Florey/,6 Bolliger Place ,-35.2284370,149.0449450,house,4,2,2,"$713,000",29 Nov 2019,https://www.auhouseprices.com/sold/view/ACT/341486709/6+Bolliger+Place%2C+Florey+ACT/
53,2615,Florey,56,https://www.auhouseprices.com/sold/list/ACT/2615/Florey/,13 Beddome Place ,-35.2325824,149.0554187,house,3,2,2,"$710,000",22 Nov 2019,https://www.auhouseprices.com/sold/view/ACT/341210709/13+Beddome+Place%2C+Florey+ACT/
54,2615,Florey,56,https://www.auhouseprices.com/sold/list/ACT/2615/Florey/,67/15 John Cleland Crescent ,-35.2259805,149.0592952,townhouse,3,2,2,"$432,000",13 Nov 2019,https://www.auhouseprices.com/sold/view/ACT/341050399/67-15+John+Cleland+Crescent%2C+Florey+ACT/
55,2615,Florey,56,https://www.auhouseprices.com/sold/list/ACT/2615/Florey/,61C Twelvetrees Crescent ,-35.2226827,149.0570672,house,3,1,2,"$542,000",8 Nov 2019,https://www.auhouseprices.com/sold/view/ACT/341362399/61C+Twelvetrees+Crescent%2C+Florey+ACT/
56,2615,Florey,56,https://www.auhouseprices.com/sold/list/ACT/2615/Florey/,3 Enright Crescent ,-35.2276500,149.0512700,house,3,2,2,"$725,000",2 Nov 2019,https://www.auhouseprices.com/sold/view/ACT/341792299/3+Enright+Crescent%2C+Florey+ACT/
57,2615,Florey,56,https://www.auhouseprices.com/sold/list/ACT/2615/Florey/,13 Summerville Crescent ,-35.2280514,149.0520193,house,3,1,2,"$480,000",22 Oct 2019,https://www.auhouseprices.com/sold/view/ACT/341757099/13+Summerville+Crescent%2C+Florey+ACT/
58,2615,Florey,56,https://www.auhouseprices.com/sold/list/ACT/2615/Florey/,78 Barnard Circuit ,-35.2262000,149.0400200,house,4,2,2,"$685,000",19 Oct 2019,https://www.auhouseprices.com/sold/view/ACT/341393099/78+Barnard+Circuit%2C+Florey+ACT/
59,2615,Florey,56,https://www.auhouseprices.com/sold/list/ACT/2615/Florey/,18/15 John Cleland Crescent ,-35.2259800,149.0593000,townhouse,3,1,1,"$415,000",12 Oct 2019,https://www.auhouseprices.com/sold/view/ACT/341951999/18-15+John+Cleland+Crescent%2C+Florey+ACT/
60,2615,Florey,56,https://www.auhouseprices.com/sold/list/ACT/2615/Florey/,127 Ratcliffe Crescent ,-35.2319200,149.0547500,house,3,1,1,"$593,000",12 Oct 2019,https://www.auhouseprices.com/sold/view/ACT/341872999/127+Ratcliffe+Crescent%2C+Florey+ACT/
61,2615,Florey,56,https://www.auhouseprices.com/sold/list/ACT/2615/Florey/,14 Challinor Crescent ,-35.2306900,149.0537400,house,4,2,2,"$900,000",21 Sep 2019,https://www.auhouseprices.com/sold/view/ACT/341066699/14+Challinor+Crescent%2C+Florey+ACT/
62,2615,Florey,56,https://www.auhouseprices.com/sold/list/ACT/2615/Florey/,13 Priestley Place ,-35.2227390,149.0522790,house,5,2,2,"$925,000",13 Sep 2019,https://www.auhouseprices.com/sold/view/ACT/341642599/13+Priestley+Place%2C+Florey+ACT/
63,2615,Florey,56,https://www.auhouseprices.com/sold/list/ACT/2615/Florey/,4 Longley Place ,-35.2314470,149.0510040,house,4,2,2,"$735,000",12 Sep 2019,https://www.auhouseprices.com/sold/view/ACT/341721599/4+Longley+Place%2C+Florey+ACT/
64,2615,Florey,56,https://www.auhouseprices.com/sold/list/ACT/2615/Florey/,18 Flecker Place ,-35.2250245,149.0556126,house,2,1,1,"$465,000",13 Aug 2019,https://www.auhouseprices.com/sold/view/ACT/341135189/18+Flecker+Place%2C+Florey+ACT/
65,2615,Florey,56,https://www.auhouseprices.com/sold/list/ACT/2615/Florey/,46/15 John Cleland Crescent ,-35.2259800,149.0593000,townhouse,3,2,1,"$370,000",10 Aug 2019,https://www.auhouseprices.com/sold/view/ACT/341931189/46-15+John+Cleland+Crescent%2C+Florey+ACT/
66,2615,Florey,56,https://www.auhouseprices.com/sold/list/ACT/2615/Florey/,4 Lambie Place ,-35.2274620,149.0441520,house,4,2,2,"$745,000",8 Aug 2019,https://www.auhouseprices.com/sold/view/ACT/341562189/4+Lambie+Place%2C+Florey+ACT/
67,2615,Florey,56,https://www.auhouseprices.com/sold/list/ACT/2615/Florey/,89 Barnard Circuit ,-35.2255900,149.0396000,house,4,2,2,"$715,000",27 Jul 2019,https://www.auhouseprices.com/sold/view/ACT/341526989/89+Barnard+Circuit%2C+Florey+ACT/
68,2615,Florey,56,https://www.auhouseprices.com/sold/list/ACT/2615/Florey/,9 Edman Close ,-35.2244600,149.0606000,house,4,2,2,"$860,000",20 Jul 2019,https://www.auhouseprices.com/sold/view/ACT/341546889/9+Edman+Close%2C+Florey+ACT/
69,2615,Florey,56,https://www.auhouseprices.com/sold/list/ACT/2615/Florey/,7 Boswell Crescent ,-35.2263210,149.0486860,house,4,3,5,"$810,000",16 Jul 2019,https://www.auhouseprices.com/sold/view/ACT/341232889/7+Boswell+Crescent%2C+Florey+ACT/
70,2615,Florey,56,https://www.auhouseprices.com/sold/list/ACT/2615/Florey/,33/15 John Cleland Crescent ,-35.2271270,149.0588860,townhouse,3,2,2,"$427,500",9 Jul 2019,https://www.auhouseprices.com/sold/view/ACT/341645789/33-15+John+Cleland+Crescent%2C+Florey+ACT/
71,2615,Florey,56,https://www.auhouseprices.com/sold/list/ACT/2615/Florey/,109 Ratcliffe Crescent ,-35.2305000,149.0556960,house,3,1,2,"$655,000",Jul 2019,https://www.auhouseprices.com/sold/view/ACT/341469589/109+Ratcliffe+Crescent%2C+Florey+ACT/
72,2615,Florey,56,https://www.auhouseprices.com/sold/list/ACT/2615/Florey/,9 Meyrick Place ,-35.2317790,149.0532980,house,3,2,2,"$650,000",14 Jun 2019,https://www.auhouseprices.com/sold/view/ACT/341390989/9+Meyrick+Place%2C+Florey+ACT/
73,2615,Florey,56,https://www.auhouseprices.com/sold/list/ACT/2615/Florey/,12 Tattersall Crescent ,-35.2247140,149.0564610,townhouse,3,1,1,"$423,000",7 Jun 2019,https://www.auhouseprices.com/sold/view/ACT/341800379/12+Tattersall+Crescent%2C+Florey+ACT/
74,2615,Florey,56,https://www.auhouseprices.com/sold/list/ACT/2615/Florey/,33 Krefft Street ,-35.2234550,149.0433890,house,4,2,4,"$686,000",3 Jun 2019,https://www.auhouseprices.com/sold/view/ACT/341498379/33+Krefft+Street%2C+Florey+ACT/
75,2615,Florey,56,https://www.auhouseprices.com/sold/list/ACT/2615/Florey/,42 Barnard Circuit ,-35.2273450,149.0383800,house,4,3,2,"$730,000",25 May 2019,https://www.auhouseprices.com/sold/view/ACT/341875279/42+Barnard+Circuit%2C+Florey+ACT/
76,2615,Florey,56,https://www.auhouseprices.com/sold/list/ACT/2615/Florey/,5 Woolnough Street ,-35.2299110,149.0548080,house,5,3,2,"$815,000",23 May 2019,https://www.auhouseprices.com/sold/view/ACT/341730699/5+Woolnough+Street%2C+Florey+ACT/
77,2615,Florey,56,https://www.auhouseprices.com/sold/list/ACT/2615/Florey/,46 Mellor Circuit ,-35.2226100,149.0527260,house,4,2,2,"$782,000",17 May 2019,https://www.auhouseprices.com/sold/view/ACT/341928179/46+Mellor+Circuit%2C+Florey+ACT/
78,2615,Florey,56,https://www.auhouseprices.com/sold/list/ACT/2615/Florey/,79 Barnard Circuit ,-35.2255160,149.0385550,house,3,1,1,"$537,000",4 May 2019,https://www.auhouseprices.com/sold/view/ACT/341042079/79+Barnard+Circuit%2C+Florey+ACT/
79,2615,Florey,56,https://www.auhouseprices.com/sold/list/ACT/2615/Florey/,24 Ratcliffe Crescent ,-35.2290500,149.0497000,house,3,2,2,"$595,000",4 May 2019,https://www.auhouseprices.com/sold/view/ACT/341241079/24+Ratcliffe+Crescent%2C+Florey+ACT/
80,2615,Florey,56,https://www.auhouseprices.com/sold/list/ACT/2615/Florey/,3 Fawsitt Place ,-35.2287150,149.0466150,house,5,2,2,"$640,000",May 2019,https://www.auhouseprices.com/sold/view/ACT/341596079/3+Fawsitt+Place%2C+Florey+ACT/
81,2615,Florey,56,https://www.auhouseprices.com/sold/list/ACT/2615/Florey/,22 Enright Crescent ,-35.2276430,149.0525790,house,3,1,1,"$450,000",24 Apr 2019,https://www.auhouseprices.com/sold/view/ACT/341838879/22+Enright+Crescent%2C+Florey+ACT/
82,2615,Florey,56,https://www.auhouseprices.com/sold/list/ACT/2615/Florey/,16 Whitelegge Close ,-35.2275050,149.0364700,house,3,2,2,"$570,000",13 Apr 2019,https://www.auhouseprices.com/sold/view/ACT/341659779/16+Whitelegge+Close%2C+Florey+ACT/
83,2615,Florey,56,https://www.auhouseprices.com/sold/list/ACT/2615/Florey/,10 Lumholtz Place ,-35.2262730,149.0387000,house,3,2,2,"$625,000",13 Apr 2019,https://www.auhouseprices.com/sold/view/ACT/341419779/10+Lumholtz+Place%2C+Florey+ACT/
84,2615,Florey,56,https://www.auhouseprices.com/sold/list/ACT/2615/Florey/,3/9 Lidgett Place ,-35.2273050,149.0542830,townhouse,2,1,1,"$430,000",28 Feb 2019,https://www.auhouseprices.com/sold/view/ACT/341450269/3-9+Lidgett+Place%2C+Florey+ACT/
85,2615,Florey,56,https://www.auhouseprices.com/sold/list/ACT/2615/Florey/,20 Laidley Place ,-35.2207280,149.0458360,house,4,2,2,"$750,000",18 Feb 2019,https://www.auhouseprices.com/sold/view/ACT/341082669/20+Laidley+Place%2C+Florey+ACT/
86,2615,Florey,56,https://www.auhouseprices.com/sold/list/ACT/2615/Florey/,51 Barnard Circuit ,-35.2274480,149.0374190,house,4,2,2,"$650,000",13 Feb 2019,https://www.auhouseprices.com/sold/view/ACT/341876569/51+Barnard+Circuit%2C+Florey+ACT/
87,2615,Florey,56,https://www.auhouseprices.com/sold/list/ACT/2615/Florey/,1/57 Krefft Street ,-35.2255740,149.0460000,townhouse,3,2,2,"$522,500",9 Feb 2019,https://www.auhouseprices.com/sold/view/ACT/341641569/1-57+Krefft+Street%2C+Florey+ACT/
88,2615,Florey,56,https://www.auhouseprices.com/sold/list/ACT/2615/Florey/,127/15 John Cleland Crescent ,-35.2271270,149.0588860,unit,2,2,1,"$350,000",14 Jan 2019,https://www.auhouseprices.com/sold/view/ACT/341838259/127-15+John+Cleland+Crescent%2C+Florey+ACT/
89,2615,Florey,56,https://www.auhouseprices.com/sold/list/ACT/2615/Florey/,7/20 Musson Close ,-35.2234450,149.0576620,townhouse,3,1,1,"$447,500",7 Dec 2018,https://www.auhouseprices.com/sold/view/ACT/341631059/7-20+Musson+Close%2C+Florey+ACT/
90,2615,Florey,56,https://www.auhouseprices.com/sold/list/ACT/2615/Florey/,68 Barnard Circuit ,-35.2259190,149.0388580,house,4,2,2,"$621,000",29 Nov 2018,https://www.auhouseprices.com/sold/view/ACT/341027859/68+Barnard+Circuit%2C+Florey+ACT/
91,2615,Florey,56,https://www.auhouseprices.com/sold/list/ACT/2615/Florey/,21/15 John Cleland Crescent ,-35.2271270,149.0588860,townhouse,3,1,2,"$372,000",26 Nov 2018,https://www.auhouseprices.com/sold/view/ACT/341483859/21-15+John+Cleland+Crescent%2C+Florey+ACT/
92,2615,Florey,56,https://www.auhouseprices.com/sold/list/ACT/2615/Florey/,20 Camfield Place ,-35.2214930,149.0553100,house,3,1,2,"$539,000",24 Nov 2018,https://www.auhouseprices.com/sold/view/ACT/341378759/20+Camfield+Place%2C+Florey+ACT/
93,2615,Florey,56,https://www.auhouseprices.com/sold/list/ACT/2615/Florey/,22 Barnard Circuit ,-35.2263730,149.0400920,house,4,2,2,"$625,000",7 Nov 2018,https://www.auhouseprices.com/sold/view/ACT/341593559/22+Barnard+Circuit%2C+Florey+ACT/
94,2615,Florey,56,https://www.auhouseprices.com/sold/list/ACT/2615/Florey/,23 Longley Place ,-35.2327780,149.0516340,house,4,2,2,"$850,000",6 Nov 2018,https://www.auhouseprices.com/sold/view/ACT/341933559/23+Longley+Place%2C+Florey+ACT/
95,2615,Florey,56,https://www.auhouseprices.com/sold/list/ACT/2615/Florey/,91 Barnard Circuit ,-35.2256790,149.0397940,house,3,2,2,"$647,000",2 Nov 2018,https://www.auhouseprices.com/sold/view/ACT/341050449/91+Barnard+Circuit%2C+Florey+ACT/
96,2615,Florey,56,https://www.auhouseprices.com/sold/list/ACT/2615/Florey/,65 MacCallum Circuit ,-35.2227560,149.0502220,house,4,2,2,"$760,000",24 Oct 2018,https://www.auhouseprices.com/sold/view/ACT/341717349/65+MacCallum++Circuit%2C+Florey+ACT/
97,2615,Florey,56,https://www.auhouseprices.com/sold/list/ACT/2615/Florey/,4 Lidgett Place ,-35.2277000,149.0547800,house,3,1,1,"$516,000",13 Oct 2018,https://www.auhouseprices.com/sold/view/ACT/341982249/4+Lidgett+Place%2C+Florey+ACT/
98,2615,Florey,56,https://www.auhouseprices.com/sold/list/ACT/2615/Florey/,7A Summerville Crescent ,-35.2279940,149.0517490,house,3,1,1,"$467,000",13 Oct 2018,https://www.auhouseprices.com/sold/view/ACT/341174249/7A+Summerville+Crescent%2C+Florey+ACT/
99,2615,Florey,56,https://www.auhouseprices.com/sold/list/ACT/2615/Florey/,7 Hewlett Circuit ,-35.2249540,149.0467280,house,3,2,2,"$665,000",13 Oct 2018,https://www.auhouseprices.com/sold/view/ACT/341224249/7+Hewlett+Circuit%2C+Florey+ACT/
100,2615,Florey,56,https://www.auhouseprices.com/sold/list/ACT/2615/Florey/,2/83 Ratcliffe ,-35.2281410,149.0566370,townhouse,3,1,1,"$460,000",12 Oct 2018,https://www.auhouseprices.com/sold/view/ACT/341514249/2-83+Ratcliffe%2C+Florey+ACT/
101,2615,Florey,56,https://www.auhouseprices.com/sold/list/ACT/2615/Florey/,7/9 Lidgett Place ,-35.2273050,149.0542830,townhouse,2,1,2,"$456,000",11 Oct 2018,https://www.auhouseprices.com/sold/view/ACT/341476249/7-9+Lidgett+Place%2C+Florey+ACT/
102,2615,Florey,56,https://www.auhouseprices.com/sold/list/ACT/2615/Florey/,10 Hamblin Place ,-35.2229640,149.0524300,house,4,2,2,"$860,000",8 Oct 2018,https://www.auhouseprices.com/sold/view/ACT/341695149/10+Hamblin+Place%2C+Florey+ACT/
103,2615,Florey,56,https://www.auhouseprices.com/sold/list/ACT/2615/Florey/,6 Cuscaden Crescent ,-35.2288130,149.0479600,house,4,2,1,"$720,000",6 Oct 2018,https://www.auhouseprices.com/sold/view/ACT/341563149/6+Cuscaden+Crescent%2C+Florey+ACT/
104,2615,Florey,56,https://www.auhouseprices.com/sold/list/ACT/2615/Florey/,7 Nanson Place ,-35.2267340,149.0474000,house,4,4,2,"$780,000",22 Sep 2018,https://www.auhouseprices.com/sold/view/ACT/341640339/7+Nanson+Place%2C+Florey+ACT/
105,2615,Florey,56,https://www.auhouseprices.com/sold/list/ACT/2615/Florey/,113 Ratcliffe Crescent ,-35.2307900,149.0554000,house,3,1,1,"$610,000",25 Aug 2018,https://www.auhouseprices.com/sold/view/ACT/341170039/113+Ratcliffe+Crescent%2C+Florey+ACT/
106,2615,Florey,56,https://www.auhouseprices.com/sold/list/ACT/2615/Florey/,21 Mellor Circuit ,-35.2234920,149.0509240,house,5,2,2,"$870,000",2 Aug 2018,https://www.auhouseprices.com/sold/view/ACT/341487839/21+Mellor+Circuit%2C+Florey+ACT/
107,2615,Florey,56,https://www.auhouseprices.com/sold/list/ACT/2615/Florey/,9 Hamblin Place ,-35.2232970,149.0521900,house,4,2,2,"$840,000",28 Jul 2018,https://www.auhouseprices.com/sold/view/ACT/341252839/9+Hamblin+Place%2C+Florey+ACT/
108,2615,Florey,56,https://www.auhouseprices.com/sold/list/ACT/2615/Florey/,5/16 Gabriel Place ,-35.2291530,149.0557730,townhouse,2,1,1,"$378,000",17 Jul 2018,https://www.auhouseprices.com/sold/view/ACT/341434839/5-16+Gabriel+Place%2C+Florey+ACT/
109,2615,Florey,56,https://www.auhouseprices.com/sold/list/ACT/2615/Florey/,31 MacCallum Circuit ,-35.2223400,149.0471220,house,3,1,2,"$612,000",30 Jun 2018,https://www.auhouseprices.com/sold/view/ACT/341482539/31+MacCallum+Circuit%2C+Florey+ACT/
110,2615,Florey,56,https://www.auhouseprices.com/sold/list/ACT/2615/Florey/,50 Hewlett Circuit ,-35.2239400,149.0467700,house,3,1,2,"$575,000",23 Jun 2018,https://www.auhouseprices.com/sold/view/ACT/341917528/50+Hewlett+Circuit%2C+Florey+ACT/
111,2615,Florey,56,https://www.auhouseprices.com/sold/list/ACT/2615/Florey/,11 Boan Close ,-35.2229150,149.0587970,house,3,1,3,"$565,000",20 Jun 2018,https://www.auhouseprices.com/sold/view/ACT/341313528/11+Boan+Close%2C+Florey+ACT/
112,2615,Florey,56,https://www.auhouseprices.com/sold/list/ACT/2615/Florey/,124/15 John Cleland Crescent ,-35.2271270,149.0588860,unit,2,1,1,"$375,000",7 Jun 2018,https://www.auhouseprices.com/sold/view/ACT/341770328/124-15+John+Cleland+Crescent%2C+Florey+ACT/
113,2615,Florey,56,https://www.auhouseprices.com/sold/list/ACT/2615/Florey/,21 Tunney Crescent ,-35.2296390,149.0502640,house,4,2,2,"$803,000",31 May 2018,https://www.auhouseprices.com/sold/view/ACT/341840228/21+Tunney+Crescent%2C+Florey+ACT/
114,2615,Florey,56,https://www.auhouseprices.com/sold/list/ACT/2615/Florey/,12 Lidgett Place ,-35.2273200,149.0552200,house,3,1,1,"$515,000",19 May 2018,https://www.auhouseprices.com/sold/view/ACT/341563128/12+Lidgett+Place%2C+Florey+ACT/
115,2615,Florey,56,https://www.auhouseprices.com/sold/list/ACT/2615/Florey/,3 Kidd Place ,-35.2233460,149.0562590,house,3,2,2,"$591,000",8 May 2018,https://www.auhouseprices.com/sold/view/ACT/341709928/3+Kidd+Place%2C+Florey+ACT/
116,2615,Florey,56,https://www.auhouseprices.com/sold/list/ACT/2615/Florey/,128 Ratcliffe Crescent ,-35.2322900,149.0542400,house,4,2,2,"$850,000",28 Apr 2018,https://www.auhouseprices.com/sold/view/ACT/341705828/128+Ratcliffe+Crescent%2C+Florey+ACT/
117,2615,Florey,56,https://www.auhouseprices.com/sold/list/ACT/2615/Florey/,98/15 John Cleland Crescent ,-35.2271270,149.0588860,townhouse,2,1,1,"$367,000",19 Apr 2018,https://www.auhouseprices.com/sold/view/ACT/341385728/98-15+John+Cleland+Crescent%2C+Florey+ACT/
118,2615,Florey,56,https://www.auhouseprices.com/sold/list/ACT/2615/Florey/,6/15 John Cleland Crescent ,-35.2271270,149.0588860,townhouse,3,1,2,"$407,000",19 Apr 2018,https://www.auhouseprices.com/sold/view/ACT/341435728/6-15+John+Cleland+Crescent%2C+Florey+ACT/
119,2615,Florey,56,https://www.auhouseprices.com/sold/list/ACT/2615/Florey/,7 Gatliff Place ,-35.2234590,149.0612430,house,4,2,2,"$735,000",19 Apr 2018,https://www.auhouseprices.com/sold/view/ACT/341874728/7+Gatliff+Place%2C+Florey+ACT/
120,2615,Florey,56,https://www.auhouseprices.com/sold/list/ACT/2615/Florey/,77 Twelvetrees Crescent ,-35.2232950,149.0557950,house,3,2,2,"$535,000",29 Mar 2018,https://www.auhouseprices.com/sold/view/ACT/341388418/77+Twelvetrees+Crescent%2C+Florey+ACT/
121,2615,Florey,56,https://www.auhouseprices.com/sold/list/ACT/2615/Florey/,15 Challinor Crescent ,-35.2316250,149.0538400,house,3,1,2,"$647,000",20 Mar 2018,https://www.auhouseprices.com/sold/view/ACT/341906318/15+Challinor+Crescent%2C+Florey+ACT/
122,2615,Florey,56,https://www.auhouseprices.com/sold/list/ACT/2615/Florey/,8 Boas Place ,-35.2287250,149.0427000,house,4,2,5,"$710,000",17 Mar 2018,https://www.auhouseprices.com/sold/view/ACT/341041318/8+Boas+Place%2C+Florey+ACT/
123,2615,Florey,56,https://www.auhouseprices.com/sold/list/ACT/2615/Florey/,2/61 Twelvetrees Crescent ,-35.2224790,149.0571060,townhouse,3,1,2,"$500,000",15 Mar 2018,https://www.auhouseprices.com/sold/view/ACT/341756218/2-61+Twelvetrees+Crescent%2C+Florey+ACT/
124,2615,Florey,56,https://www.auhouseprices.com/sold/list/ACT/2615/Florey/,86/15 John Cleland Crescent ,-35.2271270,149.0588860,townhouse,3,2,1,"$443,000",15 Mar 2018,https://www.auhouseprices.com/sold/view/ACT/341583318/86-15+John+Cleland+Crescent%2C+Florey+ACT/
125,2615,Florey,56,https://www.auhouseprices.com/sold/list/ACT/2615/Florey/,5/15 John Cleland Crescent ,-35.2271270,149.0588860,townhouse,3,1,1,"$400,000",9 Mar 2018,https://www.auhouseprices.com/sold/view/ACT/341864218/5-15+John+Cleland+Crescent%2C+Florey+ACT/
126,2615,Florey,56,https://www.auhouseprices.com/sold/list/ACT/2615/Florey/,13 Edman Close ,-35.2243200,149.0610200,house,4,2,3,"$770,000",3 Mar 2018,https://www.auhouseprices.com/sold/view/ACT/341582118/13+Edman+Close%2C+Florey+ACT/
127,2615,Florey,56,https://www.auhouseprices.com/sold/list/ACT/2615/Florey/,7 Challinor Crescent ,-35.2308730,149.0540650,house,3,2,2,"$615,000",28 Feb 2018,https://www.auhouseprices.com/sold/view/ACT/341316018/7+Challinor+Crescent%2C+Florey+ACT/
128,2615,Florey,56,https://www.auhouseprices.com/sold/list/ACT/2615/Florey/,9 Cuscaden Crescent ,-35.2286130,149.0473210,house,6,3,3,"$902,000",24 Feb 2018,https://www.auhouseprices.com/sold/view/ACT/341362018/9+Cuscaden+Crescent%2C+Florey+ACT/
129,2615,Florey,56,https://www.auhouseprices.com/sold/list/ACT/2615/Florey/,42/15 John Cleland Crescent ,-35.2271270,149.0588860,townhouse,3,1,2,"$432,500",21 Feb 2018,https://www.auhouseprices.com/sold/view/ACT/341824918/42-15+John+Cleland+Crescent%2C+Florey+ACT/
130,2615,Florey,56,https://www.auhouseprices.com/sold/list/ACT/2615/Florey/,20 Flecker Place ,-35.2251020,149.0555080,house,2,1,1,"$400,000",20 Feb 2018,https://www.auhouseprices.com/sold/view/ACT/341140739/20+Flecker+Place%2C+Florey+ACT/
131,2615,Florey,56,https://www.auhouseprices.com/sold/list/ACT/2615/Florey/,8 Enright Crescent ,-35.2276690,149.0519550,house,3,2,1,"$440,000",25 Jan 2018,https://www.auhouseprices.com/sold/view/ACT/341536618/8+Enright+Crescent%2C+Florey+ACT/
132,2615,Florey,56,https://www.auhouseprices.com/sold/list/ACT/2615/Florey/,6 Bibby Place ,-35.2247170,149.0584120,house,4,1,2,"$840,000",23 Jan 2018,https://www.auhouseprices.com/sold/view/ACT/341582618/6+Bibby+Place%2C+Florey+ACT/
133,2615,Florey,56,https://www.auhouseprices.com/sold/list/ACT/2615/Florey/,5 Nanson Place ,-35.2269220,149.0475190,house,4,2,2,"$780,000",16 Dec 2017,https://www.auhouseprices.com/sold/view/ACT/341700308/5+Nanson+Place%2C+Florey+ACT/
134,2615,Florey,56,https://www.auhouseprices.com/sold/list/ACT/2615/Florey/,19 Camfield Place ,-35.2216140,149.0547960,house,2,1,1,"$445,000",9 Dec 2017,https://www.auhouseprices.com/sold/view/ACT/341070208/19+Camfield+Place%2C+Florey+ACT/
135,2615,Florey,56,https://www.auhouseprices.com/sold/list/ACT/2615/Florey/,12 Tattersall Crescent ,-35.2247140,149.0564610,house,3,1,1,"$360,000",7 Dec 2017,https://www.auhouseprices.com/sold/view/ACT/341228208/12+Tattersall+Crescent%2C+Florey+ACT/
136,2615,Florey,56,https://www.auhouseprices.com/sold/list/ACT/2615/Florey/,58 Summerville Crescent ,-35.2299610,149.0530440,house,4,2,2,"$825,000",2 Dec 2017,https://www.auhouseprices.com/sold/view/ACT/341303518/58+Summerville+Crescent%2C+Florey+ACT/
137,2615,Florey,56,https://www.auhouseprices.com/sold/list/ACT/2615/Florey/,34 Maccallum Circuit ,-35.2227230,149.0491880,house,4,2,2,"$650,000",25 Nov 2017,https://www.auhouseprices.com/sold/view/ACT/341373108/34+Maccallum+Circuit%2C+Florey+ACT/
138,2615,Florey,56,https://www.auhouseprices.com/sold/list/ACT/2615/Florey/,124/15 John Cleland Crescent ,-35.2271270,149.0588860,unit,2,1,1,"$375,000",24 Nov 2017,https://www.auhouseprices.com/sold/view/ACT/341280008/124-15+John+Cleland+Crescent%2C+Florey+ACT/
139,2615,Florey,56,https://www.auhouseprices.com/sold/list/ACT/2615/Florey/,10 Freney Place ,-35.2220840,149.0541010,house,4,3,2,"$799,000",14 Nov 2017,https://www.auhouseprices.com/sold/view/ACT/341260108/10+Freney+Place%2C+Florey+ACT/
140,2615,Florey,56,https://www.auhouseprices.com/sold/list/ACT/2615/Florey/,1 Greenup Close ,-35.2216340,149.0577290,house,4,2,3,"$930,000",6 Nov 2017,https://www.auhouseprices.com/sold/view/ACT/341520808/1+Greenup+Close%2C+Florey+ACT/
141,2615,Florey,56,https://www.auhouseprices.com/sold/list/ACT/2615/Florey/,3 Audas Place ,-35.2279100,149.0549980,house,3,1,1,"$596,000",31 Oct 2017,https://www.auhouseprices.com/sold/view/ACT/341133518/3+Audas+Place%2C+Florey+ACT/
142,2615,Florey,56,https://www.auhouseprices.com/sold/list/ACT/2615/Florey/,53 Twelvetrees Crescent ,-35.2222610,149.0582490,house,4,2,2,"$676,000",20 Oct 2017,https://www.auhouseprices.com/sold/view/ACT/341667498/53+Twelvetrees+Crescent%2C+Florey+ACT/
143,2615,Florey,56,https://www.auhouseprices.com/sold/list/ACT/2615/Florey/,9 Greenup Close ,-35.2219440,149.0565790,house,5,2,2,"$782,500",18 Oct 2017,https://www.auhouseprices.com/sold/view/ACT/341307498/9+Greenup+Close%2C+Florey+ACT/
144,2615,Florey,56,https://www.auhouseprices.com/sold/list/ACT/2615/Florey/,9/15 John Cleland Crescent ,-35.2271270,149.0588860,townhouse,3,2,1,"$412,500",16 Oct 2017,https://www.auhouseprices.com/sold/view/ACT/341631498/9-15+John+Cleland++Crescent%2C+Florey+ACT/
145,2615,Florey,56,https://www.auhouseprices.com/sold/list/ACT/2615/Florey/,19 Roughley Place ,-35.2258000,149.0563570,house,3,2,1,"$405,000",14 Oct 2017,https://www.auhouseprices.com/sold/view/ACT/341249308/19+Roughley+Place%2C+Florey+ACT/
146,2615,Florey,56,https://www.auhouseprices.com/sold/list/ACT/2615/Florey/,59 Twelvetrees Crescent ,-35.2225340,149.0574310,house,3,2,1,"$560,000",22 Sep 2017,https://www.auhouseprices.com/sold/view/ACT/341845398/59+Twelvetrees+Crescent%2C+Florey+ACT/
147,2615,Florey,56,https://www.auhouseprices.com/sold/list/ACT/2615/Florey/,127/15 John Cleland Crescent ,-35.2271270,149.0588860,apartment,2,2,1,"$300,000",18 Sep 2017,https://www.auhouseprices.com/sold/view/ACT/341707198/127-15+John+Cleland+Crescent%2C+Florey+ACT/
148,2615,Florey,56,https://www.auhouseprices.com/sold/list/ACT/2615/Florey/,133/15 John Cleland Crescent ,-35.2271270,149.0588860,house,2,2,2,"$350,000",12 Sep 2017,https://www.auhouseprices.com/sold/view/ACT/341147098/133-15+John+Cleland+Crescent%2C+Florey+ACT/
149,2615,Florey,56,https://www.auhouseprices.com/sold/list/ACT/2615/Florey/,1 Lumholtz Place ,-35.2261750,149.0396710,house,4,2,2,"$666,000",9 Sep 2017,https://www.auhouseprices.com/sold/view/ACT/341106098/1+Lumholtz++Place%2C+Florey+ACT/
150,2615,Florey,56,https://www.auhouseprices.com/sold/list/ACT/2615/Florey/,29 Eddy Crescent ,-35.2280110,149.0463630,house,5,3,2,"$775,000",2 Sep 2017,https://www.auhouseprices.com/sold/view/ACT/341842998/29+Eddy+Crescent%2C+Florey+ACT/
151,2615,Florey,56,https://www.auhouseprices.com/sold/list/ACT/2615/Florey/,10 Clavert Place ,-35.2303500,149.0508600,house,4,2,2,"$620,000",2 Sep 2017,https://www.auhouseprices.com/sold/view/ACT/341564998/10+Clavert+Place%2C+Florey+ACT/
152,2615,Florey,56,https://www.auhouseprices.com/sold/list/ACT/2615/Florey/,12 Whitelegge Close ,-35.2271580,149.0363500,house,4,2,2,"$725,000",19 Aug 2017,https://www.auhouseprices.com/sold/view/ACT/341678798/12+Whitelegge+Close%2C+Florey+ACT/
153,2615,Florey,56,https://www.auhouseprices.com/sold/list/ACT/2615/Florey/,3 Hewlett Circuit ,-35.2250250,149.0462200,house,4,2,2,"$727,000",12 Aug 2017,https://www.auhouseprices.com/sold/view/ACT/341870798/3+Hewlett+Circuit%2C+Florey+ACT/
154,2615,Florey,56,https://www.auhouseprices.com/sold/list/ACT/2615/Florey/,7 Cayley Place ,-35.2205220,149.0510650,house,4,2,2,"$660,000",11 Aug 2017,https://www.auhouseprices.com/sold/view/ACT/341578698/7+Cayley+Place%2C+Florey+ACT/
155,2615,Florey,56,https://www.auhouseprices.com/sold/list/ACT/2615/Florey/,4 Laidley Place ,-35.2216260,149.0458200,house,3,2,2,"$650,000",5 Aug 2017,https://www.auhouseprices.com/sold/view/ACT/341501698/4+Laidley+Place%2C+Florey+ACT/
156,2615,Florey,56,https://www.auhouseprices.com/sold/list/ACT/2615/Florey/,70 Summerville Crescent ,-35.2305480,149.0516080,house,7,3,2,"$825,000",3 Aug 2017,https://www.auhouseprices.com/sold/view/ACT/341097598/70+Summerville+Crescent%2C+Florey+ACT/
157,2615,Florey,56,https://www.auhouseprices.com/sold/list/ACT/2615/Florey/,29 MacCallum Circuit ,-35.2225380,149.0469800,house,4,2,2,"$741,000",29 Jul 2017,https://www.auhouseprices.com/sold/view/ACT/341003598/29+MacCallum+Circuit%2C+Florey+ACT/
158,2615,Florey,56,https://www.auhouseprices.com/sold/list/ACT/2615/Florey/,14/16 Gabriel Place ,-35.2291530,149.0557730,townhouse,2,1,1,"$389,500",13 Jul 2017,https://www.auhouseprices.com/sold/view/ACT/341996388/14-16+Gabriel+Place%2C+Florey+ACT/
159,2615,Florey,56,https://www.auhouseprices.com/sold/list/ACT/2615/Florey/,3 Tovey Place ,-35.2225490,149.0538660,house,4,2,2,"$625,000",30 May 2017,https://www.auhouseprices.com/sold/view/ACT/341501988/3+Tovey+Place%2C+Florey+ACT/
160,2615,Florey,56,https://www.auhouseprices.com/sold/list/ACT/2615/Florey/,5 Tiegs Place ,-35.2221490,149.0498880,house,3,1,2,"$445,000",17 May 2017,https://www.auhouseprices.com/sold/view/ACT/341251788/5+Tiegs+Place%2C+Florey+ACT/
161,2615,Florey,56,https://www.auhouseprices.com/sold/list/ACT/2615/Florey/,115/15 John Cleland Crescent ,-35.2271270,149.0588860,apartment,3,1,1,"$335,000",15 May 2017,https://www.auhouseprices.com/sold/view/ACT/341767688/115-15++John+Cleland+Crescent%2C+Florey+ACT/
162,2615,Florey,56,https://www.auhouseprices.com/sold/list/ACT/2615/Florey/,3 Bryce Place ,-35.2249800,149.0485000,house,4,2,2,"$695,000",13 May 2017,https://www.auhouseprices.com/sold/view/ACT/341796688/3+Bryce+Place%2C+Florey+ACT/
163,2615,Florey,56,https://www.auhouseprices.com/sold/list/ACT/2615/Florey/,18 Whittell Crescent ,-35.2211530,149.0501100,house,3,1,4,"$535,000",22 Apr 2017,https://www.auhouseprices.com/sold/view/ACT/341693478/18+Whittell+Crescent%2C+Florey+ACT/
164,2615,Florey,56,https://www.auhouseprices.com/sold/list/ACT/2615/Florey/,5 Tadgell Place ,-35.2306900,149.0567300,house,3,1,1,"$533,000",9 Apr 2017,https://www.auhouseprices.com/sold/view/ACT/341257378/5+Tadgell+Place%2C+Florey+ACT/
165,2615,Florey,56,https://www.auhouseprices.com/sold/list/ACT/2615/Florey/,3 Edman Close ,-35.2246860,149.0599000,house,5,2,3,"$960,000",8 Apr 2017,https://www.auhouseprices.com/sold/view/ACT/341538278/3+Edman+Close%2C+Florey+ACT/
166,2615,Florey,56,https://www.auhouseprices.com/sold/list/ACT/2615/Florey/,8 Meyrick Place ,-35.2309800,149.0527000,house,4,2,2,"$803,000",8 Apr 2017,https://www.auhouseprices.com/sold/view/ACT/341778278/8+Meyrick+Place%2C+Florey+ACT/
167,2615,Florey,56,https://www.auhouseprices.com/sold/list/ACT/2615/Florey/,60 Enright Crescent ,-35.2279670,149.0540310,townhouse,2,1,1,"$385,000",8 Apr 2017,https://www.auhouseprices.com/sold/view/ACT/341277278/60+Enright+Crescent%2C+Florey+ACT/
168,2615,Florey,56,https://www.auhouseprices.com/sold/list/ACT/2615/Florey/,35 Whittell Crescent ,-35.2209880,149.0506600,house,6,3,3,"$815,000",29 Mar 2017,https://www.auhouseprices.com/sold/view/ACT/341836178/35+Whittell+Crescent%2C+Florey+ACT/
169,2615,Florey,56,https://www.auhouseprices.com/sold/list/ACT/2615/Florey/,67 MacCallum Circuit ,-35.2229800,149.0503400,house,3,2,2,"$611,000",25 Mar 2017,https://www.auhouseprices.com/sold/view/ACT/341812178/67+MacCallum+Circuit%2C+Florey+ACT/
170,2615,Florey,56,https://www.auhouseprices.com/sold/list/ACT/2615/Florey/,31 Mellor Circuit ,-35.2225470,149.0504880,house,4,2,2,"$735,000",22 Mar 2017,https://www.auhouseprices.com/sold/view/ACT/341463078/31+Mellor+Circuit%2C+Florey+ACT/
171,2615,Florey,56,https://www.auhouseprices.com/sold/list/ACT/2615/Florey/,15/1 Flecker Place ,-35.2239190,149.0568440,townhouse,2,1,1,"$340,000",22 Mar 2017,https://www.auhouseprices.com/sold/view/ACT/341182178/15-1+Flecker+Place%2C+Florey+ACT/
172,2615,Florey,56,https://www.auhouseprices.com/sold/list/ACT/2615/Florey/,1 Carne Place ,-35.2273450,149.0517700,house,3,2,2,"$480,000",18 Mar 2017,https://www.auhouseprices.com/sold/view/ACT/341357978/1+Carne+Place%2C+Florey+ACT/
173,2615,Florey,56,https://www.auhouseprices.com/sold/list/ACT/2615/Florey/,1 Carne Place ,-35.2273450,149.0517700,house,3,2,2,"$480,000",18 Mar 2017,https://www.auhouseprices.com/sold/view/ACT/341398978/1+Carne+Place%2C+Florey+ACT/
174,2615,Florey,56,https://www.auhouseprices.com/sold/list/ACT/2615/Florey/,18 Le Souef Crescent ,-35.2267570,149.0504550,house,3,2,2,"$485,000",15 Mar 2017,https://www.auhouseprices.com/sold/view/ACT/341561978/18+Le+Souef+Crescent%2C+Florey+ACT/
175,2615,Florey,56,https://www.auhouseprices.com/sold/list/ACT/2615/Florey/,8 Wragge Place ,-35.2293380,149.0465640,house,3,1,1,"$560,000",14 Mar 2017,https://www.auhouseprices.com/sold/view/ACT/341350978/8+Wragge+Place%2C+Florey+ACT/
176,2615,Florey,56,https://www.auhouseprices.com/sold/list/ACT/2615/Florey/,18 Whitelegge Close ,-35.2276900,149.0365300,house,4,2,2,"$585,000",4 Mar 2017,https://www.auhouseprices.com/sold/view/ACT/341950878/18+Whitelegge+Close%2C+Florey+ACT/
177,2615,Florey,56,https://www.auhouseprices.com/sold/list/ACT/2615/Florey/,4/2 Quayle Place ,-35.2271970,149.0532760,townhouse,2,1,1,"$375,000",3 Mar 2017,https://www.auhouseprices.com/sold/view/ACT/341962878/4-2+Quayle+Place%2C+Florey+ACT/
178,2615,Florey,56,https://www.auhouseprices.com/sold/list/ACT/2615/Florey/,11/1 Flecker Place ,-35.2243730,149.0563500,townhouse,3,1,1,"$385,000",18 Feb 2017,https://www.auhouseprices.com/sold/view/ACT/341719578/11-1+Flecker+Place%2C+Florey+ACT/
179,2615,Florey,56,https://www.auhouseprices.com/sold/list/ACT/2615/Florey/,19 Tunney Crescent ,-35.2295660,149.0504800,house,3,2,2,"$655,000",11 Feb 2017,https://www.auhouseprices.com/sold/view/ACT/341927468/19+Tunney++Crescent%2C+Florey+ACT/
180,2615,Florey,56,https://www.auhouseprices.com/sold/list/ACT/2615/Florey/,106 Ratcliffe Crescent ,-35.2302600,149.0551500,house,5,4,3,"$840,000",11 Feb 2017,https://www.auhouseprices.com/sold/view/ACT/341119468/106+Ratcliffe+Crescent%2C+Florey+ACT/
181,2615,Florey,56,https://www.auhouseprices.com/sold/list/ACT/2615/Florey/,20 Mellor Circuit ,-35.2223370,149.0510000,house,4,2,2,"$710,000",4 Feb 2017,https://www.auhouseprices.com/sold/view/ACT/341232468/20+Mellor+Circuit%2C+Florey+ACT/
182,2615,Florey,56,https://www.auhouseprices.com/sold/list/ACT/2615/Florey/,20 Mellor Circuit ,-35.2223360,149.0510000,house,4,2,2,"$710,000",4 Feb 2017,https://www.auhouseprices.com/sold/view/ACT/341789368/20+Mellor+Circuit%2C+Florey+ACT/
183,2615,Florey,56,https://www.auhouseprices.com/sold/list/ACT/2615/Florey/,10 St John Crescent ,-35.2230700,149.0615440,house,4,1,2,"$608,500",2 Feb 2017,https://www.auhouseprices.com/sold/view/ACT/341707368/10+St+John+Crescent%2C+Florey+ACT/
184,2615,Florey,56,https://www.auhouseprices.com/sold/list/ACT/2615/Florey/,17 Cuscaden Crescent ,-35.2281590,149.0483170,house,3,1,1,"$510,000",22 Dec 2016,https://www.auhouseprices.com/sold/view/ACT/341428168/17+Cuscaden+Crescent%2C+Florey+ACT/
185,2615,Florey,56,https://www.auhouseprices.com/sold/list/ACT/2615/Florey/,4 Byram Place ,-35.2235050,149.0558230,house,3,2,2,"$551,000",22 Dec 2016,https://www.auhouseprices.com/sold/view/ACT/341207869/4+Byram+Place%2C+Florey+ACT/
186,2615,Florey,56,https://www.auhouseprices.com/sold/list/ACT/2615/Florey/,4/16 Gabriel Place ,-35.2291530,149.0557730,townhouse,2,1,1,"$342,000",21 Dec 2016,https://www.auhouseprices.com/sold/view/ACT/341462168/4-16+Gabriel+Place%2C+Florey+ACT/
187,2615,Florey,56,https://www.auhouseprices.com/sold/list/ACT/2615/Florey/,60/15 John Cleland ,-35.2271270,149.0588860,house,3,2,2,"$420,000",13 Dec 2016,https://www.auhouseprices.com/sold/view/ACT/341681068/60-15+John+Cleland%2C+Florey+ACT/
188,2615,Florey,56,https://www.auhouseprices.com/sold/list/ACT/2615/Florey/,9 Bibby Place ,-35.2255200,149.0580000,house,5,2,2,"$797,000",10 Dec 2016,https://www.auhouseprices.com/sold/view/ACT/341654968/9+Bibby+Place%2C+Florey+ACT/
189,2615,Florey,56,https://www.auhouseprices.com/sold/list/ACT/2615/Florey/,1 Elkington Street ,-35.2225950,149.0439800,house,4,2,2,"$552,000",3 Dec 2016,https://www.auhouseprices.com/sold/view/ACT/341674868/1+Elkington+Street%2C+Florey+ACT/
190,2615,Florey,56,https://www.auhouseprices.com/sold/list/ACT/2615/Florey/,82 Twelvetrees Crescent ,-35.2229270,149.0552520,house,3,1,2,"$503,500",24 Nov 2016,https://www.auhouseprices.com/sold/view/ACT/341521768/82+Twelvetrees+Crescent%2C+Florey+ACT/
191,2615,Florey,56,https://www.auhouseprices.com/sold/list/ACT/2615/Florey/,4 Shellshear Place ,-35.2233160,149.0461100,house,3,2,1,"$570,000",19 Nov 2016,https://www.auhouseprices.com/sold/view/ACT/341354668/4+Shellshear+Place%2C+Florey+ACT/
192,2615,Florey,56,https://www.auhouseprices.com/sold/list/ACT/2615/Florey/,18/15 John Cleland Crescent ,-35.2271270,149.0588860,townhouse,3,1,1,"$391,500",18 Nov 2016,https://www.auhouseprices.com/sold/view/ACT/341793668/18-15+John+Cleland+Crescent%2C+Florey+ACT/
193,2615,Florey,56,https://www.auhouseprices.com/sold/list/ACT/2615/Florey/,10 Whittell Crescent ,-35.2210710,149.0492450,house,3,1,3,"$465,000",10 Nov 2016,https://www.auhouseprices.com/sold/view/ACT/341333568/10+Whittell+Crescent%2C+Florey+ACT/
194,2615,Florey,56,https://www.auhouseprices.com/sold/list/ACT/2615/Florey/,40 MacCallum Circuit ,-35.2230870,149.0497900,house,4,2,4,"$695,000",29 Oct 2016,https://www.auhouseprices.com/sold/view/ACT/341436358/40+MacCallum+Circuit%2C+Florey+ACT/
195,2615,Florey,56,https://www.auhouseprices.com/sold/list/ACT/2615/Florey/,26 Summerville Crescent ,-35.2284050,149.0526430,house,3,1,1,"$531,000",6 Oct 2016,https://www.auhouseprices.com/sold/view/ACT/341848058/26+Summerville+Crescent%2C+Florey+ACT/
196,2615,Florey,56,https://www.auhouseprices.com/sold/list/ACT/2615/Florey/,128/15 John Cleland Crescent ,-35.2271270,149.0588860,unit,2,2,1,"$295,000",6 Oct 2016,https://www.auhouseprices.com/sold/view/ACT/341742158/128-15+John+Cleland+Crescent%2C+Florey+ACT/
197,2615,Florey,56,https://www.auhouseprices.com/sold/list/ACT/2615/Florey/,53 Ennor Crescent ,-35.2240020,149.0456390,house,4,1,2,"$582,000",5 Oct 2016,https://www.auhouseprices.com/sold/view/ACT/341496058/53+Ennor+Crescent%2C+Florey+ACT/
198,2615,Florey,56,https://www.auhouseprices.com/sold/list/ACT/2615/Florey/,78 Summerville Crescent ,-35.2307170,149.0506900,house,3,2,2,"$585,000",24 Sep 2016,https://www.auhouseprices.com/sold/view/ACT/341685958/78+Summerville+Crescent%2C+Florey+ACT/
199,2615,Florey,56,https://www.auhouseprices.com/sold/list/ACT/2615/Florey/,3 Whitelegge Close ,-35.2272900,149.0370800,house,4,2,2,"$501,000",17 Sep 2016,https://www.auhouseprices.com/sold/view/ACT/341278858/3+Whitelegge+Close%2C+Florey+ACT/
200,2615,Florey,56,https://www.auhouseprices.com/sold/list/ACT/2615/Florey/,7/15 John Cleland Crescent ,-35.2271270,149.0588800,townhouse,3,1,1,"$360,000",10 Sep 2016,https://www.auhouseprices.com/sold/view/ACT/341321858/7-15+John+Cleland+Crescent%2C+Florey+ACT/
201,2615,Florey,56,https://www.auhouseprices.com/sold/list/ACT/2615/Florey/,15 Hamlet Place ,-35.2287210,149.0531410,house,3,1,2,"$520,000",3 Sep 2016,https://www.auhouseprices.com/sold/view/ACT/341564758/15+Hamlet+Place%2C+Florey+ACT/
202,2615,Florey,56,https://www.auhouseprices.com/sold/list/ACT/2615/Florey/,3/16 Gabriel Place ,-35.2291530,149.0557730,townhouse,2,1,1,"$340,000",22 Aug 2016,https://www.auhouseprices.com/sold/view/ACT/341713658/3-16+Gabriel+Place%2C+Florey+ACT/
203,2615,Florey,56,https://www.auhouseprices.com/sold/list/ACT/2615/Florey/,31 Pawsey Circuit ,-35.2278390,149.0420440,house,3,1,3,"$480,000",11 Aug 2016,https://www.auhouseprices.com/sold/view/ACT/341311558/31+Pawsey+Circuit%2C+Florey+ACT/
204,2615,Florey,56,https://www.auhouseprices.com/sold/list/ACT/2615/Florey/,4 Dalton Place ,-35.2237650,149.0508670,house,4,2,4,"$611,500",30 Jul 2016,https://www.auhouseprices.com/sold/view/ACT/341502448/4+Dalton+Place%2C+Florey+ACT/
205,2615,Florey,56,https://www.auhouseprices.com/sold/list/ACT/2615/Florey/,9 Lumholtz Place ,-35.2267760,149.0393440,house,3,1,1,"$510,000",15 Jun 2016,https://www.auhouseprices.com/sold/view/ACT/341246048/9+Lumholtz+Place%2C+Florey+ACT/
206,2615,Florey,56,https://www.auhouseprices.com/sold/list/ACT/2615/Florey/,11 Tattersall Crescent ,-35.2235570,149.0561700,house,3,2,1,"$512,500",11 Jun 2016,https://www.auhouseprices.com/sold/view/ACT/341248948/11+Tattersall+Crescent%2C+Florey+ACT/
207,2615,Florey,56,https://www.auhouseprices.com/sold/list/ACT/2615/Florey/,4 Camfield Place ,-35.2225100,149.0558800,house,3,1,1,"$475,000",11 Jun 2016,https://www.auhouseprices.com/sold/view/ACT/341948948/4+Camfield+Place%2C+Florey+ACT/
208,2615,Florey,56,https://www.auhouseprices.com/sold/list/ACT/2615/Florey/,9 Boan Close ,-35.2227730,149.0589940,house,5,2,3,"$710,000",28 May 2016,https://www.auhouseprices.com/sold/view/ACT/341592848/9+Boan+Close%2C+Florey+ACT/
209,2615,Florey,56,https://www.auhouseprices.com/sold/list/ACT/2615/Florey/,22 Barnard Circuit ,-35.2263730,149.0400920,house,4,2,2,"$550,000",25 May 2016,https://www.auhouseprices.com/sold/view/ACT/341882848/22+Barnard+Circuit%2C+Florey+ACT/
210,2615,Florey,56,https://www.auhouseprices.com/sold/list/ACT/2615/Florey/,62 Eddy Crescent ,-35.2265900,149.0468130,house,5,3,3,"$770,000",18 Apr 2016,https://www.auhouseprices.com/sold/view/ACT/341624438/62+Eddy+Crescent%2C+Florey+ACT/
211,2615,Florey,56,https://www.auhouseprices.com/sold/list/ACT/2615/Florey/,11 Priestley Place ,-35.2224980,149.0522460,house,4,3,3,"$815,000",7 Apr 2016,https://www.auhouseprices.com/sold/view/ACT/341462338/11+Priestley+Place%2C+Florey+ACT/
212,2615,Florey,56,https://www.auhouseprices.com/sold/list/ACT/2615/Florey/,17 Boas Place ,-35.2286470,149.0433260,house,3,1,2,"$467,500",25 Mar 2016,https://www.auhouseprices.com/sold/view/ACT/341514948/17+Boas+Place%2C+Florey+ACT/
213,2615,Florey,56,https://www.auhouseprices.com/sold/list/ACT/2615/Florey/,4 Tadgell Place ,-35.2302440,149.0564630,house,3,2,1,"$558,000",23 Mar 2016,https://www.auhouseprices.com/sold/view/ACT/341611238/4+Tadgell+Place%2C+Florey+ACT/
214,2615,Florey,56,https://www.auhouseprices.com/sold/list/ACT/2615/Florey/,6/20 Musson Close ,-35.2234450,149.0576870,house,3,1,1,"$390,000",29 Feb 2016,https://www.auhouseprices.com/sold/view/ACT/341061938/6-20+Musson+Close%2C+Florey+ACT/
215,2615,Florey,56,https://www.auhouseprices.com/sold/list/ACT/2615/Florey/,16 Hamlet Place ,-35.2288500,149.0533000,house,3,1,4,"$505,000",27 Feb 2016,https://www.auhouseprices.com/sold/view/ACT/341958838/16+Hamlet+Place%2C+Florey+ACT/
216,2615,Florey,56,https://www.auhouseprices.com/sold/list/ACT/2615/Florey/,10 Dalton Place ,-35.2242970,149.0504600,house,3,1,1,"$450,000",27 Feb 2016,https://www.auhouseprices.com/sold/view/ACT/341229838/10+Dalton+Place%2C+Florey+ACT/
217,2615,Florey,56,https://www.auhouseprices.com/sold/list/ACT/2615/Florey/,17 Boas Place ,-35.2286470,149.0433260,house,3,1,2,"$467,500",24 Feb 2016,https://www.auhouseprices.com/sold/view/ACT/341790938/17+Boas+Place%2C+Florey+ACT/
218,2615,Florey,56,https://www.auhouseprices.com/sold/list/ACT/2615/Florey/,42/15 John Cleland Crescent ,-35.2271270,149.0588800,townhouse,3,1,1,"$330,000",30 Jan 2016,https://www.auhouseprices.com/sold/view/ACT/341397538/42-15+John+Cleland+Crescent%2C+Florey+ACT/
219,2615,Florey,56,https://www.auhouseprices.com/sold/list/ACT/2615/Florey/,3 Freney Place ,-35.2220830,149.0531940,house,3,2,1,"$462,500",15 Jan 2016,https://www.auhouseprices.com/sold/view/ACT/341389527/3+Freney+Place%2C+Florey+ACT/
220,2615,Florey,56,https://www.auhouseprices.com/sold/list/ACT/2615/Florey/,16 Skertchly Place ,-35.2281410,149.0400140,house,3,1,2,"$435,000",22 Dec 2015,https://www.auhouseprices.com/sold/view/ACT/341904527/16+Skertchly+Place%2C+Florey+ACT/
221,2615,Florey,56,https://www.auhouseprices.com/sold/list/ACT/2615/Florey/,31 Twelvetrees Crescent ,-35.2230400,149.0599420,house,4,2,2,"$640,000",3 Dec 2015,https://www.auhouseprices.com/sold/view/ACT/341396227/31+Twelvetrees+Crescent%2C+Florey+ACT/
222,2615,Florey,56,https://www.auhouseprices.com/sold/list/ACT/2615/Florey/,1 Lightfoot Crescent ,-35.2294690,149.0565350,house,4,2,2,"$595,000",26 Nov 2015,https://www.auhouseprices.com/sold/view/ACT/341967127/1+Lightfoot+Crescent%2C+Florey+ACT/
223,2615,Florey,56,https://www.auhouseprices.com/sold/list/ACT/2615/Florey/,4 Skertchly Place ,-35.2277480,149.0389970,house,3,1,1,"$452,000",24 Nov 2015,https://www.auhouseprices.com/sold/view/ACT/341704827/4+Skertchly+Place%2C+Florey+ACT/
224,2615,Florey,56,https://www.auhouseprices.com/sold/list/ACT/2615/Florey/,6 Heymann Place ,-35.2208770,149.0527800,house,4,3,5,"$740,000",21 Nov 2015,https://www.auhouseprices.com/sold/view/ACT/341630827/6+Heymann+Place%2C+Florey+ACT/
225,2615,Florey,56,https://www.auhouseprices.com/sold/list/ACT/2615/Florey/,12 Enright Crescent ,-35.2276630,149.0521500,house,3,1,1,"$430,000",16 Nov 2015,https://www.auhouseprices.com/sold/view/ACT/341993727/12+Enright+Crescent%2C+Florey+ACT/
226,2615,Florey,56,https://www.auhouseprices.com/sold/list/ACT/2615/Florey/,8 Playoust Place ,-35.2236700,149.0466900,house,3,1,1,"$412,000",13 Nov 2015,https://www.auhouseprices.com/sold/view/ACT/341911727/8+Playoust+Place%2C+Florey+ACT/
227,2615,Florey,56,https://www.auhouseprices.com/sold/list/ACT/2615/Florey/,23 Longley Place ,-35.2327770,149.0516400,house,4,2,2,"$705,000",5 Nov 2015,https://www.auhouseprices.com/sold/view/ACT/341396517/23+Longley+Place%2C+Florey+ACT/
228,2615,Florey,56,https://www.auhouseprices.com/sold/list/ACT/2615/Florey/,1/61 Krefft Street ,-35.2255360,149.0468000,townhouse,3,2,2,"$493,000",28 Oct 2015,https://www.auhouseprices.com/sold/view/ACT/341876417/1-61+Krefft+Street%2C+Florey+ACT/
229,2615,Florey,56,https://www.auhouseprices.com/sold/list/ACT/2615/Florey/,4 Bowley Place ,-35.2214200,149.0477800,house,4,2,2,"$600,000",10 Oct 2015,https://www.auhouseprices.com/sold/view/ACT/341225217/4+Bowley+Place%2C+Florey+ACT/
230,2615,Florey,56,https://www.auhouseprices.com/sold/list/ACT/2615/Florey/,1 Quaife Place ,-35.2247160,149.0449000,house,3,2,2,"$560,000",12 Sep 2015,https://www.auhouseprices.com/sold/view/ACT/341768917/1+Quaife+Place%2C+Florey+ACT/
231,2615,Florey,56,https://www.auhouseprices.com/sold/list/ACT/2615/Florey/,1 Byram Place ,-35.2240030,149.0557900,house,4,2,2,"$519,880",12 Sep 2015,https://www.auhouseprices.com/sold/view/ACT/341797917/1+Byram+Place%2C+Florey+ACT/
232,2615,Florey,56,https://www.auhouseprices.com/sold/list/ACT/2615/Florey/,8 Tattersal Crescent ,-35.2249030,149.0562600,townhouse,3,1,1,"$360,000",2 Sep 2015,https://www.auhouseprices.com/sold/view/ACT/341718817/8+Tattersal+Crescent%2C+Florey+ACT/
233,2615,Florey,56,https://www.auhouseprices.com/sold/list/ACT/2615/Florey/,68 Summerville Crescent ,-35.2304570,149.0518000,house,4,3,7,"$700,000",29 Aug 2015,https://www.auhouseprices.com/sold/view/ACT/341064817/68+Summerville+Crescent%2C+Florey+ACT/
234,2615,Florey,56,https://www.auhouseprices.com/sold/list/ACT/2615/Florey/,31 Mellor Circuit ,-35.2225460,149.0504900,house,3,1,1,"$470,000",8 Aug 2015,https://www.auhouseprices.com/sold/view/ACT/341631617/31+Mellor+Circuit%2C+Florey+ACT/
235,2615,Florey,56,https://www.auhouseprices.com/sold/list/ACT/2615/Florey/,Unit 3/15 Stroud Place ,-35.2323530,149.0574000,unit,3,2,2,"$439,000",6 Aug 2015,https://www.auhouseprices.com/sold/view/ACT/341705617/Unit+3-15+Stroud+Place%2C+Florey+ACT/
236,2615,Florey,56,https://www.auhouseprices.com/sold/list/ACT/2615/Florey/,7 Camfield Place ,-35.2223800,149.0551500,house,3,1,1,"$442,000",4 Aug 2015,https://www.auhouseprices.com/sold/view/ACT/341237507/7+Camfield+Place%2C+Florey+ACT/
237,2615,Florey,56,https://www.auhouseprices.com/sold/list/ACT/2615/Florey/,40 Lightfoot Crescent ,-35.2333340,149.0562000,house,4,2,2,"$705,000",1 Aug 2015,https://www.auhouseprices.com/sold/view/ACT/341163507/40+Lightfoot+Crescent%2C+Florey+ACT/
238,2615,Florey,56,https://www.auhouseprices.com/sold/list/ACT/2615/Florey/,15 Maccallum Circuit ,-35.2233750,149.0476250,house,4,2,2,"$470,000",31 Jul 2015,https://www.auhouseprices.com/sold/view/ACT/341520227/15+Maccallum+Circuit%2C+Florey+ACT/
239,2615,Florey,56,https://www.auhouseprices.com/sold/list/ACT/2615/Florey/,9/1 Flecker Place ,-35.2243730,149.0563500,townhouse,3,1,1,"$369,200",9 Jun 2015,https://www.auhouseprices.com/sold/view/ACT/341468907/9-1+Flecker+Place%2C+Florey+ACT/
240,2615,Florey,56,https://www.auhouseprices.com/sold/list/ACT/2615/Florey/,2/2 Carne Place ,-35.2270850,149.0524100,townhouse,2,1,2,"$335,000",Jun 2015,https://www.auhouseprices.com/sold/view/ACT/341499107/2-2+Carne+Place%2C+Florey+ACT/
241,2615,Florey,56,https://www.auhouseprices.com/sold/list/ACT/2615/Florey/,7 Whittell Crescent ,-35.2211000,149.0482200,house,4,2,2,"$590,000",19 May 2015,https://www.auhouseprices.com/sold/view/ACT/341730807/7+Whittell+Crescent%2C+Florey+ACT/
242,2615,Florey,56,https://www.auhouseprices.com/sold/list/ACT/2615/Florey/,8 Craig Place ,-35.2228620,149.0450900,house,3,1,2,"$430,000",9 May 2015,https://www.auhouseprices.com/sold/view/ACT/341777607/8+Craig+Place%2C+Florey+ACT/
243,2615,Florey,56,https://www.auhouseprices.com/sold/list/ACT/2615/Florey/,4/9 Lidgett Place ,-35.2273060,149.0542800,townhouse,2,1,1,"$342,000",8 May 2015,https://www.auhouseprices.com/sold/view/ACT/341976607/4-9+Lidgett+Place%2C+Florey+ACT/
244,2615,Florey,56,https://www.auhouseprices.com/sold/list/ACT/2615/Florey/,15 Krefft Street ,-35.2214970,149.0428500,house,5,3,2,"$700,000",2 May 2015,https://www.auhouseprices.com/sold/view/ACT/341417397/15+Krefft+Street%2C+Florey+ACT/
245,2615,Florey,56,https://www.auhouseprices.com/sold/list/ACT/2615/Florey/,15 Summerville Crescent ,-35.2279550,149.0521200,house,3,1,1,"$395,000",16 Apr 2015,https://www.auhouseprices.com/sold/view/ACT/341438707/15+Summerville+Crescent%2C+Florey+ACT/
246,2615,Florey,56,https://www.auhouseprices.com/sold/list/ACT/2615/Florey/,20 Enright Crescent ,-35.2276460,149.0524900,house,3,2,2,"$380,000",15 Apr 2015,https://www.auhouseprices.com/sold/view/ACT/341147297/20+Enright+Crescent%2C+Florey+ACT/
247,2615,Florey,56,https://www.auhouseprices.com/sold/list/ACT/2615/Florey/,1 Fawsitt Place ,-35.2285540,149.0467200,house,3,2,4,"$510,000",2 Apr 2015,https://www.auhouseprices.com/sold/view/ACT/341084597/1+Fawsitt+Place%2C+Florey+ACT/
248,2615,Florey,56,https://www.auhouseprices.com/sold/list/ACT/2615/Florey/,86/15 John Cleland Crescent ,-35.2271270,149.0588800,townhouse,3,2,1,"$370,000",2 Apr 2015,https://www.auhouseprices.com/sold/view/ACT/341014597/86-15+John+Cleland+Crescent%2C+Florey+ACT/
249,2615,Florey,56,https://www.auhouseprices.com/sold/list/ACT/2615/Florey/,32 Lightfoot Crescent ,-35.2325500,149.0562100,house,5,2,3,"$740,000",31 Mar 2015,https://www.auhouseprices.com/sold/view/ACT/341060597/32+Lightfoot+Crescent%2C+Florey+ACT/
250,2615,Florey,56,https://www.auhouseprices.com/sold/list/ACT/2615/Florey/,1 Priestley Place ,-35.2216800,149.0514200,house,5,2,2,"$585,000",7 Mar 2015,https://www.auhouseprices.com/sold/view/ACT/341770287/1+Priestley+Place%2C+Florey+ACT/
251,2615,Florey,56,https://www.auhouseprices.com/sold/list/ACT/2615/Florey/,1 Freney Place ,-35.2221600,149.0530500,townhouse,3,2,1,"$402,000",21 Feb 2015,https://www.auhouseprices.com/sold/view/ACT/341315187/1+Freney+Place%2C+Florey+ACT/
252,2615,Florey,56,https://www.auhouseprices.com/sold/list/ACT/2615/Florey/,94/15 John Cleland Crescent ,-35.2271270,149.0588800,unit,2,1,1,"$302,500",16 Feb 2015,https://www.auhouseprices.com/sold/view/ACT/341025187/94-15+John+Cleland+Crescent%2C+Florey+ACT/
253,2615,Florey,56,https://www.auhouseprices.com/sold/list/ACT/2615/Florey/,7 Lumholtz Place ,-35.2266200,149.0394300,house,3,2,1,"$419,000",22 Dec 2014,https://www.auhouseprices.com/sold/view/ACT/341175887/7+Lumholtz+Place%2C+Florey+ACT/
254,2615,Florey,56,https://www.auhouseprices.com/sold/list/ACT/2615/Florey/,5 Kidd Place ,-35.2231640,149.0565600,house,3,2,2,"$485,000",17 Dec 2014,https://www.auhouseprices.com/sold/view/ACT/341559787/5+Kidd+Place%2C+Florey+ACT/
255,2615,Florey,56,https://www.auhouseprices.com/sold/list/ACT/2615/Florey/,7 Dalton Place ,-35.2245300,149.0509800,house,3,1,2,"$610,000",26 Nov 2014,https://www.auhouseprices.com/sold/view/ACT/341409587/7+Dalton+Place%2C+Florey+ACT/
256,2615,Florey,56,https://www.auhouseprices.com/sold/list/ACT/2615/Florey/,23 Boswell Crescent ,-35.2272300,149.0497000,house,3,1,1,"$445,000",19 Nov 2014,https://www.auhouseprices.com/sold/view/ACT/341551587/23+Boswell+Crescent%2C+Florey+ACT/
257,2615,Florey,56,https://www.auhouseprices.com/sold/list/ACT/2615/Florey/,15 Boas ,-35.2285040,149.0434100,house,3,1,1,"$448,000",18 Nov 2014,https://www.auhouseprices.com/sold/view/ACT/341220587/15+Boas%2C+Florey+ACT/
258,2615,Florey,56,https://www.auhouseprices.com/sold/list/ACT/2615/Florey/,Unit 1/68 Twelvetrees Crescent ,-35.2223170,149.0564900,duplex/semi-detached,3,1,1,"$360,000",12 Nov 2014,https://www.auhouseprices.com/sold/view/ACT/341687477/Unit+1-68+Twelvetrees+Crescent%2C+Florey+ACT/
259,2615,Florey,56,https://www.auhouseprices.com/sold/list/ACT/2615/Florey/,6/15 John Cleland Crescent ,-35.2271270,149.0588800,townhouse,3,1,1,"$370,000",3 Nov 2014,https://www.auhouseprices.com/sold/view/ACT/341910377/6-15+John+Cleland+Crescent%2C+Florey+ACT/
260,2615,Florey,56,https://www.auhouseprices.com/sold/list/ACT/2615/Florey/,7 Lambie Place ,-35.2280300,149.0442200,house,3,1,2,"$490,000",1 Nov 2014,https://www.auhouseprices.com/sold/view/ACT/341824377/7+Lambie+Place%2C+Florey+ACT/
261,2615,Florey,56,https://www.auhouseprices.com/sold/list/ACT/2615/Florey/,11 Hamlet Place ,-35.2287100,149.0527000,house,3,1,3,"$613,000",21 Oct 2014,https://www.auhouseprices.com/sold/view/ACT/341115277/11+Hamlet+Place%2C+Florey+ACT/
262,2615,Florey,56,https://www.auhouseprices.com/sold/list/ACT/2615/Florey/,12/1 Flecker Place ,-35.2244640,149.0557600,townhouse,3,1,1,"$359,000",24 Sep 2014,https://www.auhouseprices.com/sold/view/ACT/341064077/12-1+Flecker+Place%2C+Florey+ACT/
263,2615,Florey,56,https://www.auhouseprices.com/sold/list/ACT/2615/Florey/,3 Byram Place ,-35.2239150,149.0556300,house,3,1,1,"$411,600",15 Aug 2014,https://www.auhouseprices.com/sold/view/ACT/341815777/3+Byram+Place%2C+Florey+ACT/
264,2615,Florey,56,https://www.auhouseprices.com/sold/list/ACT/2615/Florey/,49 Ennor Crescent ,-35.2236140,149.0456200,house,4,4,3,"$622,000",26 Jun 2014,https://www.auhouseprices.com/sold/view/ACT/341308367/49+Ennor+Crescent%2C+Florey+ACT/
265,2615,Florey,56,https://www.auhouseprices.com/sold/list/ACT/2615/Florey/,52 Boswell Crescent ,-35.2254800,149.0501700,house,3,1,1,"$407,000",12 Jun 2014,https://www.auhouseprices.com/sold/view/ACT/341480167/52+Boswell+Crescent%2C+Florey+ACT/
266,2615,Florey,56,https://www.auhouseprices.com/sold/list/ACT/2615/Florey/,132/15 John Cleland Crescent ,-35.2271270,149.0588800,unit,2,2,1,"$321,000",5 Jun 2014,https://www.auhouseprices.com/sold/view/ACT/341441267/132-15+John+Cleland+Crescent%2C+Florey+ACT/
267,2615,Florey,56,https://www.auhouseprices.com/sold/list/ACT/2615/Florey/,51 Twelvetrees Crescent ,-35.2221370,149.0585000,house,5,2,2,"$638,000",27 May 2014,https://www.auhouseprices.com/sold/view/ACT/341687067/51++Twelvetrees+Crescent%2C+Florey+ACT/
268,2615,Florey,56,https://www.auhouseprices.com/sold/list/ACT/2615/Florey/,9 Nanson Street ,-35.2265620,149.0472600,house,3,1,2,"$532,000",26 May 2014,https://www.auhouseprices.com/sold/view/ACT/341078067/9+Nanson+Street%2C+Florey+ACT/
269,2615,Florey,56,https://www.auhouseprices.com/sold/list/ACT/2615/Florey/,1 Cuscaden Crescent ,-35.2294270,149.0475600,house,3,2,1,"$460,000",6 May 2014,https://www.auhouseprices.com/sold/view/ACT/341454967/1+Cuscaden+Crescent%2C+Florey+ACT/
270,2615,Florey,56,https://www.auhouseprices.com/sold/list/ACT/2615/Florey/,13 Dalton Place ,-35.2250000,149.0506100,house,5,3,2,"$657,000",12 Apr 2014,https://www.auhouseprices.com/sold/view/ACT/341369767/13+Dalton+Place%2C+Florey+ACT/
271,2615,Florey,56,https://www.auhouseprices.com/sold/list/ACT/2615/Florey/,39 Mellor Circuit ,-35.2216400,149.0506900,house,3,2,3,"$505,000",2 Apr 2014,https://www.auhouseprices.com/sold/view/ACT/341731437/39+Mellor+Circuit%2C+Florey+ACT/
272,2615,Florey,56,https://www.auhouseprices.com/sold/list/ACT/2615/Florey/,9 Musson Close ,-35.2241480,149.0587000,house,6,2,4,"$725,000",Apr 2014,https://www.auhouseprices.com/sold/view/ACT/341921547/9+Musson+Close%2C+Florey+ACT/
273,2615,Florey,56,https://www.auhouseprices.com/sold/list/ACT/2615/Florey/,28 Tunney Crescent ,-35.2292800,149.0499300,house,5,2,2,"$615,000",29 Mar 2014,https://www.auhouseprices.com/sold/view/ACT/341664437/28+Tunney+Crescent%2C+Florey+ACT/
274,2615,Florey,56,https://www.auhouseprices.com/sold/list/ACT/2615/Florey/,123/15 John Cleland Crescent ,-35.2271270,149.0588800,unit,2,1,2,"$340,000",19 Mar 2014,https://www.auhouseprices.com/sold/view/ACT/341208647/123-15+John+Cleland+Crescent%2C+Florey+ACT/
275,2615,Florey,56,https://www.auhouseprices.com/sold/list/ACT/2615/Florey/,2/3 Dendy Place ,-35.2331770,149.0573300,house,2,1,1,"$410,000",12 Mar 2014,https://www.auhouseprices.com/sold/view/ACT/341154547/2-3+Dendy+Place%2C+Florey+ACT/
276,2615,Florey,56,https://www.auhouseprices.com/sold/list/ACT/2615/Florey/,11/15 Stroud Place ,-35.2323750,149.0573960,townhouse,3,2,1,"$410,000",4 Mar 2014,https://www.auhouseprices.com/sold/view/ACT/331967716/11-15+Stroud+Place%2C+Florey+ACT/
277,2615,Florey,56,https://www.auhouseprices.com/sold/list/ACT/2615/Florey/,30 St John Crescent ,-35.2215060,149.0606330,house,5,2,2,"$605,000",21 Feb 2014,https://www.auhouseprices.com/sold/view/ACT/331806506/30+St+John+Crescent%2C+Florey+ACT/
278,2615,Florey,56,https://www.auhouseprices.com/sold/list/ACT/2615/Florey/,3 Challinor ,-35.2306550,149.0544180,house,4,2,2,"$605,500",14 Feb 2014,https://www.auhouseprices.com/sold/view/ACT/331308616/3+Challinor%2C+Florey+ACT/
279,2615,Florey,56,https://www.auhouseprices.com/sold/list/ACT/2615/Florey/,3 Challinor Crescent ,-35.2306550,149.0544180,house,4,2,2,"$605,500",14 Feb 2014,https://www.auhouseprices.com/sold/view/ACT/331018616/3+Challinor+Crescent%2C+Florey+ACT/
280,2615,Florey,56,https://www.auhouseprices.com/sold/list/ACT/2615/Florey/,3/15 Musson Close ,-35.2241080,149.0579770,townhouse,3,1,1,"$395,000",10 Feb 2014,https://www.auhouseprices.com/sold/view/ACT/331177916/3-15+Musson+Close%2C+Florey+ACT/
281,2615,Florey,56,https://www.auhouseprices.com/sold/list/ACT/2615/Florey/,6/16 Gabriel Place ,-35.2291530,149.0557730,townhouse,2,1,1,"$358,000",23 Jan 2014,https://www.auhouseprices.com/sold/view/ACT/331877916/6-16+Gabriel+Place%2C+Florey+ACT/
282,2615,Florey,56,https://www.auhouseprices.com/sold/list/ACT/2615/Florey/,20 Eddy Crescent ,-35.2270720,149.0442210,house,4,3,1,"$650,000",21 Jan 2014,https://www.auhouseprices.com/sold/view/ACT/331718616/20+Eddy+Crescent%2C+Florey+ACT/
283,2615,Florey,56,https://www.auhouseprices.com/sold/list/ACT/2615/Florey/,11 Zwar Place ,-35.2271640,149.0454770,house,5,3,2,"$670,000",9 Jan 2014,https://www.auhouseprices.com/sold/view/ACT/331428616/11+Zwar+Place%2C+Florey+ACT/
284,2615,Florey,56,https://www.auhouseprices.com/sold/list/ACT/2615/Florey/,34 Boswell Crescent ,-35.2271840,149.0504130,townhouse,3,2,2,"$490,000",11 Dec 2013,https://www.auhouseprices.com/sold/view/ACT/331072806/34+Boswell+Crescent%2C+Florey+ACT/
285,2615,Florey,56,https://www.auhouseprices.com/sold/list/ACT/2615/Florey/,23 Barnard Circuit ,-35.2268690,149.0403210,house,4,2,2,"$519,000",10 Dec 2013,https://www.auhouseprices.com/sold/view/ACT/321216161/23+Barnard+Circuit%2C+Florey+ACT/
286,2615,Florey,56,https://www.auhouseprices.com/sold/list/ACT/2615/Florey/,64 Eddy Crescent ,-35.2264190,149.0466700,house,3,3,2,"$555,000",9 Dec 2013,https://www.auhouseprices.com/sold/view/ACT/331301406/64+Eddy+Crescent%2C+Florey+ACT/
287,2615,Florey,56,https://www.auhouseprices.com/sold/list/ACT/2615/Florey/,85/15 John Cleland Crescent ,-35.2271270,149.0588800,unit,3,2,1,"$368,000",9 Dec 2013,https://www.auhouseprices.com/sold/view/ACT/341786497/85-15+John+Cleland+Crescent%2C+Florey+ACT/
288,2615,Florey,56,https://www.auhouseprices.com/sold/list/ACT/2615/Florey/,4 Belfield Crescent ,-35.2211940,149.0591720,house,4,2,2,"$725,000",5 Dec 2013,https://www.auhouseprices.com/sold/view/ACT/331225306/4+Belfield+Crescent%2C+Florey+ACT/
289,2615,Florey,56,https://www.auhouseprices.com/sold/list/ACT/2615/Florey/,73/15 John Cleland Crescent ,-35.2271270,149.0588860,Unit,2,1,1,"$333,000",Dec 2013,https://www.auhouseprices.com/sold/view/ACT/331700306/73-15+John+Cleland+Crescent%2C+Florey+ACT/
290,2615,Florey,56,https://www.auhouseprices.com/sold/list/ACT/2615/Florey/,2 Lidgett Place ,-35.2278250,149.0546040,house,4,2,2,"$500,000",27 Nov 2013,https://www.auhouseprices.com/sold/view/ACT/331711406/2+Lidgett+Place%2C+Florey+ACT/
291,2615,Florey,56,https://www.auhouseprices.com/sold/list/ACT/2615/Florey/,70/15 John Cleland Crescent ,-35.2271270,149.0588860,townhouse,3,2,2,"$363,500",25 Nov 2013,https://www.auhouseprices.com/sold/view/ACT/331925306/70-15+John+Cleland+Crescent%2C+Florey+ACT/
292,2615,Florey,56,https://www.auhouseprices.com/sold/list/ACT/2615/Florey/,4 Shellshear Place ,-35.2233150,149.0461150,House,3,1,1,"$445,000",Nov 2013,https://www.auhouseprices.com/sold/view/ACT/331011406/4+Shellshear+Place%2C+Florey+ACT/
293,2615,Florey,56,https://www.auhouseprices.com/sold/list/ACT/2615/Florey/,11/1 Flecker Place ,-35.2244670,149.0557550,townhouse,3,1,1,"$375,000",25 Oct 2013,https://www.auhouseprices.com/sold/view/ACT/331829806/11-1+Flecker+Place%2C+Florey+ACT/
294,2615,Florey,56,https://www.auhouseprices.com/sold/list/ACT/2615/Florey/,23 Roughley Place ,-35.2257100,149.0562200,townhouse,2,1,1,"$325,000",19 Oct 2013,https://www.auhouseprices.com/sold/view/ACT/321002603/23+Roughley+Place%2C+Florey+ACT/
295,2615,Florey,56,https://www.auhouseprices.com/sold/list/ACT/2615/Florey/,23 Roughley Place ,-35.2257100,149.0562100,house,2,1,1,"$325,000",19 Oct 2013,https://www.auhouseprices.com/sold/view/ACT/341829767/23+Roughley+Place%2C+Florey+ACT/
296,2615,Florey,56,https://www.auhouseprices.com/sold/list/ACT/2615/Florey/,6 Greenup Close ,-35.2214570,149.0566640,house,4,1,2,"$615,000",16 Oct 2013,https://www.auhouseprices.com/sold/view/ACT/331147625/6+Greenup+Close%2C+Florey+ACT/
297,2615,Florey,56,https://www.auhouseprices.com/sold/list/ACT/2615/Florey/,24 Tunney Crescent ,-35.2291030,149.0503800,house,4,2,2,"$612,500",10 Oct 2013,https://www.auhouseprices.com/sold/view/ACT/341126747/24+Tunney+Crescent%2C+Florey+ACT/
298,2615,Florey,56,https://www.auhouseprices.com/sold/list/ACT/2615/Florey/,8 Wragge Place ,-35.2293420,149.0465600,house,3,1,1,"$450,000",3 Oct 2013,https://www.auhouseprices.com/sold/view/ACT/301571464/8+Wragge+Place%2C+Florey+ACT/
299,2615,Florey,56,https://www.auhouseprices.com/sold/list/ACT/2615/Florey/,1 Summers Place ,-35.2263680,149.0439500,House,3,2,2,"$520,000",Oct 2013,https://www.auhouseprices.com/sold/view/ACT/331539806/1+Summers+Place%2C+Florey+ACT/
300,2615,Florey,56,https://www.auhouseprices.com/sold/list/ACT/2615/Florey/,25 Challinor Crescent ,-35.2325790,149.0538350,house,3,1,1,"$540,000",18 Sep 2013,https://www.auhouseprices.com/sold/view/ACT/301281464/25+Challinor+Crescent%2C+Florey+ACT/
301,2615,Florey,56,https://www.auhouseprices.com/sold/list/ACT/2615/Florey/,1 Tattersall Crescent ,-35.2240810,149.0552890,house,4,2,2,"$480,000",18 Sep 2013,https://www.auhouseprices.com/sold/view/ACT/301981464/1+Tattersall+Crescent%2C+Florey+ACT/
302,2615,Florey,56,https://www.auhouseprices.com/sold/list/ACT/2615/Florey/,1 Tattersall Crescent ,-35.2240810,149.0552890,house,4,2,2,"$480,000",18 Sep 2013,https://www.auhouseprices.com/sold/view/ACT/331171496/1+Tattersall+Crescent%2C+Florey+ACT/
303,2615,Florey,56,https://www.auhouseprices.com/sold/list/ACT/2615/Florey/,4/4 Stroud Place ,-35.2327447,149.0571541,townhouse,2,1,1,"$400,000",6 Sep 2013,https://www.auhouseprices.com/sold/view/ACT/331779806/4-4+Stroud+Place%2C+Florey+ACT/
304,2615,Florey,56,https://www.auhouseprices.com/sold/list/ACT/2615/Florey/,93/15 John Cleland Crescent ,-35.2271270,149.0588800,townhouse,3,2,1,"$385,000",30 Aug 2013,https://www.auhouseprices.com/sold/view/ACT/341209847/93-15+John+Cleland+Crescent%2C+Florey+ACT/
305,2615,Florey,56,https://www.auhouseprices.com/sold/list/ACT/2615/Florey/,3 Bolliger Place ,-35.2285690,149.0456200,house,4,3,2,"$585,000",29 Aug 2013,https://www.auhouseprices.com/sold/view/ACT/331581496/3+Bolliger+Place%2C+Florey+ACT/
306,2615,Florey,56,https://www.auhouseprices.com/sold/list/ACT/2615/Florey/,2 Maccallum Circuit ,-35.2239200,149.0490160,house,4,2,2,"$590,000",23 Aug 2013,https://www.auhouseprices.com/sold/view/ACT/331413096/2+Maccallum+Circuit%2C+Florey+ACT/
307,2615,Florey,56,https://www.auhouseprices.com/sold/list/ACT/2615/Florey/,129 Ratcliffe Crescent ,-35.2321120,149.0548880,house,4,2,2,"$530,000",13 Aug 2013,https://www.auhouseprices.com/sold/view/ACT/331267625/129+Ratcliffe+Crescent%2C+Florey+ACT/
308,2615,Florey,56,https://www.auhouseprices.com/sold/list/ACT/2615/Florey/,6 Edman Close ,-35.2254800,149.0595900,house,4,2,2,"$627,000",8 Aug 2013,https://www.auhouseprices.com/sold/view/ACT/3271526/6+Edman+Close%2C+Florey+ACT/
309,2615,Florey,56,https://www.auhouseprices.com/sold/list/ACT/2615/Florey/,7/2 Quayle Place ,-35.2271960,149.0533010,townhouse,2,1,1,"$345,000",30 Jul 2013,https://www.auhouseprices.com/sold/view/ACT/3233806/7-2+Quayle+Place%2C+Florey+ACT/
310,2615,Florey,56,https://www.auhouseprices.com/sold/list/ACT/2615/Florey/,92/15 John Cleland Crescent ,-35.2271270,149.0588860,Unit,3,2,1,"$385,000",Jul 2013,https://www.auhouseprices.com/sold/view/ACT/36619969/92-15+John+Cleland+Crescent%2C+Florey+ACT/
311,2615,Florey,56,https://www.auhouseprices.com/sold/list/ACT/2615/Florey/,5 Hayden Close ,-35.2265410,149.0495790,house,3,2,2,"$523,000",Jul 2013,https://www.auhouseprices.com/sold/view/ACT/301691464/5+Hayden+Close%2C+Florey+ACT/
312,2615,Florey,56,https://www.auhouseprices.com/sold/list/ACT/2615/Florey/,61 Ennor Crescent ,-35.2248470,149.0458360,house,4,2,2,"$651,000",Jul 2013,https://www.auhouseprices.com/sold/view/ACT/301302464/61+Ennor+Crescent%2C+Florey+ACT/
313,2615,Florey,56,https://www.auhouseprices.com/sold/list/ACT/2615/Florey/,25/15 John Cleland Crescent ,-35.2271270,149.0588860,townhouse,3,1,2,"$368,000",19 Jun 2013,https://www.auhouseprices.com/sold/view/ACT/3230906/25-15+John+Cleland+Crescent%2C+Florey+ACT/
314,2615,Florey,56,https://www.auhouseprices.com/sold/list/ACT/2615/Florey/,48 Hewlett Circuit ,-35.2237830,149.0469060,house,4,2,2,"$570,000",2 May 2013,https://www.auhouseprices.com/sold/view/ACT/3232106/48+Hewlett+Circuit%2C+Florey+ACT/
315,2615,Florey,56,https://www.auhouseprices.com/sold/list/ACT/2615/Florey/,28 Ennor Crescent ,-35.2228150,149.0455840,House,4,2,2,"$530,000",May 2013,https://www.auhouseprices.com/sold/view/ACT/30370221/28+Ennor+Crescent%2C+Florey+ACT/
316,2615,Florey,56,https://www.auhouseprices.com/sold/list/ACT/2615/Florey/,50 Eddy Crescent ,-35.2278210,149.0471820,house,4,2,2,"$630,000",29 Apr 2013,https://www.auhouseprices.com/sold/view/ACT/3239106/50+Eddy+Crescent%2C+Florey+ACT/
317,2615,Florey,56,https://www.auhouseprices.com/sold/list/ACT/2615/Florey/,3 Playoust Place ,-35.2243500,149.0461070,house,3,2,2,"$502,500",28 Mar 2013,https://www.auhouseprices.com/sold/view/ACT/321825161/3+Playoust+Place%2C+Florey+ACT/
318,2615,Florey,56,https://www.auhouseprices.com/sold/list/ACT/2615/Florey/,25 Barnard Circuit ,-35.2270590,149.0402360,house,3,2,2,"$449,000",13 Mar 2013,https://www.auhouseprices.com/sold/view/ACT/321945161/25+Barnard+Circuit%2C+Florey+ACT/
319,2615,Florey,56,https://www.auhouseprices.com/sold/list/ACT/2615/Florey/,28 Summerville Crescent ,-35.2283900,149.0528440,house,3,1,1,"$428,000",6 Mar 2013,https://www.auhouseprices.com/sold/view/ACT/321456161/28+Summerville+Crescent%2C+Florey+ACT/
320,2615,Florey,56,https://www.auhouseprices.com/sold/list/ACT/2615/Florey/,12 Shellshear Place ,-35.2234000,149.0470480,House,3,2,1,"$545,000",Mar 2013,https://www.auhouseprices.com/sold/view/ACT/3233306/12+Shellshear+Place%2C+Florey+ACT/
321,2615,Florey,56,https://www.auhouseprices.com/sold/list/ACT/2615/Florey/,6 Audas Place ,-35.2282160,149.0554130,house,3,1,4,"$449,950",8 Feb 2013,https://www.auhouseprices.com/sold/view/ACT/321895161/6+Audas+Place%2C+Florey+ACT/
322,2615,Florey,56,https://www.auhouseprices.com/sold/list/ACT/2615/Florey/,8 Spry Place ,-35.2279460,149.0502280,House,3,1,1,"$425,380",Feb 2013,https://www.auhouseprices.com/sold/view/ACT/321626161/8+Spry+Place%2C+Florey+ACT/
323,2615,Florey,56,https://www.auhouseprices.com/sold/list/ACT/2615/Florey/,16 Whittell Crescent ,-35.2209090,149.0500380,house,3,1,1,"$447,777",29 Jan 2013,https://www.auhouseprices.com/sold/view/ACT/321576161/16+Whittell+Crescent%2C+Florey+ACT/
324,2615,Florey,56,https://www.auhouseprices.com/sold/list/ACT/2615/Florey/,15 Clavert Place ,-35.2298700,149.0509290,house,2,1,2,"$382,500",18 Jan 2013,https://www.auhouseprices.com/sold/view/ACT/321696161/15+Clavert+Place%2C+Florey+ACT/
325,2615,Florey,56,https://www.auhouseprices.com/sold/list/ACT/2615/Florey/,83 MacCallum Circuit ,-35.2244100,149.0496950,house,3,1,2,"$462,000",16 Jan 2013,https://www.auhouseprices.com/sold/view/ACT/321837161/83+MacCallum+Circuit%2C+Florey+ACT/
326,2615,Florey,56,https://www.auhouseprices.com/sold/list/ACT/2615/Florey/,4 Nanson Place ,-35.2266900,149.0479070,House,4,2,1,"$515,000",Jan 2013,https://www.auhouseprices.com/sold/view/ACT/321075161/4+Nanson+Place%2C+Florey+ACT/
327,2615,Florey,56,https://www.auhouseprices.com/sold/list/ACT/2615/Florey/,62 Mellor Circuit ,-35.2239210,149.0527150,House,4,2,4,"$530,000",Jan 2013,https://www.auhouseprices.com/sold/view/ACT/321746161/62+Mellor+Circuit%2C+Florey+ACT/
328,2615,Florey,56,https://www.auhouseprices.com/sold/list/ACT/2615/Florey/,11 Nanson Place ,-35.2263970,149.0470840,house,5,3,2,"$655,000",18 Dec 2012,https://www.auhouseprices.com/sold/view/ACT/321916161/11+Nanson+Place%2C+Florey+ACT/
329,2615,Florey,56,https://www.auhouseprices.com/sold/list/ACT/2615/Florey/,4 Hamblin Place ,-35.2232870,149.0530300,house,5,3,1,"$560,000",11 Dec 2012,https://www.auhouseprices.com/sold/view/ACT/321058161/4+Hamblin+Place%2C+Florey+ACT/
330,2615,Florey,56,https://www.auhouseprices.com/sold/list/ACT/2615/Florey/,70 Enright Crescent ,-35.2284750,149.0544850,House,3,1,1,"$407,000",1 Dec 2012,https://www.auhouseprices.com/sold/view/ACT/321046161/70+Enright+Crescent%2C+Florey+ACT/
331,2615,Florey,56,https://www.auhouseprices.com/sold/list/ACT/2615/Florey/,69 Barnard Circuit ,-35.2257810,149.0374840,House,4,2,2,"$510,000",1 Dec 2012,https://www.auhouseprices.com/sold/view/ACT/321166161/69+Barnard+Circuit%2C+Florey+ACT/
332,2615,Florey,56,https://www.auhouseprices.com/sold/list/ACT/2615/Florey/,4 Wadham Place ,-35.2218260,149.0438790,House,4,2,2,"$615,000",1 Dec 2012,https://www.auhouseprices.com/sold/view/ACT/321108161/4+Wadham+Place%2C+Florey+ACT/
333,2615,Florey,56,https://www.auhouseprices.com/sold/list/ACT/2615/Florey/,5/2 Carne Place ,-35.2270850,149.0524160,unit,2,1,2,"$362,500",26 Nov 2012,https://www.auhouseprices.com/sold/view/ACT/321286161/5-2+Carne+Place%2C+Florey+ACT/
334,2615,Florey,56,https://www.auhouseprices.com/sold/list/ACT/2615/Florey/,45 Summerville Crescent ,-35.2307085,149.0518798,townhouse,2,1,1,"$370,000",20 Nov 2012,https://www.auhouseprices.com/sold/view/ACT/321228161/45+Summerville+Crescent%2C+Florey+ACT/
335,2615,Florey,56,https://www.auhouseprices.com/sold/list/ACT/2615/Florey/,4 Tunney Crescent ,-35.2299470,149.0524150,house,4,2,2,"$660,000",19 Nov 2012,https://www.auhouseprices.com/sold/view/ACT/321427161/4+Tunney+Crescent%2C+Florey+ACT/
336,2615,Florey,56,https://www.auhouseprices.com/sold/list/ACT/2615/Florey/,Unit 5 ,-35.2271270,149.0588800,townhouse,3,1,1,"$385,000",13 Nov 2012,https://www.auhouseprices.com/sold/view/ACT/331112126/Unit+5%2C15+John+Cleland+Crescent%2C+Florey+ACT/
337,2615,Florey,56,https://www.auhouseprices.com/sold/list/ACT/2615/Florey/,5/15 John Cleland Crescent ,-35.2271270,149.0588860,Townhouse,3,1,1,"$360,500",Nov 2012,https://www.auhouseprices.com/sold/view/ACT/321137161/5-15+John+Cleland+Crescent%2C+Florey+ACT/
338,2615,Florey,56,https://www.auhouseprices.com/sold/list/ACT/2615/Florey/,515 John Cleland Crescent ,-35.2234360,149.0550478,Unit,3,1,1,"$385,000",Nov 2012,https://www.auhouseprices.com/sold/view/ACT/321957161/515+John+Cleland+Crescent%2C+Florey+ACT/
339,2615,Florey,56,https://www.auhouseprices.com/sold/list/ACT/2615/Florey/,21 Hewlett Circuit ,-35.2241160,149.0473350,House,4,2,2,"$550,000",Nov 2012,https://www.auhouseprices.com/sold/view/ACT/321087161/21+Hewlett+Circuit%2C+Florey+ACT/
340,2615,Florey,56,https://www.auhouseprices.com/sold/list/ACT/2615/Florey/,83 Enright Crescent ,-35.2290350,149.0546040,House,3,2,2,"$480,000",Nov 2012,https://www.auhouseprices.com/sold/view/ACT/321787161/83+Enright+Crescent%2C+Florey+ACT/
341,2615,Florey,56,https://www.auhouseprices.com/sold/list/ACT/2615/Florey/,19 Elkington Street ,-35.2243130,149.0448470,House,4,2,2,"$560,000",Nov 2012,https://www.auhouseprices.com/sold/view/ACT/321928161/19+Elkington+Street%2C+Florey+ACT/
342,2615,Florey,56,https://www.auhouseprices.com/sold/list/ACT/2615/Florey/,9 Clements Street ,-35.2246650,149.0513630,house,3,1,2,"$385,000",23 Oct 2012,https://www.auhouseprices.com/sold/view/ACT/321758161/9+Clements+Street%2C+Florey+ACT/
343,2615,Florey,56,https://www.auhouseprices.com/sold/list/ACT/2615/Florey/,8 Boas Place ,-35.2287480,149.0428410,House,4,2,2,"$585,000",Oct 2012,https://www.auhouseprices.com/sold/view/ACT/321998161/8+Boas+Place%2C+Florey+ACT/
344,2615,Florey,56,https://www.auhouseprices.com/sold/list/ACT/2615/Florey/,12 Priestley Place ,-35.2224675,149.0518911,house,4,2,3,"$648,000",29 Sep 2012,https://www.auhouseprices.com/sold/view/ACT/321808161/12+Priestley+Place%2C+Florey+ACT/
345,2615,Florey,56,https://www.auhouseprices.com/sold/list/ACT/2615/Florey/,36 St John Crescent ,-35.2214380,149.0597970,house,5,3,2,"$711,000",22 Sep 2012,https://www.auhouseprices.com/sold/view/ACT/321638161/36+St+John+Crescent%2C+Florey+ACT/
346,2615,Florey,56,https://www.auhouseprices.com/sold/list/ACT/2615/Florey/,51 Ennor Crescent ,-35.2238140,149.0455620,house,4,2,7,"$650,000",21 Sep 2012,https://www.auhouseprices.com/sold/view/ACT/321468161/51+Ennor+Crescent%2C+Florey+ACT/
347,2615,Florey,56,https://www.auhouseprices.com/sold/list/ACT/2615/Florey/,23 Boswell Crescent ,-35.2272688,149.0496490,house,3,1,1,"$418,000",16 Aug 2012,https://www.auhouseprices.com/sold/view/ACT/331592346/23+Boswell+Crescent%2C+Florey+ACT/
348,2615,Florey,56,https://www.auhouseprices.com/sold/list/ACT/2615/Florey/,55 Summerville Crescent ,-35.2282400,149.0538770,House,2,1,1,"$377,000",Aug 2012,https://www.auhouseprices.com/sold/view/ACT/321319161/55+Summerville+Crescent%2C+Florey+ACT/
349,2615,Florey,56,https://www.auhouseprices.com/sold/list/ACT/2615/Florey/,14 Sloane Place ,-35.2206800,149.0557400,house,3,2,2,"$470,000",27 Jul 2012,https://www.auhouseprices.com/sold/view/ACT/331522126/14+Sloane+Place%2C+Florey+ACT/
350,2615,Florey,56,https://www.auhouseprices.com/sold/list/ACT/2615/Florey/,15 Mellor Circuit ,-35.2240070,149.0513900,house,3,2,2,"$485,000",11 Jul 2012,https://www.auhouseprices.com/sold/view/ACT/331812126/15+Mellor+Circuit%2C+Florey+ACT/
351,2615,Florey,56,https://www.auhouseprices.com/sold/list/ACT/2615/Florey/,18 Whittell Crescent ,-35.2211520,149.0501140,house,3,1,4,"$425,000",3 Jul 2012,https://www.auhouseprices.com/sold/view/ACT/321588161/18+Whittell+Crescent%2C+Florey+ACT/
352,2615,Florey,56,https://www.auhouseprices.com/sold/list/ACT/2615/Florey/,5 Freney Place ,-35.2220090,149.0533370,house,3,2,1,"$415,000",8 Jun 2012,https://www.auhouseprices.com/sold/view/ACT/331613346/5+Freney+Place%2C+Florey+ACT/
353,2615,Florey,56,https://www.auhouseprices.com/sold/list/ACT/2615/Florey/,103 Ratcliffe Crescent ,-35.2300630,149.0561320,House,3,1,2,"$639,000",Jun 2012,https://www.auhouseprices.com/sold/view/ACT/321849161/103+Ratcliffe+Crescent%2C+Florey+ACT/
354,2615,Florey,56,https://www.auhouseprices.com/sold/list/ACT/2615/Florey/,13 MacCallum Circuit ,-35.2234300,149.0477640,house,3,2,1,"$468,000",11 May 2012,https://www.auhouseprices.com/sold/view/ACT/321389161/13+MacCallum+Circuit%2C+Florey+ACT/
355,2615,Florey,56,https://www.auhouseprices.com/sold/list/ACT/2615/Florey/,31/15 John Cleland Crescent ,-35.2271270,149.0588860,townhouse,3,2,2,"$408,000",19 Apr 2012,https://www.auhouseprices.com/sold/view/ACT/321530161/31-15+John+Cleland+Crescent%2C+Florey+ACT/
356,2615,Florey,56,https://www.auhouseprices.com/sold/list/ACT/2615/Florey/,13 Roughley Place ,-35.2259330,149.0565650,house,3,2,1,"$420,000",19 Apr 2012,https://www.auhouseprices.com/sold/view/ACT/321190161/13+Roughley+Place%2C+Florey+ACT/
357,2615,Florey,56,https://www.auhouseprices.com/sold/list/ACT/2615/Florey/,13 Roughley Place ,-35.2259330,149.0565600,house,3,2,1,"$420,000",19 Apr 2012,https://www.auhouseprices.com/sold/view/ACT/331232126/13+Roughley+Place%2C+Florey+ACT/
358,2615,Florey,56,https://www.auhouseprices.com/sold/list/ACT/2615/Florey/,27 Boswell Crescent ,-35.2269760,149.0499950,House,3,1,1,"$385,500",Apr 2012,https://www.auhouseprices.com/sold/view/ACT/321070161/27+Boswell+Crescent%2C+Florey+ACT/
359,2615,Florey,56,https://www.auhouseprices.com/sold/list/ACT/2615/Florey/,12 Fielder Place ,-35.2214510,149.0535810,house,3,2,2,"$470,000",17 Mar 2012,https://www.auhouseprices.com/sold/view/ACT/321731261/12+Fielder+Place%2C+Florey+ACT/
360,2615,Florey,56,https://www.auhouseprices.com/sold/list/ACT/2615/Florey/,20 Ennor Crescent ,-35.2221380,149.0452620,House,4,2,2,"$610,000",Mar 2012,https://www.auhouseprices.com/sold/view/ACT/321901261/20+Ennor+Crescent%2C+Florey+ACT/
361,2615,Florey,56,https://www.auhouseprices.com/sold/list/ACT/2615/Florey/,46 Summerville Crescent ,-35.2296660,149.0533910,house,4,2,2,"$632,500",24 Jan 2012,https://www.auhouseprices.com/sold/view/ACT/321799161/46+Summerville+Crescent%2C+Florey+ACT/
362,2615,Florey,56,https://www.auhouseprices.com/sold/list/ACT/2615/Florey/,46 Summerville Crescent ,-35.2296680,149.0533900,house,4,2,2,"$623,500",24 Jan 2012,https://www.auhouseprices.com/sold/view/ACT/331352126/46+Summerville+Crescent%2C+Florey+ACT/
363,2615,Florey,56,https://www.auhouseprices.com/sold/list/ACT/2615/Florey/,33 Pawsey Circuit ,-35.2277340,149.0419130,House,3,1,1,"$205,000",Jan 2012,https://www.auhouseprices.com/sold/view/ACT/321151261/33+Pawsey+Circuit%2C+Florey+ACT/
364,2615,Florey,56,https://www.auhouseprices.com/sold/list/ACT/2615/Florey/,25 Roughley Place ,-35.2256640,149.0561520,house,2,1,1,"$382,000",13 Dec 2011,https://www.auhouseprices.com/sold/view/ACT/321770161/25+Roughley+Place%2C+Florey+ACT/
365,2615,Florey,56,https://www.auhouseprices.com/sold/list/ACT/2615/Florey/,39/15 John Cleland Crescent ,-35.2271270,149.0588860,Townhouse,3,2,1,"$420,000",Dec 2011,https://www.auhouseprices.com/sold/view/ACT/321820161/39-15+John+Cleland+Crescent%2C+Florey+ACT/
366,2615,Florey,56,https://www.auhouseprices.com/sold/list/ACT/2615/Florey/,53 Ennor Crescent ,-35.2240020,149.0456390,house,4,1,2,"$460,000",30 Nov 2011,https://www.auhouseprices.com/sold/view/ACT/321360161/53+Ennor+Crescent%2C+Florey+ACT/
367,2615,Florey,56,https://www.auhouseprices.com/sold/list/ACT/2615/Florey/,11 Boas Place ,-35.2283370,149.0434240,house,3,2,4,"$523,000",26 Nov 2011,https://www.auhouseprices.com/sold/view/ACT/321321261/11+Boas+Place%2C+Florey+ACT/
368,2615,Florey,56,https://www.auhouseprices.com/sold/list/ACT/2615/Florey/,6 Tadgell Place ,-35.2303690,149.0563290,house,2,1,1,"$400,000",25 Nov 2011,https://www.auhouseprices.com/sold/view/ACT/331455346/6+Tadgell+Place%2C+Florey+ACT/
369,2615,Florey,56,https://www.auhouseprices.com/sold/list/ACT/2615/Florey/,16 Enright Crescent ,-35.2276550,149.0523220,House,3,1,1,"$392,000",Nov 2011,https://www.auhouseprices.com/sold/view/ACT/331347346/16+Enright+Crescent%2C+Florey+ACT/
370,2615,Florey,56,https://www.auhouseprices.com/sold/list/ACT/2615/Florey/,11 Hamlet Place ,-35.2287090,149.0527000,house,3,1,2,"$430,000",20 Oct 2011,https://www.auhouseprices.com/sold/view/ACT/341798827/11+Hamlet+Place%2C+Florey+ACT/
371,2615,Florey,56,https://www.auhouseprices.com/sold/list/ACT/2615/Florey/,8 Nanson Place ,-35.2263340,149.0477100,house,4,2,2,"$600,000",21 Sep 2011,https://www.auhouseprices.com/sold/view/ACT/331762126/8+Nanson+Place%2C+Florey+ACT/
372,2615,Florey,56,https://www.auhouseprices.com/sold/list/ACT/2615/Florey/,65/15 John Cleland Crescent ,-35.2271270,149.0588800,townhouse,3,2,1,"$430,000",4 Aug 2011,https://www.auhouseprices.com/sold/view/ACT/331472126/65-15+John+Cleland+Crescent%2C+Florey+ACT/
373,2615,Florey,56,https://www.auhouseprices.com/sold/list/ACT/2615/Florey/,82 Twelvetrees Crescent ,-35.2229270,149.0552520,house,3,1,2,"$440,000",3 Aug 2011,https://www.auhouseprices.com/sold/view/ACT/321681261/82+Twelvetrees+Crescent%2C+Florey+ACT/
374,2615,Florey,56,https://www.auhouseprices.com/sold/list/ACT/2615/Florey/,30 Ratcliffe Crescent ,-35.2287160,149.0502810,house,4,2,3,"$575,000",3 Aug 2011,https://www.auhouseprices.com/sold/view/ACT/321822261/30+Ratcliffe+Crescent%2C+Florey+ACT/
375,2615,Florey,56,https://www.auhouseprices.com/sold/list/ACT/2615/Florey/,11 Sticht Place ,-35.2223330,149.0481360,House,3,1,2,"$551,000",Aug 2011,https://www.auhouseprices.com/sold/view/ACT/321851261/11+Sticht+Place%2C+Florey+ACT/
376,2615,Florey,56,https://www.auhouseprices.com/sold/list/ACT/2615/Florey/,9 and 9a Hewlett Circuit ,-35.2249750,149.0470340,house,6,3,2,"$711,000",10 Jun 2011,https://www.auhouseprices.com/sold/view/ACT/321192261/9+and+9a+Hewlett+Circuit%2C+Florey+ACT/
377,2615,Florey,56,https://www.auhouseprices.com/sold/list/ACT/2615/Florey/,9 Hewlett Circuit ,-35.2250884,149.0464883,House,3,1,1,"$711,000",Jun 2011,https://www.auhouseprices.com/sold/view/ACT/321892261/9+Hewlett+Circuit%2C+Florey+ACT/
378,2615,Florey,56,https://www.auhouseprices.com/sold/list/ACT/2615/Florey/,4/3 Dendy Place ,-35.2331760,149.0573290,Unit,2,1,1,"$389,000",May 2011,https://www.auhouseprices.com/sold/view/ACT/321391261/4-3+Dendy+Place%2C+Florey+ACT/
379,2615,Florey,56,https://www.auhouseprices.com/sold/list/ACT/2615/Florey/,2/61 Lightfoot Crescent ,-35.2344900,149.0554810,Unit,4,2,2,"$530,000",May 2011,https://www.auhouseprices.com/sold/view/ACT/321002261/2-61+Lightfoot+Crescent%2C+Florey+ACT/
380,2615,Florey,56,https://www.auhouseprices.com/sold/list/ACT/2615/Florey/,1/61 Lightfoot Crescent ,-35.2344900,149.0554810,Unit,3,1,2,"$415,000",Apr 2011,https://www.auhouseprices.com/sold/view/ACT/321482261/1-61+Lightfoot+Crescent%2C+Florey+ACT/
381,2615,Florey,56,https://www.auhouseprices.com/sold/list/ACT/2615/Florey/,28 Elkington Street ,-35.2246700,149.0452380,house,4,3,2,"$610,000",2 Mar 2011,https://www.auhouseprices.com/sold/view/ACT/321333261/28+Elkington+Street%2C+Florey+ACT/
382,2615,Florey,56,https://www.auhouseprices.com/sold/list/ACT/2615/Florey/,28 Elkington Street ,-35.2246700,149.0452380,house,4,3,2,"$610,000",2 Mar 2011,https://www.auhouseprices.com/sold/view/ACT/341423927/28+Elkington+Street%2C+Florey+ACT/
383,2615,Florey,56,https://www.auhouseprices.com/sold/list/ACT/2615/Florey/,8 Ratcliffe Cres ,-35.2298640,149.0477470,house,3,1,6,"$496,000",15 Feb 2011,https://www.auhouseprices.com/sold/view/ACT/341253927/8+Ratcliffe+Cres%2C+Florey+ACT/
384,2615,Florey,56,https://www.auhouseprices.com/sold/list/ACT/2615/Florey/,46 MacCallum Circuit ,-35.2237170,149.0497540,House,4,2,2,"$710,000",Feb 2011,https://www.auhouseprices.com/sold/view/ACT/321043261/46+MacCallum+Circuit%2C+Florey+ACT/
385,2615,Florey,56,https://www.auhouseprices.com/sold/list/ACT/2615/Florey/,129 Ratcliffe Crescent ,-35.2321120,149.0548880,House,4,2,2,"$520,000",1 Jan 2011,https://www.auhouseprices.com/sold/view/ACT/321453261/129+Ratcliffe+Crescent%2C+Florey+ACT/
386,2615,Florey,56,https://www.auhouseprices.com/sold/list/ACT/2615/Florey/,1 ,-35.2331760,149.0573290,Unit,2,1,1,"$378,000",1 Jan 2011,https://www.auhouseprices.com/sold/view/ACT/321983261/1%2C4+Stroud+Place%2C+Florey+ACT/
387,2615,Florey,56,https://www.auhouseprices.com/sold/list/ACT/2615/Florey/,3 Roughley Place ,-35.2260420,149.0571330,townhouse,2,1,1,"$375,000",16 Dec 2010,https://www.auhouseprices.com/sold/view/ACT/321134261/3+Roughley+Place%2C+Florey+ACT/
388,2615,Florey,56,https://www.auhouseprices.com/sold/list/ACT/2615/Florey/,80 Summerville Crescent ,-35.2307010,149.0504500,House,4,2,2,"$547,000",Dec 2010,https://www.auhouseprices.com/sold/view/ACT/321014261/80+Summerville+Crescent%2C+Florey+ACT/
389,2615,Florey,56,https://www.auhouseprices.com/sold/list/ACT/2615/Florey/,10 McAulay Place ,-35.2234650,149.0489860,house,3,1,1,"$386,000",Dec 2010,https://www.auhouseprices.com/sold/view/ACT/321784261/10+McAulay+Place%2C+Florey+ACT/
390,2615,Florey,56,https://www.auhouseprices.com/sold/list/ACT/2615/Florey/,5 Fawsitt Place ,-35.2288650,149.0464730,House,3,2,2,"$551,000",13 Nov 2010,https://www.auhouseprices.com/sold/view/ACT/321055261/5+Fawsitt+Place%2C+Florey+ACT/
391,2615,Florey,56,https://www.auhouseprices.com/sold/list/ACT/2615/Florey/,Unit 1 ,-35.2328700,149.0572700,townhouse,2,1,1,"$378,000",3 Nov 2010,https://www.auhouseprices.com/sold/view/ACT/331203126/Unit+1%2C4+Stroud+Place%2C+Florey+ACT/
392,2615,Florey,56,https://www.auhouseprices.com/sold/list/ACT/2615/Florey/,1 Summers Place ,-35.2263680,149.0439500,House,3,2,2,"$474,000",Nov 2010,https://www.auhouseprices.com/sold/view/ACT/321693261/1+Summers+Place%2C+Florey+ACT/
393,2615,Florey,56,https://www.auhouseprices.com/sold/list/ACT/2615/Florey/,6 Dannevig Place ,-35.2346290,149.0563270,House,4,2,2,"$568,000",Nov 2010,https://www.auhouseprices.com/sold/view/ACT/321424261/6+Dannevig+Place%2C+Florey+ACT/
394,2615,Florey,56,https://www.auhouseprices.com/sold/list/ACT/2615/Florey/,3 Greenup Close ,-35.2217720,149.0574130,House,4,2,2,"$646,000",Nov 2010,https://www.auhouseprices.com/sold/view/ACT/321544261/3+Greenup+Close%2C+Florey+ACT/
395,2615,Florey,56,https://www.auhouseprices.com/sold/list/ACT/2615/Florey/,11 Hamblin Place ,-35.2230960,149.0519790,House,5,2,2,"$675,000",Nov 2010,https://www.auhouseprices.com/sold/view/ACT/321664261/11+Hamblin+Place%2C+Florey+ACT/
396,2615,Florey,56,https://www.auhouseprices.com/sold/list/ACT/2615/Florey/,42 Lightfoot Crescent ,-35.2335780,149.0561440,House,4,2,2,"$676,000",Nov 2010,https://www.auhouseprices.com/sold/view/ACT/321805261/42+Lightfoot+Crescent%2C+Florey+ACT/
397,2615,Florey,56,https://www.auhouseprices.com/sold/list/ACT/2615/Florey/,40/15 John Cleland Crescent ,-35.2271270,149.0588860,Unit,3,1,1,"$380,000",Nov 2010,https://www.auhouseprices.com/sold/view/ACT/321225261/40-15+John+Cleland+Crescent%2C+Florey+ACT/
398,2615,Florey,56,https://www.auhouseprices.com/sold/list/ACT/2615/Florey/,40/15 John Clelland Crescent ,-35.2233590,149.0550530,townhouse,3,1,1,"$380,000",13 Oct 2010,https://www.auhouseprices.com/sold/view/ACT/321585261/40-15+John+Clelland+Crescent%2C+Florey+ACT/
399,2615,Florey,56,https://www.auhouseprices.com/sold/list/ACT/2615/Florey/,74/15 John Cleland Crescent ,-35.2271270,149.0588860,Unit,2,2,1,"$350,000",Oct 2010,https://www.auhouseprices.com/sold/view/ACT/321084261/74-15+John+Cleland+Crescent%2C+Florey+ACT/
400,2615,Florey,56,https://www.auhouseprices.com/sold/list/ACT/2615/Florey/,4 Le Souef Crescent ,-35.2264540,149.0505430,House,3,2,2,"$439,000",Oct 2010,https://www.auhouseprices.com/sold/view/ACT/321755261/4+Le+Souef+Crescent%2C+Florey+ACT/
401,2615,Florey,56,https://www.auhouseprices.com/sold/list/ACT/2615/Florey/,100 ,-35.2271270,149.0588860,apartment,2,1,1,"$330,000",14 Sep 2010,https://www.auhouseprices.com/sold/view/ACT/321925261/100%2C15+John+Cleland+Crescent%2C+Florey+ACT/
402,2615,Florey,56,https://www.auhouseprices.com/sold/list/ACT/2615/Florey/,4 Sloane Place ,-35.2207200,149.0571690,house,3,1,1,"$440,000",10 Sep 2010,https://www.auhouseprices.com/sold/view/ACT/321316261/4+Sloane+Place%2C+Florey+ACT/
403,2615,Florey,56,https://www.auhouseprices.com/sold/list/ACT/2615/Florey/,26 Edman Close ,-35.2252060,149.0608800,house,3,2,2,"$539,000",13 Aug 2010,https://www.auhouseprices.com/sold/view/ACT/321146261/26+Edman+Close%2C+Florey+ACT/
404,2615,Florey,56,https://www.auhouseprices.com/sold/list/ACT/2615/Florey/,10 Whittell Crescent ,-35.2210640,149.0492580,house,3,1,2,"$426,000",9 Jul 2010,https://www.auhouseprices.com/sold/view/ACT/321966261/10+Whittell+Crescent%2C+Florey+ACT/
405,2615,Florey,56,https://www.auhouseprices.com/sold/list/ACT/2615/Florey/,8 Boas Place ,-35.2287500,149.0428500,house,4,2,2,"$540,000",5 Jul 2010,https://www.auhouseprices.com/sold/view/ACT/331323126/8+Boas+Place%2C+Florey+ACT/
406,2615,Florey,56,https://www.auhouseprices.com/sold/list/ACT/2615/Florey/,9 Fawsitt Place ,-35.2292010,149.0461840,house,3,1,2,"$422,000",16 Jun 2010,https://www.auhouseprices.com/sold/view/ACT/321995261/9+Fawsitt+Place%2C+Florey+ACT/
407,2615,Florey,56,https://www.auhouseprices.com/sold/list/ACT/2615/Florey/,7 Edman Close ,-35.2245340,149.0603710,House,4,2,4,"$590,000",Jun 2010,https://www.auhouseprices.com/sold/view/ACT/321026261/7+Edman+Close%2C+Florey+ACT/
408,2615,Florey,56,https://www.auhouseprices.com/sold/list/ACT/2615/Florey/,59 Barnard Circuit ,-35.2266230,149.0369840,House,5,2,1,"$580,000",Jun 2010,https://www.auhouseprices.com/sold/view/ACT/321676261/59+Barnard+Circuit%2C+Florey+ACT/
