,Postcode,Suburb Name,Recent Sales,Suburb Link,Street Address,Latitude,Longitude,Property Type,Beds,Baths,Cars,Sold Price,Sold Date,Property Link
0,2914,Forde,56,https://www.auhouseprices.com/sold/list/ACT/2914/Forde/,15 Hooton Street ,-35.1621063,149.1486283,house,4,2,2,"$1,100,000",15 Mar 2021,https://www.auhouseprices.com/sold/view/ACT/341380170/15+Hooton+Street%2C+Forde+ACT/
1,2914,Forde,56,https://www.auhouseprices.com/sold/list/ACT/2914/Forde/,1/11 Dickins Street ,-35.1732121,149.1456189,townhouse,3,2,2,"$705,000",11 Mar 2021,https://www.auhouseprices.com/sold/view/ACT/341423170/1-11+Dickins+Street%2C+Forde+ACT/
2,2914,Forde,56,https://www.auhouseprices.com/sold/list/ACT/2914/Forde/,5 Octoman Street ,-35.1638687,149.1453264,house,4,2,2,"$838,888",24 Feb 2021,https://www.auhouseprices.com/sold/view/ACT/341937870/5+Octoman+Street%2C+Forde+ACT/
3,2914,Forde,56,https://www.auhouseprices.com/sold/list/ACT/2914/Forde/,33 Justice Kelly Street ,-35.1681988,149.1507538,house,4,2,2,"$1,375,000",18 Jan 2021,https://www.auhouseprices.com/sold/view/ACT/341613360/33+Justice+Kelly+Street%2C+Forde+ACT/
4,2914,Forde,56,https://www.auhouseprices.com/sold/list/ACT/2914/Forde/,5 Ivy Kent Street ,-35.1775156,149.1439063,house,4,2,2,"$920,808",30 Dec 2020,https://www.auhouseprices.com/sold/view/ACT/341754460/5+Ivy+Kent+Street%2C+Forde+ACT/
5,2914,Forde,56,https://www.auhouseprices.com/sold/list/ACT/2914/Forde/,43 Zakharov Avenue ,-35.1741406,149.1458489,townhouse,3,2,2,"$590,000",21 Dec 2020,https://www.auhouseprices.com/sold/view/ACT/341612160/43+Zakharov+Avenue%2C+Forde+ACT/
6,2914,Forde,56,https://www.auhouseprices.com/sold/list/ACT/2914/Forde/,5 Loma Rudduck Street ,-35.1707428,149.1481200,house,3,2,2,"$777,500",19 Dec 2020,https://www.auhouseprices.com/sold/view/ACT/341881160/5+Loma+Rudduck+Street%2C+Forde+ACT/
7,2914,Forde,56,https://www.auhouseprices.com/sold/list/ACT/2914/Forde/,75 Hibberd Crescent ,-35.1611264,149.1479658,house,3,2,2,"$585,000",3 Dec 2020,https://www.auhouseprices.com/sold/view/ACT/341139760/75+Hibberd+Crescent%2C+Forde+ACT/
8,2914,Forde,56,https://www.auhouseprices.com/sold/list/ACT/2914/Forde/,22 Ivy Kent Street ,-35.1767467,149.1445668,house,4,2,2,"$945,000",27 Nov 2020,https://www.auhouseprices.com/sold/view/ACT/341085660/22+Ivy+Kent+Street%2C+Forde+ACT/
9,2914,Forde,56,https://www.auhouseprices.com/sold/list/ACT/2914/Forde/,19 Spillett Street ,-35.1563750,149.1540868,house,5,2,2,"$900,000",18 Nov 2020,https://www.auhouseprices.com/sold/view/ACT/341040560/19+Spillett+Street%2C+Forde+ACT/
10,2914,Forde,56,https://www.auhouseprices.com/sold/list/ACT/2914/Forde/,3 Jessie Street ,-35.1653392,149.1452662,house,4,2,2,"$941,000",14 Nov 2020,https://www.auhouseprices.com/sold/view/ACT/341334450/3+Jessie+Street%2C+Forde+ACT/
11,2914,Forde,56,https://www.auhouseprices.com/sold/list/ACT/2914/Forde/,12 Smorgon Street ,-35.1768715,149.1436258,house,4,2,2,"$807,000",4 Nov 2020,https://www.auhouseprices.com/sold/view/ACT/341134250/12+Smorgon+Street%2C+Forde+ACT/
12,2914,Forde,56,https://www.auhouseprices.com/sold/list/ACT/2914/Forde/,10 Denoon Street ,-35.1658438,149.1432485,house,4,3,2,"$905,000",31 Oct 2020,https://www.auhouseprices.com/sold/view/ACT/341588150/10+Denoon+Street%2C+Forde+ACT/
13,2914,Forde,56,https://www.auhouseprices.com/sold/list/ACT/2914/Forde/,6/16 Ray Ellis Crescent ,-35.1742833,149.1426576,townhouse,4,2,2,"$695,000",17 Oct 2020,https://www.auhouseprices.com/sold/view/ACT/341931950/6-16+Ray+Ellis+Crescent%2C+Forde+ACT/
14,2914,Forde,56,https://www.auhouseprices.com/sold/list/ACT/2914/Forde/,14 Bladon Lane ,-35.1705308,149.1448207,unit,1,1,1,"$360,500",15 Oct 2020,https://www.auhouseprices.com/sold/view/ACT/341063150/14+Bladon+Lane%2C+Forde+ACT/
15,2914,Forde,56,https://www.auhouseprices.com/sold/list/ACT/2914/Forde/,30 Phyllis Frost Street ,-35.1679106,149.1502302,house,4,2,2,"$1,195,000",10 Oct 2020,https://www.auhouseprices.com/sold/view/ACT/341210850/30+Phyllis+Frost+Street%2C+Forde+ACT/
16,2914,Forde,56,https://www.auhouseprices.com/sold/list/ACT/2914/Forde/,3 Blizzard Circuit ,-35.1591274,149.1518980,house,5,3,2,"$1,000,000",10 Oct 2020,https://www.auhouseprices.com/sold/view/ACT/341313850/3+Blizzard+Circuit%2C+Forde+ACT/
17,2914,Forde,56,https://www.auhouseprices.com/sold/list/ACT/2914/Forde/,29 Hibberd Crescent ,-35.1623497,149.1460878,house,4,2,2,"$908,500",28 Sep 2020,https://www.auhouseprices.com/sold/view/ACT/341813650/29+Hibberd+Crescent%2C+Forde+ACT/
18,2914,Forde,56,https://www.auhouseprices.com/sold/list/ACT/2914/Forde/,37 Zakharov Avenue ,-35.1740990,149.1454305,house,3,2,1,"$620,000",24 Sep 2020,https://www.auhouseprices.com/sold/view/ACT/341936550/37+Zakharov+Avenue%2C+Forde+ACT/
19,2914,Forde,56,https://www.auhouseprices.com/sold/list/ACT/2914/Forde/,36 Phyllis Frost Street ,-35.1673898,149.1506227,house,4,2,2,"$995,000",19 Sep 2020,https://www.auhouseprices.com/sold/view/ACT/341178440/36+Phyllis+Frost+Street%2C+Forde+ACT/
20,2914,Forde,56,https://www.auhouseprices.com/sold/list/ACT/2914/Forde/,46 Aida Ball Circuit ,-35.1714655,149.1510814,house,5,2,2,"$1,470,000",19 Sep 2020,https://www.auhouseprices.com/sold/view/ACT/341298440/46+Aida+Ball+Circuit%2C+Forde+ACT/
21,2914,Forde,56,https://www.auhouseprices.com/sold/list/ACT/2914/Forde/,64 Francis Forde Boulevard ,-35.1710644,149.1450851,townhouse,3,2,2,"$560,000",9 Sep 2020,https://www.auhouseprices.com/sold/view/ACT/341953340/64+Francis+Forde+Boulevard%2C+Forde+ACT/
22,2914,Forde,56,https://www.auhouseprices.com/sold/list/ACT/2914/Forde/,5 Dickins Street ,-35.1732494,149.1444039,house,4,2,2,"$790,000",8 Sep 2020,https://www.auhouseprices.com/sold/view/ACT/341040240/5+Dickins+Street%2C+Forde+ACT/
23,2914,Forde,56,https://www.auhouseprices.com/sold/list/ACT/2914/Forde/,1/12 Lomax Street ,-35.1722150,149.1438947,house,3,2,2,"$632,000",4 Sep 2020,https://www.auhouseprices.com/sold/view/ACT/341848240/1-12+Lomax+Street%2C+Forde+ACT/
24,2914,Forde,56,https://www.auhouseprices.com/sold/list/ACT/2914/Forde/,22 Cleggett Street ,-35.1653197,149.1438275,house,3,2,1,"$650,000",27 Aug 2020,https://www.auhouseprices.com/sold/view/ACT/341621140/22+Cleggett+Street%2C+Forde+ACT/
25,2914,Forde,56,https://www.auhouseprices.com/sold/list/ACT/2914/Forde/,13 Bromham Street ,-35.1688699,149.1454468,house,4,2,2,"$1,220,000",12 Aug 2020,https://www.auhouseprices.com/sold/view/ACT/341312940/13+Bromham+Street%2C+Forde+ACT/
26,2914,Forde,56,https://www.auhouseprices.com/sold/list/ACT/2914/Forde/,37 Hurrell Street ,-35.1693221,149.1443498,house,3,2,2,"$662,000",8 Aug 2020,https://www.auhouseprices.com/sold/view/ACT/341145840/37+Hurrell+Street%2C+Forde+ACT/
27,2914,Forde,56,https://www.auhouseprices.com/sold/list/ACT/2914/Forde/,42 Quinane Avenue ,-35.1686227,149.1487119,house,5,3,2,"$1,340,000",4 Aug 2020,https://www.auhouseprices.com/sold/view/ACT/341297740/42+Quinane+Avenue%2C+Forde+ACT/
28,2914,Forde,56,https://www.auhouseprices.com/sold/list/ACT/2914/Forde/,38 Turbayne Crescent ,-35.1609169,149.1485970,house,4,2,2,"$790,000",27 Jul 2020,https://www.auhouseprices.com/sold/view/ACT/341247640/38+Turbayne+Crescent%2C+Forde+ACT/
29,2914,Forde,56,https://www.auhouseprices.com/sold/list/ACT/2914/Forde/,7 Sykes Place ,-35.1754283,149.1457070,house,3,2,2,"$685,000",22 Jul 2020,https://www.auhouseprices.com/sold/view/ACT/341437540/7+Sykes+Place%2C+Forde+ACT/
30,2914,Forde,56,https://www.auhouseprices.com/sold/list/ACT/2914/Forde/,107 Hibberd Crescent ,-35.1613566,149.1502333,house,3,2,2,"$735,000",21 Jul 2020,https://www.auhouseprices.com/sold/view/ACT/341495540/107+Hibberd+Crescent%2C+Forde+ACT/
31,2914,Forde,56,https://www.auhouseprices.com/sold/list/ACT/2914/Forde/,27 Aida Ball Circuit ,-35.1726728,149.1501031,house,4,3,2,"$997,000",20 Jul 2020,https://www.auhouseprices.com/sold/view/ACT/341682540/27+Aida+Ball+Circuit%2C+Forde+ACT/
32,2914,Forde,56,https://www.auhouseprices.com/sold/list/ACT/2914/Forde/,8 Bromham Street ,-35.1689894,149.1448132,house,5,2,2,"$860,999",16 Jul 2020,https://www.auhouseprices.com/sold/view/ACT/341810529/8+Bromham+Street%2C+Forde+ACT/
33,2914,Forde,56,https://www.auhouseprices.com/sold/list/ACT/2914/Forde/,30 Turbayne Crescent ,-35.1614773,149.1485129,house,4,2,2,"$790,000",24 Jun 2020,https://www.auhouseprices.com/sold/view/ACT/341615329/30+Turbayne+Crescent%2C+Forde+ACT/
34,2914,Forde,56,https://www.auhouseprices.com/sold/list/ACT/2914/Forde/,7 Leslie Dwyer Street ,-35.1743164,149.1438442,house,5,3,2,"$1,200,000",15 Jun 2020,https://www.auhouseprices.com/sold/view/ACT/341465229/7+Leslie+Dwyer+Street%2C+Forde+ACT/
35,2914,Forde,56,https://www.auhouseprices.com/sold/list/ACT/2914/Forde/,36 Helen Leonard Crescent ,-35.1667922,149.1431416,house,4,2,2,"$705,000",5 Jun 2020,https://www.auhouseprices.com/sold/view/ACT/341274129/36+Helen+Leonard+Crescent%2C+Forde+ACT/
36,2914,Forde,56,https://www.auhouseprices.com/sold/list/ACT/2914/Forde/,46 Hibberd Crescent ,-35.1617286,149.1465436,townhouse,2,1,1,"$460,000",20 May 2020,https://www.auhouseprices.com/sold/view/ACT/341914929/46+Hibberd+Crescent%2C+Forde+ACT/
37,2914,Forde,56,https://www.auhouseprices.com/sold/list/ACT/2914/Forde/,12/21 Francis Forde Boulevard ,-35.1711966,149.1415853,townhouse,4,2,2,"$626,000",16 May 2020,https://www.auhouseprices.com/sold/view/ACT/341840929/12-21+Francis+Forde+Boulevard%2C+Forde+ACT/
38,2914,Forde,56,https://www.auhouseprices.com/sold/list/ACT/2914/Forde/,7 Foy Street ,-35.1598536,149.1505999,house,4,2,2,"$820,000",23 Apr 2020,https://www.auhouseprices.com/sold/view/ACT/341902429/7+Foy+Street%2C+Forde+ACT/
39,2914,Forde,56,https://www.auhouseprices.com/sold/list/ACT/2914/Forde/,3/25 Hurrell Street ,-35.1682692,149.1435490,house,4,3,2,"$740,000",13 Mar 2020,https://www.auhouseprices.com/sold/view/ACT/341566119/3-25+Hurrell+Street%2C+Forde+ACT/
40,2914,Forde,56,https://www.auhouseprices.com/sold/list/ACT/2914/Forde/,3 Miljanovic Street ,-35.1646990,149.1457873,house,4,2,2,"$787,500",13 Mar 2020,https://www.auhouseprices.com/sold/view/ACT/341499119/3+Miljanovic+Street%2C+Forde+ACT/
41,2914,Forde,56,https://www.auhouseprices.com/sold/list/ACT/2914/Forde/,13 Buscombe Street ,-35.1713640,149.1405000,house,4,2,2,"$912,000",7 Mar 2020,https://www.auhouseprices.com/sold/view/ACT/341010019/13+Buscombe+Street%2C+Forde+ACT/
42,2914,Forde,56,https://www.auhouseprices.com/sold/list/ACT/2914/Forde/,10 Turbayne Crescent ,-35.1626067,149.1488830,house,4,2,2,"$792,000",6 Mar 2020,https://www.auhouseprices.com/sold/view/ACT/341797019/10+Turbayne+Crescent%2C+Forde+ACT/
43,2914,Forde,56,https://www.auhouseprices.com/sold/list/ACT/2914/Forde/,4 Cleggett Street ,-35.1657134,149.1450125,house,4,2,2,"$780,000",28 Feb 2020,https://www.auhouseprices.com/sold/view/ACT/341715019/4+Cleggett+Street%2C+Forde+ACT/
44,2914,Forde,56,https://www.auhouseprices.com/sold/list/ACT/2914/Forde/,21 Blizzard Circuit ,-35.1578471,149.1519082,house,4,2,2,"$910,000",20 Feb 2020,https://www.auhouseprices.com/sold/view/ACT/341572819/21+Blizzard+Circuit%2C+Forde+ACT/
45,2914,Forde,56,https://www.auhouseprices.com/sold/list/ACT/2914/Forde/,39 David Walsh Avenue ,-35.1758891,149.1461583,unit,1,1,1,"$335,000",18 Feb 2020,https://www.auhouseprices.com/sold/view/ACT/341098719/39+David+Walsh+Avenue%2C+Forde+ACT/
46,2914,Forde,56,https://www.auhouseprices.com/sold/list/ACT/2914/Forde/,5 Mantle Street ,-35.1731695,149.1490402,house,4,2,2,"$870,000",17 Feb 2020,https://www.auhouseprices.com/sold/view/ACT/341757719/5+Mantle+Street%2C+Forde+ACT/
47,2914,Forde,56,https://www.auhouseprices.com/sold/list/ACT/2914/Forde/,7/35 Laird Crescent ,-35.1571570,149.1512023,house,3,2,2,"$600,000",14 Feb 2020,https://www.auhouseprices.com/sold/view/ACT/341244719/7-35+Laird+Crescent%2C+Forde+ACT/
48,2914,Forde,56,https://www.auhouseprices.com/sold/list/ACT/2914/Forde/,9 Callus Street ,-35.1561391,149.1536634,house,4,2,2,"$828,000",10 Feb 2020,https://www.auhouseprices.com/sold/view/ACT/341686619/9+Callus+Street%2C+Forde+ACT/
49,2914,Forde,56,https://www.auhouseprices.com/sold/list/ACT/2914/Forde/,15 Cleggett Street ,-35.1655212,149.1436462,house,4,3,2,"$915,000",4 Feb 2020,https://www.auhouseprices.com/sold/view/ACT/341400509/15+Cleggett+Street%2C+Forde+ACT/
50,2914,Forde,56,https://www.auhouseprices.com/sold/list/ACT/2914/Forde/,3 Buchan Crescent ,-35.1576469,149.1525176,house,3,2,2,"$721,000",31 Jan 2020,https://www.auhouseprices.com/sold/view/ACT/341215509/3+Buchan+Crescent%2C+Forde+ACT/
51,2914,Forde,56,https://www.auhouseprices.com/sold/list/ACT/2914/Forde/,3/16 Neil Harris Crescent ,-35.1740181,149.1408328,townhouse,3,2,2,"$656,000",24 Jan 2020,https://www.auhouseprices.com/sold/view/ACT/341379409/3-16+Neil+Harris+Crescent%2C+Forde+ACT/
52,2914,Forde,56,https://www.auhouseprices.com/sold/list/ACT/2914/Forde/,15 Horneville Street ,-35.1747471,149.1449754,house,4,2,2,"$765,000",24 Jan 2020,https://www.auhouseprices.com/sold/view/ACT/341642509/15+Horneville+Street%2C+Forde+ACT/
53,2914,Forde,56,https://www.auhouseprices.com/sold/list/ACT/2914/Forde/,42 Aida Ball Circuit ,-35.1716543,149.1506033,house,3,2,2,"$890,000",2 Jan 2020,https://www.auhouseprices.com/sold/view/ACT/341487409/42+Aida+Ball+Circuit%2C+Forde+ACT/
54,2914,Forde,56,https://www.auhouseprices.com/sold/list/ACT/2914/Forde/,6/1 Jack Ryan Street ,-35.1740038,149.1467291,townhouse,3,2,2,"$557,500",23 Dec 2019,https://www.auhouseprices.com/sold/view/ACT/341684009/6-1+Jack+Ryan+Street%2C+Forde+ACT/
55,2914,Forde,56,https://www.auhouseprices.com/sold/list/ACT/2914/Forde/,12 Proud Street ,-35.1620173,149.1475501,house,4,2,2,"$755,000",21 Dec 2019,https://www.auhouseprices.com/sold/view/ACT/341485009/12+Proud+Street%2C+Forde+ACT/
56,2914,Forde,56,https://www.auhouseprices.com/sold/list/ACT/2914/Forde/,10 Volpato Street ,-35.1600456,149.1509562,house,4,2,2,"$863,000",20 Dec 2019,https://www.auhouseprices.com/sold/view/ACT/341456009/10+Volpato+Street%2C+Forde+ACT/
57,2914,Forde,56,https://www.auhouseprices.com/sold/list/ACT/2914/Forde/,12 Everson Street ,-35.1684292,149.1453913,house,5,3,5,"$1,445,000",20 Dec 2019,https://www.auhouseprices.com/sold/view/ACT/341988409/12+Everson+Street%2C+Forde+ACT/
58,2914,Forde,56,https://www.auhouseprices.com/sold/list/ACT/2914/Forde/,23 Turbayne Crescent ,-35.1625051,149.1480021,house,5,3,2,"$910,000",17 Dec 2019,https://www.auhouseprices.com/sold/view/ACT/341693109/23+Turbayne+Crescent%2C+Forde+ACT/
59,2914,Forde,56,https://www.auhouseprices.com/sold/list/ACT/2914/Forde/,56 Blizzard Circuit ,-35.1555636,149.1535824,house,4,2,2,"$886,500",16 Dec 2019,https://www.auhouseprices.com/sold/view/ACT/341175109/56+Blizzard+Circuit%2C+Forde+ACT/
60,2914,Forde,56,https://www.auhouseprices.com/sold/list/ACT/2914/Forde/,39 Hurrell Street ,-35.1693644,149.1445046,house,3,2,2,"$800,000",10 Dec 2019,https://www.auhouseprices.com/sold/view/ACT/341950309/39+Hurrell+Street%2C+Forde+ACT/
61,2914,Forde,56,https://www.auhouseprices.com/sold/list/ACT/2914/Forde/,38 Max Purnell Street ,-35.1770687,149.1421597,house,4,2,2,"$630,500",6 Dec 2019,https://www.auhouseprices.com/sold/view/ACT/341501909/38+Max+Purnell+Street%2C+Forde+ACT/
62,2914,Forde,56,https://www.auhouseprices.com/sold/list/ACT/2914/Forde/,4 Smorgon Street ,-35.1773906,149.1433320,house,5,2,2,"$990,000",4 Dec 2019,https://www.auhouseprices.com/sold/view/ACT/341456629/4+Smorgon+Street%2C+Forde+ACT/
63,2914,Forde,56,https://www.auhouseprices.com/sold/list/ACT/2914/Forde/,5 Beveridge Crescent ,-35.1695651,149.1413151,house,4,2,2,"$775,000",4 Dec 2019,https://www.auhouseprices.com/sold/view/ACT/341781209/5+Beveridge+Crescent%2C+Forde+ACT/
64,2914,Forde,56,https://www.auhouseprices.com/sold/list/ACT/2914/Forde/,2 Beveridge Crescent ,-35.1693607,149.1416610,house,3,2,2,"$776,000",2 Dec 2019,https://www.auhouseprices.com/sold/view/ACT/341209809/2+Beveridge+Crescent%2C+Forde+ACT/
65,2914,Forde,56,https://www.auhouseprices.com/sold/list/ACT/2914/Forde/,20 Helen Leonard Crescent ,-35.1667431,149.1418449,house,5,3,2,"$1,341,000",30 Nov 2019,https://www.auhouseprices.com/sold/view/ACT/341788709/20+Helen+Leonard+Crescent%2C+Forde+ACT/
66,2914,Forde,56,https://www.auhouseprices.com/sold/list/ACT/2914/Forde/,34 Bruce Dittmar Street ,-35.1772803,149.1449761,house,5,3,2,"$860,000",26 Nov 2019,https://www.auhouseprices.com/sold/view/ACT/341661709/34+Bruce+Dittmar+Street%2C+Forde+ACT/
67,2914,Forde,56,https://www.auhouseprices.com/sold/list/ACT/2914/Forde/,58 Quinane Avenue ,-35.1687921,149.1503412,house,4,2,2,"$870,000",22 Nov 2019,https://www.auhouseprices.com/sold/view/ACT/341676609/58+Quinane+Avenue%2C+Forde+ACT/
68,2914,Forde,56,https://www.auhouseprices.com/sold/list/ACT/2914/Forde/,17 Tom Nicholas Crescent ,-35.1717498,149.1447633,townhouse,3,2,2,"$565,000",19 Nov 2019,https://www.auhouseprices.com/sold/view/ACT/341400609/17+Tom+Nicholas+Crescent%2C+Forde+ACT/
69,2914,Forde,56,https://www.auhouseprices.com/sold/list/ACT/2914/Forde/,9 Hooton Street ,-35.1621526,149.1490686,house,4,2,2,"$720,000",14 Nov 2019,https://www.auhouseprices.com/sold/view/ACT/341150499/9+Hooton+Street%2C+Forde+ACT/
70,2914,Forde,56,https://www.auhouseprices.com/sold/list/ACT/2914/Forde/,9 Jessie Street ,-35.1651852,149.1448011,house,4,2,2,"$1,010,000",8 Nov 2019,https://www.auhouseprices.com/sold/view/ACT/341664609/9+Jessie+Street%2C+Forde+ACT/
71,2914,Forde,56,https://www.auhouseprices.com/sold/list/ACT/2914/Forde/,4 Santospirito Street ,-35.1709375,149.1401763,house,4,3,2,"$820,000",7 Nov 2019,https://www.auhouseprices.com/sold/view/ACT/341600299/4+Santospirito+Street%2C+Forde+ACT/
72,2914,Forde,56,https://www.auhouseprices.com/sold/list/ACT/2914/Forde/,2/2 Alice Berry Street ,-35.1734537,149.1467421,house,2,1,1,"$375,000",6 Nov 2019,https://www.auhouseprices.com/sold/view/ACT/341518299/2-2+Alice+Berry+Street%2C+Forde+ACT/
73,2914,Forde,56,https://www.auhouseprices.com/sold/list/ACT/2914/Forde/,6 Chiesa Street ,-35.1703239,149.1442883,house,4,2,2,"$875,000",31 Oct 2019,https://www.auhouseprices.com/sold/view/ACT/341183299/6+Chiesa+Street%2C+Forde+ACT/
74,2914,Forde,56,https://www.auhouseprices.com/sold/list/ACT/2914/Forde/,10/1 Jack Ryan Street ,-35.1739750,149.1470740,villa,4,2,2,"$600,000",18 Oct 2019,https://www.auhouseprices.com/sold/view/ACT/341182099/10-1+Jack+Ryan+Street%2C+Forde+ACT/
75,2914,Forde,56,https://www.auhouseprices.com/sold/list/ACT/2914/Forde/,49 Turbayne Crescent ,-35.1609133,149.1482895,townhouse,2,1,2,"$444,000",16 Oct 2019,https://www.auhouseprices.com/sold/view/ACT/341109999/49+Turbayne+Crescent%2C+Forde+ACT/
76,2914,Forde,56,https://www.auhouseprices.com/sold/list/ACT/2914/Forde/,74 Hibberd Crescent ,-35.1613091,149.1473229,townhouse,3,2,2,"$571,000",10 Oct 2019,https://www.auhouseprices.com/sold/view/ACT/341791099/74+Hibberd+Crescent%2C+Forde+ACT/
77,2914,Forde,56,https://www.auhouseprices.com/sold/list/ACT/2914/Forde/,15 Francis Forde Boulevard ,-35.1719017,149.1412227,house,3,2,1,"$820,000",4 Oct 2019,https://www.auhouseprices.com/sold/view/ACT/341333899/15+Francis+Forde+Boulevard%2C+Forde+ACT/
78,2914,Forde,56,https://www.auhouseprices.com/sold/list/ACT/2914/Forde/,18 Doris Turner Street ,-35.1680710,149.1493232,house,4,2,2,"$1,065,000",4 Oct 2019,https://www.auhouseprices.com/sold/view/ACT/341494899/18+Doris+Turner+Street%2C+Forde+ACT/
79,2914,Forde,56,https://www.auhouseprices.com/sold/list/ACT/2914/Forde/,50 Hurrell Street ,-35.1697810,149.1454158,house,4,2,2,"$838,000",3 Oct 2019,https://www.auhouseprices.com/sold/view/ACT/341851899/50+Hurrell+Street%2C+Forde+ACT/
80,2914,Forde,56,https://www.auhouseprices.com/sold/list/ACT/2914/Forde/,7/16 Ray Ellis Crescent ,-35.1745240,149.1421980,townhouse,4,2,2,"$615,000",30 Sep 2019,https://www.auhouseprices.com/sold/view/ACT/341286799/7-16+Ray+Ellis+Crescent%2C+Forde+ACT/
81,2914,Forde,56,https://www.auhouseprices.com/sold/list/ACT/2914/Forde/,20 Cleggett Street ,-35.1653628,149.1439385,house,3,2,1,"$605,000",27 Sep 2019,https://www.auhouseprices.com/sold/view/ACT/341034799/20+Cleggett+Street%2C+Forde+ACT/
82,2914,Forde,56,https://www.auhouseprices.com/sold/list/ACT/2914/Forde/,8 Hooton Street ,-35.1619787,149.1497227,house,4,2,2,"$808,000",26 Sep 2019,https://www.auhouseprices.com/sold/view/ACT/341262799/8+Hooton+Street%2C+Forde+ACT/
83,2914,Forde,56,https://www.auhouseprices.com/sold/list/ACT/2914/Forde/,12 Laird Crescent ,-35.1576360,149.1513930,house,4,3,2,"$875,000",25 Sep 2019,https://www.auhouseprices.com/sold/view/ACT/341581799/12+Laird+Crescent%2C+Forde+ACT/
84,2914,Forde,56,https://www.auhouseprices.com/sold/list/ACT/2914/Forde/,81 Zakharov Avenue ,-35.1724887,149.1482867,house,4,2,2,"$740,000",9 Sep 2019,https://www.auhouseprices.com/sold/view/ACT/341567489/81+Zakharov+Avenue%2C+Forde+ACT/
85,2914,Forde,56,https://www.auhouseprices.com/sold/list/ACT/2914/Forde/,28 Blizzard Circuit ,-35.1573004,149.1522341,house,3,2,2,"$642,000",26 Aug 2019,https://www.auhouseprices.com/sold/view/ACT/341757599/28+Blizzard+Circuit%2C+Forde+ACT/
86,2914,Forde,56,https://www.auhouseprices.com/sold/list/ACT/2914/Forde/,2 Alice Berry Street ,-35.1734537,149.1467421,townhouse,3,2,1,"$555,000",22 Aug 2019,https://www.auhouseprices.com/sold/view/ACT/341355289/2+Alice+Berry+Street%2C+Forde+ACT/
87,2914,Forde,56,https://www.auhouseprices.com/sold/list/ACT/2914/Forde/,1/40 Hibberd Crescent ,-35.1619980,149.1462350,townhouse,3,2,2,"$551,500",22 Aug 2019,https://www.auhouseprices.com/sold/view/ACT/341935289/1-40+Hibberd+Crescent%2C+Forde+ACT/
88,2914,Forde,56,https://www.auhouseprices.com/sold/list/ACT/2914/Forde/,9 Miljanovic Street ,-35.1645363,149.1453000,house,4,2,2,"$740,000",22 Aug 2019,https://www.auhouseprices.com/sold/view/ACT/341595289/9+Miljanovic+Street%2C+Forde+ACT/
89,2914,Forde,56,https://www.auhouseprices.com/sold/list/ACT/2914/Forde/,38 Hibberd Crescent ,-35.1621206,149.1463014,house,2,1,2,"$450,000",20 Aug 2019,https://www.auhouseprices.com/sold/view/ACT/341264289/38+Hibberd+Crescent%2C+Forde+ACT/
90,2914,Forde,56,https://www.auhouseprices.com/sold/list/ACT/2914/Forde/,18 Quinane Avenue ,-35.1674346,149.1460678,house,4,2,4,"$1,030,000",16 Aug 2019,https://www.auhouseprices.com/sold/view/ACT/341557189/18+Quinane+Avenue%2C+Forde+ACT/
91,2914,Forde,56,https://www.auhouseprices.com/sold/list/ACT/2914/Forde/,96 Hibberd Crescent ,-35.1616260,149.1495990,house,5,3,3,"$965,000",12 Aug 2019,https://www.auhouseprices.com/sold/view/ACT/341123189/96+Hibberd++Crescent%2C+Forde+ACT/
92,2914,Forde,56,https://www.auhouseprices.com/sold/list/ACT/2914/Forde/,11 Rickman Street ,-35.1698090,149.1448190,house,4,3,3,"$1,475,000",12 Aug 2019,https://www.auhouseprices.com/sold/view/ACT/341914189/11+Rickman+Street%2C+Forde+ACT/
93,2914,Forde,56,https://www.auhouseprices.com/sold/list/ACT/2914/Forde/,6 Volpato Street ,-35.1599750,149.1512900,house,4,2,2,"$790,000",11 Jul 2019,https://www.auhouseprices.com/sold/view/ACT/341475789/6+Volpato+Street%2C+Forde+ACT/
94,2914,Forde,56,https://www.auhouseprices.com/sold/list/ACT/2914/Forde/,10 Bromham Street ,-35.1691500,149.1449840,house,4,2,2,"$855,000",29 Jun 2019,https://www.auhouseprices.com/sold/view/ACT/341088589/10+Bromham+Street%2C+Forde+ACT/
95,2914,Forde,56,https://www.auhouseprices.com/sold/list/ACT/2914/Forde/,15 Buchan Crescent ,-35.1576870,149.1535480,house,4,2,2,"$999,950",26 Jun 2019,https://www.auhouseprices.com/sold/view/ACT/341325589/15+Buchan+Crescent%2C+Forde+ACT/
96,2914,Forde,56,https://www.auhouseprices.com/sold/list/ACT/2914/Forde/,4 Rubeo Street ,-35.1640640,149.1467270,house,4,2,2,"$785,000",21 Jun 2019,https://www.auhouseprices.com/sold/view/ACT/341301589/4+Rubeo+Street%2C+Forde+ACT/
97,2914,Forde,56,https://www.auhouseprices.com/sold/list/ACT/2914/Forde/,1 Buscombe Street ,-35.1722790,149.1405840,house,4,2,2,"$860,000",29 May 2019,https://www.auhouseprices.com/sold/view/ACT/341491379/1+Buscombe+Street%2C+Forde+ACT/
98,2914,Forde,56,https://www.auhouseprices.com/sold/list/ACT/2914/Forde/,53 Zakharov Avenue ,-35.1740550,149.1462920,townhouse,4,2,2,"$587,500",28 May 2019,https://www.auhouseprices.com/sold/view/ACT/341398279/53+Zakharov+Avenue%2C+Forde+ACT/
99,2914,Forde,56,https://www.auhouseprices.com/sold/list/ACT/2914/Forde/,47 Turbayne Crescent ,-35.1608450,149.1481050,house,2,1,1,"$433,500",21 May 2019,https://www.auhouseprices.com/sold/view/ACT/341441279/47+Turbayne+Crescent%2C+Forde+ACT/
100,2914,Forde,56,https://www.auhouseprices.com/sold/list/ACT/2914/Forde/,13 Horneville Street ,-35.1746370,149.1448700,house,4,2,2,"$815,000",18 May 2019,https://www.auhouseprices.com/sold/view/ACT/341108179/13+Horneville+Street%2C+Forde+ACT/
101,2914,Forde,56,https://www.auhouseprices.com/sold/list/ACT/2914/Forde/,2/2 Bladon Lane ,-35.1706320,149.1442970,townhouse,1,1,1,"$326,000",9 May 2019,https://www.auhouseprices.com/sold/view/ACT/341265079/2-2+Bladon+Lane%2C+Forde+ACT/
102,2914,Forde,56,https://www.auhouseprices.com/sold/list/ACT/2914/Forde/,17 Francis Forde Boulevard ,-35.1717780,149.1412670,house,4,2,2,"$850,000",8 May 2019,https://www.auhouseprices.com/sold/view/ACT/341725079/17+Francis+Forde+Boulevard%2C+Forde+ACT/
103,2914,Forde,56,https://www.auhouseprices.com/sold/list/ACT/2914/Forde/,67 Hibberd Crescent ,-35.1610330,149.1474630,house,3,1,2,"$539,000",3 May 2019,https://www.auhouseprices.com/sold/view/ACT/341162079/67+Hibberd+Crescent%2C+Forde+ACT/
104,2914,Forde,56,https://www.auhouseprices.com/sold/list/ACT/2914/Forde/,38 Loma Rudduck Street ,-35.1708160,149.1466090,house,4,2,2,"$931,000",12 Apr 2019,https://www.auhouseprices.com/sold/view/ACT/341436779/38+Loma+Rudduck+Street%2C+Forde+ACT/
105,2914,Forde,56,https://www.auhouseprices.com/sold/list/ACT/2914/Forde/,11 Les Edwards Street ,-35.1720950,149.1490310,house,4,2,2,"$886,000",12 Apr 2019,https://www.auhouseprices.com/sold/view/ACT/341026779/11+Les+Edwards+Street%2C+Forde+ACT/
106,2914,Forde,56,https://www.auhouseprices.com/sold/list/ACT/2914/Forde/,27 Phyllis Frost Street ,-35.1681300,149.1497800,house,4,2,2,"$896,500",6 Apr 2019,https://www.auhouseprices.com/sold/view/ACT/341590779/27+Phyllis+Frost+Street%2C+Forde+ACT/
107,2914,Forde,56,https://www.auhouseprices.com/sold/list/ACT/2914/Forde/,54 Turbayne Crescent ,-35.1609790,149.1498480,house,3,2,2,"$650,100",2 Apr 2019,https://www.auhouseprices.com/sold/view/ACT/341614679/54+Turbayne+Crescent%2C+Forde+ACT/
108,2914,Forde,56,https://www.auhouseprices.com/sold/list/ACT/2914/Forde/,74 Max Purnell Street ,-35.1764670,149.1439760,house,4,2,2,"$710,000",2 Apr 2019,https://www.auhouseprices.com/sold/view/ACT/341854679/74+Max+Purnell+Street%2C+Forde+ACT/
109,2914,Forde,56,https://www.auhouseprices.com/sold/list/ACT/2914/Forde/,1 Dickins Street ,-35.1733270,149.1441110,house,5,2,2,"$690,000",29 Mar 2019,https://www.auhouseprices.com/sold/view/ACT/341519879/1+Dickins+Street%2C+Forde+ACT/
110,2914,Forde,56,https://www.auhouseprices.com/sold/list/ACT/2914/Forde/,52 Aida Ball Circuit ,-35.1722070,149.1509100,house,5,2,2,"$993,000",23 Mar 2019,https://www.auhouseprices.com/sold/view/ACT/341303579/52+Aida+Ball+Circuit%2C+Forde+ACT/
111,2914,Forde,56,https://www.auhouseprices.com/sold/list/ACT/2914/Forde/,3 Allnutt Crescent ,-35.1683870,149.1418610,house,5,3,2,"$980,000",20 Mar 2019,https://www.auhouseprices.com/sold/view/ACT/341969469/3+Allnutt+Crescent%2C+Forde+ACT/
112,2914,Forde,56,https://www.auhouseprices.com/sold/list/ACT/2914/Forde/,24 Denoon Street ,-35.1650380,149.1435670,house,5,3,2,"$940,000",14 Mar 2019,https://www.auhouseprices.com/sold/view/ACT/341511469/24+Denoon+Street%2C+Forde+ACT/
113,2914,Forde,56,https://www.auhouseprices.com/sold/list/ACT/2914/Forde/,9 Proud Street ,-35.1620200,149.1470560,townhouse,2,1,1,"$430,000",8 Mar 2019,https://www.auhouseprices.com/sold/view/ACT/341629369/9+Proud+Street%2C+Forde+ACT/
114,2914,Forde,56,https://www.auhouseprices.com/sold/list/ACT/2914/Forde/,47 Zakharov Avenue ,-35.1740550,149.1460270,townhouse,3,2,2,"$495,000",27 Feb 2019,https://www.auhouseprices.com/sold/view/ACT/341903269/47+Zakharov+Avenue%2C+Forde+ACT/
115,2914,Forde,56,https://www.auhouseprices.com/sold/list/ACT/2914/Forde/,17 Cleggett Street ,-35.1655740,149.1434470,house,4,2,2,"$730,000",27 Feb 2019,https://www.auhouseprices.com/sold/view/ACT/341658579/17+Cleggett+Street%2C+Forde+ACT/
116,2914,Forde,56,https://www.auhouseprices.com/sold/list/ACT/2914/Forde/,48 Zakharov Avenue ,-35.1747070,149.1463090,house,5,3,2,"$935,000",27 Feb 2019,https://www.auhouseprices.com/sold/view/ACT/341877269/48+Zakharov+Avenue%2C+Forde+ACT/
117,2914,Forde,56,https://www.auhouseprices.com/sold/list/ACT/2914/Forde/,93 Blizzard Circuit ,-35.1573920,149.1533860,house,5,3,2,"$1,150,000",21 Feb 2019,https://www.auhouseprices.com/sold/view/ACT/341417669/93+Blizzard+Circuit%2C+Forde+ACT/
118,2914,Forde,56,https://www.auhouseprices.com/sold/list/ACT/2914/Forde/,10 Arndt Street ,-35.1692810,149.1475010,house,5,2,2,"$717,500",19 Feb 2019,https://www.auhouseprices.com/sold/view/ACT/341554669/10+Arndt+Street%2C+Forde+ACT/
119,2914,Forde,56,https://www.auhouseprices.com/sold/list/ACT/2914/Forde/,33 Buchan Crescent ,-35.1587120,149.1525750,house,4,2,3,"$835,000",18 Feb 2019,https://www.auhouseprices.com/sold/view/ACT/341343669/33+Buchan+Crescent%2C+Forde+ACT/
120,2914,Forde,56,https://www.auhouseprices.com/sold/list/ACT/2914/Forde/,4 Mantle St ,-35.1735950,149.1488140,house,4,2,2,"$778,900",18 Feb 2019,https://www.auhouseprices.com/sold/view/ACT/341889269/4+Mantle+St%2C+Forde+ACT/
121,2914,Forde,56,https://www.auhouseprices.com/sold/list/ACT/2914/Forde/,84 Max Purnell Street ,-35.1765750,149.1448000,house,3,2,2,"$845,000",16 Feb 2019,https://www.auhouseprices.com/sold/view/ACT/341302669/84+Max+Purnell+Street%2C+Forde+ACT/
122,2914,Forde,56,https://www.auhouseprices.com/sold/list/ACT/2914/Forde/,48 Aida Ball Circuit ,-35.1718670,149.1509880,house,4,2,2,"$955,000",6 Feb 2019,https://www.auhouseprices.com/sold/view/ACT/341918459/48+Aida+Ball+Circuit%2C+Forde+ACT/
123,2914,Forde,56,https://www.auhouseprices.com/sold/list/ACT/2914/Forde/,9 Zorzi Street ,-35.1676130,149.1454350,house,4,2,2,"$750,000",31 Jan 2019,https://www.auhouseprices.com/sold/view/ACT/341782459/9+Zorzi+Street%2C+Forde+ACT/
124,2914,Forde,56,https://www.auhouseprices.com/sold/list/ACT/2914/Forde/,9 Octoman Street ,-35.1636110,149.1453700,house,4,2,2,"$705,000",25 Jan 2019,https://www.auhouseprices.com/sold/view/ACT/341542459/9+Octoman+Street%2C+Forde+ACT/
125,2914,Forde,56,https://www.auhouseprices.com/sold/list/ACT/2914/Forde/,6 Fennessy Way ,-35.1758780,149.1459460,house,2,1,1,"$432,000",24 Jan 2019,https://www.auhouseprices.com/sold/view/ACT/341188359/6+Fennessy+Way%2C+Forde+ACT/
126,2914,Forde,56,https://www.auhouseprices.com/sold/list/ACT/2914/Forde/,5/21 Francis Forde Boulevard ,-35.1712750,149.1414380,townhouse,4,2,2,"$650,000",24 Jan 2019,https://www.auhouseprices.com/sold/view/ACT/341909359/5-21+Francis+Forde+Boulevard%2C+Forde+ACT/
127,2914,Forde,56,https://www.auhouseprices.com/sold/list/ACT/2914/Forde/,31 Quinane Street ,-35.1682260,149.1483710,house,4,2,2,"$1,020,000",13 Jan 2019,https://www.auhouseprices.com/sold/view/ACT/341987259/31+Quinane+Street%2C+Forde+ACT/
128,2914,Forde,56,https://www.auhouseprices.com/sold/list/ACT/2914/Forde/,22 Justice Kelly Street ,-35.1694170,149.1508700,house,4,2,2,"$880,000",19 Dec 2018,https://www.auhouseprices.com/sold/view/ACT/341175159/22+Justice+Kelly+Street%2C+Forde+ACT/
129,2914,Forde,56,https://www.auhouseprices.com/sold/list/ACT/2914/Forde/,6 Laird Crescent ,-35.1581610,149.1514360,house,4,2,2,"$810,000",18 Dec 2018,https://www.auhouseprices.com/sold/view/ACT/341354259/6+Laird+Crescent%2C+Forde+ACT/
130,2914,Forde,56,https://www.auhouseprices.com/sold/list/ACT/2914/Forde/,34 Justice Kelly Street ,-35.1681530,149.1511270,house,4,2,2,"$835,000",10 Dec 2018,https://www.auhouseprices.com/sold/view/ACT/341552059/34+Justice+Kelly+Street%2C+Forde+ACT/
131,2914,Forde,56,https://www.auhouseprices.com/sold/list/ACT/2914/Forde/,78 Zakharov Avenue ,-35.1728040,149.1487400,house,4,2,2,"$855,000",4 Dec 2018,https://www.auhouseprices.com/sold/view/ACT/341492959/78+Zakharov+Avenue%2C+Forde+ACT/
132,2914,Forde,56,https://www.auhouseprices.com/sold/list/ACT/2914/Forde/,6 Cleggett Street ,-35.1656170,149.1449250,house,3,2,1,"$577,500",3 Dec 2018,https://www.auhouseprices.com/sold/view/ACT/341410959/6+Cleggett+Street%2C+Forde+ACT/
133,2914,Forde,56,https://www.auhouseprices.com/sold/list/ACT/2914/Forde/,107 Francis Forde Boulevard ,-35.1697850,149.1485310,house,4,3,2,"$675,000",3 Dec 2018,https://www.auhouseprices.com/sold/view/ACT/341542959/107+Francis+Forde+Boulevard%2C+Forde+ACT/
134,2914,Forde,56,https://www.auhouseprices.com/sold/list/ACT/2914/Forde/,7 Volpato Street ,-35.1603580,149.1507590,house,4,2,2,"$745,000",29 Nov 2018,https://www.auhouseprices.com/sold/view/ACT/341375859/7+Volpato+Street%2C+Forde+ACT/
135,2914,Forde,56,https://www.auhouseprices.com/sold/list/ACT/2914/Forde/,91 Hibberd Crescent ,-35.1611680,149.1491420,house,3,2,1,"$521,000",21 Nov 2018,https://www.auhouseprices.com/sold/view/ACT/341946759/91+Hibberd+Crescent%2C+Forde+ACT/
136,2914,Forde,56,https://www.auhouseprices.com/sold/list/ACT/2914/Forde/,29 Doris Turner Street ,-35.1672360,149.1488000,house,5,3,2,"$1,390,000",17 Nov 2018,https://www.auhouseprices.com/sold/view/ACT/341249659/29+Doris+Turner+Street%2C+Forde+ACT/
137,2914,Forde,56,https://www.auhouseprices.com/sold/list/ACT/2914/Forde/,7 Octoman Street ,-35.1637210,149.1452940,house,4,2,2,"$783,000",16 Nov 2018,https://www.auhouseprices.com/sold/view/ACT/341075059/7+Octoman+Street%2C+Forde+ACT/
138,2914,Forde,56,https://www.auhouseprices.com/sold/list/ACT/2914/Forde/,29 Neil Harris Crescent ,-35.1730100,149.1406760,house,4,2,2,"$827,000",10 Nov 2018,https://www.auhouseprices.com/sold/view/ACT/341590659/29+Neil+Harris+Crescent%2C+Forde+ACT/
139,2914,Forde,56,https://www.auhouseprices.com/sold/list/ACT/2914/Forde/,37 Doris Turner Street ,-35.1670650,149.1477000,house,5,3,2,"$1,805,000",27 Oct 2018,https://www.auhouseprices.com/sold/view/ACT/341213449/37+Doris+Turner+Street%2C+Forde+ACT/
140,2914,Forde,56,https://www.auhouseprices.com/sold/list/ACT/2914/Forde/,11 Doris Turner Street ,-35.1689640,149.1487300,house,4,2,2,"$922,000",27 Oct 2018,https://www.auhouseprices.com/sold/view/ACT/341913449/11+Doris+Turner+Street%2C+Forde+ACT/
141,2914,Forde,56,https://www.auhouseprices.com/sold/list/ACT/2914/Forde/,63 Francis Forde Boulevard ,-35.1706220,149.1453210,house,3,2,1,"$605,000",26 Oct 2018,https://www.auhouseprices.com/sold/view/ACT/341983449/63+Francis+Forde+Boulevard%2C+Forde+ACT/
142,2914,Forde,56,https://www.auhouseprices.com/sold/list/ACT/2914/Forde/,9/35 Laird Crescent ,-35.1568750,149.1515860,house,3,2,2,"$560,000",22 Oct 2018,https://www.auhouseprices.com/sold/view/ACT/341166349/9-35+Laird+Crescent%2C+Forde+ACT/
143,2914,Forde,56,https://www.auhouseprices.com/sold/list/ACT/2914/Forde/,13 Callus Street ,-35.1561860,149.1540130,house,4,2,2,"$820,000",17 Oct 2018,https://www.auhouseprices.com/sold/view/ACT/341090249/13+Callus+Street%2C+Forde+ACT/
144,2914,Forde,56,https://www.auhouseprices.com/sold/list/ACT/2914/Forde/,48 Turbayne Crescent ,-35.1609370,149.1494120,house,4,2,2,"$761,000",9 Oct 2018,https://www.auhouseprices.com/sold/view/ACT/341546149/48+Turbayne+Crescent%2C+Forde+ACT/
145,2914,Forde,56,https://www.auhouseprices.com/sold/list/ACT/2914/Forde/,18 Max Purnell Street ,-35.1776820,149.1433830,house,4,2,2,"$792,000",2 Oct 2018,https://www.auhouseprices.com/sold/view/ACT/341894149/18+Max+Purnell+Street%2C+Forde+ACT/
146,2914,Forde,56,https://www.auhouseprices.com/sold/list/ACT/2914/Forde/,14 Ada Baker Street ,-35.1716540,149.1400860,house,4,2,2,"$685,000",28 Sep 2018,https://www.auhouseprices.com/sold/view/ACT/341247049/14+Ada+Baker+Street%2C+Forde+ACT/
147,2914,Forde,56,https://www.auhouseprices.com/sold/list/ACT/2914/Forde/,9 Loma Rudduck Street ,-35.1709850,149.1482370,house,3,2,2,"$655,000",28 Sep 2018,https://www.auhouseprices.com/sold/view/ACT/341537049/9+Loma+Rudduck+Street%2C+Forde+ACT/
148,2914,Forde,56,https://www.auhouseprices.com/sold/list/ACT/2914/Forde/,21 Leslie Dwyer Street ,-35.1752610,149.1434410,house,4,2,2,"$680,000",27 Sep 2018,https://www.auhouseprices.com/sold/view/ACT/341716439/21+Leslie+Dwyer+Street%2C+Forde+ACT/
149,2914,Forde,56,https://www.auhouseprices.com/sold/list/ACT/2914/Forde/,4/2 Ridding St ,-35.1779590,149.1452440,townhouse,4,3,2,"$625,000",24 Sep 2018,https://www.auhouseprices.com/sold/view/ACT/341197049/4-2+Ridding+St%2C+Forde+ACT/
150,2914,Forde,56,https://www.auhouseprices.com/sold/list/ACT/2914/Forde/,5 Leslie Dwyer Street ,-35.1742500,149.1440640,house,4,3,2,"$830,000",18 Sep 2018,https://www.auhouseprices.com/sold/view/ACT/341906339/5+Leslie+Dwyer+Street%2C+Forde+ACT/
151,2914,Forde,56,https://www.auhouseprices.com/sold/list/ACT/2914/Forde/,3 Pill Place ,-35.1774240,149.1454890,house,4,2,2,"$925,000",6 Sep 2018,https://www.auhouseprices.com/sold/view/ACT/341914239/3+Pill+Place%2C+Forde+ACT/
152,2914,Forde,56,https://www.auhouseprices.com/sold/list/ACT/2914/Forde/,99 Blizzard Circuit ,-35.1573200,149.1529010,house,4,2,2,"$745,000",5 Sep 2018,https://www.auhouseprices.com/sold/view/ACT/341562239/99+Blizzard+Circuit%2C+Forde+ACT/
153,2914,Forde,56,https://www.auhouseprices.com/sold/list/ACT/2914/Forde/,16 Jessie Street ,-35.1647460,149.1447540,house,4,3,2,"$810,000",31 Aug 2018,https://www.auhouseprices.com/sold/view/ACT/341879139/16+Jessie+Street%2C+Forde+ACT/
154,2914,Forde,56,https://www.auhouseprices.com/sold/list/ACT/2914/Forde/,28 Handbury Way ,-35.1597020,149.1514770,house,4,2,2,"$785,000",29 Aug 2018,https://www.auhouseprices.com/sold/view/ACT/341594139/28+Handbury+Way%2C+Forde+ACT/
155,2914,Forde,56,https://www.auhouseprices.com/sold/list/ACT/2914/Forde/,24 Allnutt Crescent ,-35.1677250,149.1419260,house,4,2,2,"$860,000",27 Aug 2018,https://www.auhouseprices.com/sold/view/ACT/341582139/24+Allnutt+Crescent%2C+Forde+ACT/
156,2914,Forde,56,https://www.auhouseprices.com/sold/list/ACT/2914/Forde/,7 Ray Ellis Crescent ,-35.1732330,149.1423090,house,5,3,2,"$1,320,000",17 Aug 2018,https://www.auhouseprices.com/sold/view/ACT/341851039/7+Ray+Ellis+Crescent%2C+Forde+ACT/
157,2914,Forde,56,https://www.auhouseprices.com/sold/list/ACT/2914/Forde/,3 Aida Ball Circuit ,-35.1738680,149.1487390,house,4,2,2,"$840,000",14 Aug 2018,https://www.auhouseprices.com/sold/view/ACT/341639139/3+Aida+Ball+Circuit%2C+Forde+ACT/
158,2914,Forde,56,https://www.auhouseprices.com/sold/list/ACT/2914/Forde/,6 Les Edwards Street ,-35.1728790,149.1495810,house,4,2,2,"$716,500",20 Jul 2018,https://www.auhouseprices.com/sold/view/ACT/341996739/6+Les+Edwards+Street%2C+Forde+ACT/
159,2914,Forde,56,https://www.auhouseprices.com/sold/list/ACT/2914/Forde/,7/21 Francis Forde Boulevard ,-35.1712750,149.1414380,townhouse,4,2,2,"$650,000",18 Jul 2018,https://www.auhouseprices.com/sold/view/ACT/341852739/7-21+Francis+Forde+Boulevard%2C+Forde+ACT/
160,2914,Forde,56,https://www.auhouseprices.com/sold/list/ACT/2914/Forde/,33 Volpato Street ,-35.1606000,149.1496350,house,4,2,2,"$655,000",12 Jul 2018,https://www.auhouseprices.com/sold/view/ACT/341041839/33+Volpato+Street%2C+Forde+ACT/
161,2914,Forde,56,https://www.auhouseprices.com/sold/list/ACT/2914/Forde/,54 Loma Rudduck Street ,-35.1693140,149.1465210,house,5,3,2,"$1,080,000",10 Jul 2018,https://www.auhouseprices.com/sold/view/ACT/341943739/54+Loma+Rudduck+Street%2C+Forde+ACT/
162,2914,Forde,56,https://www.auhouseprices.com/sold/list/ACT/2914/Forde/,96 Blizzard Circuit ,-35.1568630,149.1527770,house,4,2,2,"$775,500",29 Jun 2018,https://www.auhouseprices.com/sold/view/ACT/341163539/96+Blizzard+Circuit%2C+Forde+ACT/
163,2914,Forde,56,https://www.auhouseprices.com/sold/list/ACT/2914/Forde/,9 Blizzard Circuit ,-35.1587330,149.1517790,house,4,2,2,"$895,000",25 Jun 2018,https://www.auhouseprices.com/sold/view/ACT/341697528/9+Blizzard+Circuit%2C+Forde+ACT/
164,2914,Forde,56,https://www.auhouseprices.com/sold/list/ACT/2914/Forde/,17 Jack Ryan Street ,-35.1728740,149.1471900,house,4,2,2,"$812,000",16 Jun 2018,https://www.auhouseprices.com/sold/view/ACT/341779428/17+Jack+Ryan+Street%2C+Forde+ACT/
165,2914,Forde,56,https://www.auhouseprices.com/sold/list/ACT/2914/Forde/,12 Buchan Crescent ,-35.1581550,149.1531660,house,5,2,2,"$1,000,000",6 Jun 2018,https://www.auhouseprices.com/sold/view/ACT/341120328/12+Buchan+Crescent%2C+Forde+ACT/
166,2914,Forde,56,https://www.auhouseprices.com/sold/list/ACT/2914/Forde/,2 Allnutt Crescent ,-35.1681070,149.1424630,house,4,2,3,"$1,038,000",31 May 2018,https://www.auhouseprices.com/sold/view/ACT/341090228/2+Allnutt+Crescent%2C+Forde+ACT/
167,2914,Forde,56,https://www.auhouseprices.com/sold/list/ACT/2914/Forde/,33 Tom Nicholas Crescent ,-35.1713350,149.1450210,house,3,2,2,"$515,000",23 May 2018,https://www.auhouseprices.com/sold/view/ACT/341675228/33+Tom+Nicholas+Crescent%2C+Forde+ACT/
168,2914,Forde,56,https://www.auhouseprices.com/sold/list/ACT/2914/Forde/,94 Blizzard Circuit ,-35.1568850,149.1529120,house,4,2,2,"$750,000",21 May 2018,https://www.auhouseprices.com/sold/view/ACT/341927128/94+Blizzard+Circuit%2C+Forde+ACT/
169,2914,Forde,56,https://www.auhouseprices.com/sold/list/ACT/2914/Forde/,29 Leslie Dwyer Street ,-35.1755300,149.1433170,house,4,2,2,"$660,000",11 May 2018,https://www.auhouseprices.com/sold/view/ACT/341555249/29+Leslie+Dwyer+Street%2C+Forde+ACT/
170,2914,Forde,56,https://www.auhouseprices.com/sold/list/ACT/2914/Forde/,2 Turbayne Crescent ,-35.1625490,149.1495290,house,4,3,2,"$855,000",9 May 2018,https://www.auhouseprices.com/sold/view/ACT/341501028/2+Turbayne+Crescent%2C+Forde+ACT/
171,2914,Forde,56,https://www.auhouseprices.com/sold/list/ACT/2914/Forde/,39 Paquita Street ,-35.1627760,149.1459990,house,4,2,2,"$734,000",24 Apr 2018,https://www.auhouseprices.com/sold/view/ACT/341801828/39+Paquita+Street%2C+Forde+ACT/
172,2914,Forde,56,https://www.auhouseprices.com/sold/list/ACT/2914/Forde/,88 Blizzard Circuit ,-35.1569480,149.1533600,house,4,2,2,"$875,000",19 Apr 2018,https://www.auhouseprices.com/sold/view/ACT/341174728/88+Blizzard+Circuit%2C+Forde+ACT/
173,2914,Forde,56,https://www.auhouseprices.com/sold/list/ACT/2914/Forde/,29 Quinane Avenue ,-35.1682170,149.1481200,house,5,3,2,"$1,406,000",7 Apr 2018,https://www.auhouseprices.com/sold/view/ACT/341509518/29+Quinane+Avenue%2C+Forde+ACT/
174,2914,Forde,56,https://www.auhouseprices.com/sold/list/ACT/2914/Forde/,6 Ivy Kent Street ,-35.1777960,149.1441900,house,4,2,2,"$890,000",3 Apr 2018,https://www.auhouseprices.com/sold/view/ACT/341001518/6+Ivy+Kent+Street%2C+Forde+ACT/
175,2914,Forde,56,https://www.auhouseprices.com/sold/list/ACT/2914/Forde/,10 Whyman Lane ,-35.1698660,149.1486520,apartment,1,1,1,"$380,000",28 Mar 2018,https://www.auhouseprices.com/sold/view/ACT/341057418/10+Whyman+Lane%2C+Forde+ACT/
176,2914,Forde,56,https://www.auhouseprices.com/sold/list/ACT/2914/Forde/,13 Quinane Avenue ,-35.1671410,149.1463360,house,4,3,4,"$1,140,000",28 Mar 2018,https://www.auhouseprices.com/sold/view/ACT/341227418/13+Quinane+Avenue%2C+Forde+ACT/
177,2914,Forde,56,https://www.auhouseprices.com/sold/list/ACT/2914/Forde/,1/2 Ridding Street ,-35.1779590,149.1452440,townhouse,4,2,2,"$612,500",28 Mar 2018,https://www.auhouseprices.com/sold/view/ACT/341189418/1-2+Ridding+Street%2C+Forde+ACT/
178,2914,Forde,56,https://www.auhouseprices.com/sold/list/ACT/2914/Forde/,5 Loma Rudduck Street ,-35.1707070,149.1482110,house,3,2,2,"$645,000",15 Mar 2018,https://www.auhouseprices.com/sold/view/ACT/341296218/5+Loma+Rudduck+Street%2C+Forde+ACT/
179,2914,Forde,56,https://www.auhouseprices.com/sold/list/ACT/2914/Forde/,3 Rubeo Street ,-35.1642730,149.1462560,house,3,2,2,"$645,000",10 Mar 2018,https://www.auhouseprices.com/sold/view/ACT/341521218/3+Rubeo+Street%2C+Forde+ACT/
180,2914,Forde,56,https://www.auhouseprices.com/sold/list/ACT/2914/Forde/,1/31 Leslie Dwyer Street ,-35.1756270,149.1432790,townhouse,4,3,2,"$655,000",9 Mar 2018,https://www.auhouseprices.com/sold/view/ACT/341851449/1-31+Leslie+Dwyer+Street%2C+Forde+ACT/
181,2914,Forde,56,https://www.auhouseprices.com/sold/list/ACT/2914/Forde/,3/15 Zakharov Avenue ,-35.1724470,149.1433340,townhouse,3,2,2,"$570,000",7 Mar 2018,https://www.auhouseprices.com/sold/view/ACT/341378118/3-15+Zakharov++Avenue%2C+Forde+ACT/
182,2914,Forde,56,https://www.auhouseprices.com/sold/list/ACT/2914/Forde/,14 Paquita Street ,-35.1637030,149.1449150,house,4,2,2,"$908,000",7 Mar 2018,https://www.auhouseprices.com/sold/view/ACT/341718118/14+Paquita+Street%2C+Forde+ACT/
183,2914,Forde,56,https://www.auhouseprices.com/sold/list/ACT/2914/Forde/,16 Marcus Street ,-35.1687990,149.1484500,house,3,2,2,"$640,000",5 Mar 2018,https://www.auhouseprices.com/sold/view/ACT/341814118/16+Marcus+Street%2C+Forde+ACT/
184,2914,Forde,56,https://www.auhouseprices.com/sold/list/ACT/2914/Forde/,41 Ada Baker Street ,-35.1698980,149.1407940,house,3,2,1,"$605,500",2 Mar 2018,https://www.auhouseprices.com/sold/view/ACT/341249018/41+Ada+Baker+Street%2C+Forde+ACT/
185,2914,Forde,56,https://www.auhouseprices.com/sold/list/ACT/2914/Forde/,35 Hurrell Street ,-35.1692310,149.1442390,house,4,2,2,"$780,000",22 Feb 2018,https://www.auhouseprices.com/sold/view/ACT/341455918/35+Hurrell+Street%2C+Forde+ACT/
186,2914,Forde,56,https://www.auhouseprices.com/sold/list/ACT/2914/Forde/,35 Quinane Avenue ,-35.1682870,149.1488650,house,4,2,3,"$850,000",14 Feb 2018,https://www.auhouseprices.com/sold/view/ACT/341367818/35+Quinane+Avenue%2C+Forde+ACT/
187,2914,Forde,56,https://www.auhouseprices.com/sold/list/ACT/2914/Forde/,101 Blizzard Circuit ,-35.1572970,149.1527540,house,4,2,2,"$770,000",5 Feb 2018,https://www.auhouseprices.com/sold/view/ACT/341669818/101+Blizzard+Circuit%2C+Forde+ACT/
188,2914,Forde,56,https://www.auhouseprices.com/sold/list/ACT/2914/Forde/,27 Turbayne Crescent ,-35.1620740,149.1480000,house,4,2,2,"$675,000",2 Feb 2018,https://www.auhouseprices.com/sold/view/ACT/341545718/27+Turbayne+Crescent%2C+Forde+ACT/
189,2914,Forde,56,https://www.auhouseprices.com/sold/list/ACT/2914/Forde/,8 Everson Street ,-35.1684480,149.1450080,house,3,2,2,"$715,000",13 Dec 2017,https://www.auhouseprices.com/sold/view/ACT/341067308/8+Everson+Street%2C+Forde+ACT/
190,2914,Forde,56,https://www.auhouseprices.com/sold/list/ACT/2914/Forde/,21 Jack Ryan Street ,-35.1725850,149.1471560,house,4,3,2,"$1,050,000",5 Dec 2017,https://www.auhouseprices.com/sold/view/ACT/341005208/21+Jack+Ryan+Street%2C+Forde+ACT/
191,2914,Forde,56,https://www.auhouseprices.com/sold/list/ACT/2914/Forde/,7 Foy Street ,-35.1598620,149.1507270,house,4,2,2,"$810,000",4 Dec 2017,https://www.auhouseprices.com/sold/view/ACT/341274208/7+Foy+Street%2C+Forde+ACT/
192,2914,Forde,56,https://www.auhouseprices.com/sold/list/ACT/2914/Forde/,10 Rubeo Street ,-35.1638500,149.1463560,house,3,2,2,"$610,000",4 Dec 2017,https://www.auhouseprices.com/sold/view/ACT/341794318/10+Rubeo+Street%2C+Forde+ACT/
193,2914,Forde,56,https://www.auhouseprices.com/sold/list/ACT/2914/Forde/,1/18 Dickins Street ,-35.1743050,149.1460840,unit,3,2,2,"$492,000",2 Dec 2017,https://www.auhouseprices.com/sold/view/ACT/341722208/1-18+Dickins+Street%2C+Forde+ACT/
194,2914,Forde,56,https://www.auhouseprices.com/sold/list/ACT/2914/Forde/,14 Octoman Street ,-35.1633690,149.1461870,house,4,2,2,"$845,000",Dec 2017,https://www.auhouseprices.com/sold/view/ACT/341405318/14+Octoman+Street%2C+Forde+ACT/
195,2914,Forde,56,https://www.auhouseprices.com/sold/list/ACT/2914/Forde/,27 Volpato Street ,-35.1603920,149.1496370,house,4,2,2,"$639,950",28 Nov 2017,https://www.auhouseprices.com/sold/view/ACT/341391308/27+Volpato+Street%2C+Forde+ACT/
196,2914,Forde,56,https://www.auhouseprices.com/sold/list/ACT/2914/Forde/,7 Laird Crescent ,-35.1588550,149.1514390,house,4,3,2,"$915,000",25 Nov 2017,https://www.auhouseprices.com/sold/view/ACT/341543108/7+Laird+Crescent%2C+Forde+ACT/
197,2914,Forde,56,https://www.auhouseprices.com/sold/list/ACT/2914/Forde/,37 Zakharov Avenue ,-35.1740170,149.1454640,house,3,2,1,"$575,000",17 Nov 2017,https://www.auhouseprices.com/sold/view/ACT/341021008/37+Zakharov+Avenue%2C+Forde+ACT/
198,2914,Forde,56,https://www.auhouseprices.com/sold/list/ACT/2914/Forde/,43 Zakharov Avenue ,-35.1740320,149.1458870,house,3,2,2,"$520,000",17 Nov 2017,https://www.auhouseprices.com/sold/view/ACT/341352008/43+Zakharov+Avenue%2C+Forde+ACT/
199,2914,Forde,56,https://www.auhouseprices.com/sold/list/ACT/2914/Forde/,105 Hibberd Crescent ,-35.1612600,149.1500800,house,4,2,2,"$898,000",15 Nov 2017,https://www.auhouseprices.com/sold/view/ACT/341383908/105+Hibberd+Crescent%2C+Forde+ACT/
200,2914,Forde,56,https://www.auhouseprices.com/sold/list/ACT/2914/Forde/,101 Francis Forde Boulevard ,-35.1698260,149.1482800,house,3,2,2,"$583,500",9 Nov 2017,https://www.auhouseprices.com/sold/view/ACT/341585808/101+Francis+Forde+Boulevard%2C+Forde+ACT/
201,2914,Forde,56,https://www.auhouseprices.com/sold/list/ACT/2914/Forde/,57 Turbayne Crescent ,-35.1606430,149.1483160,house,2,1,1,"$410,000",9 Nov 2017,https://www.auhouseprices.com/sold/view/ACT/341922908/57+Turbayne+Crescent%2C+Forde+ACT/
202,2914,Forde,56,https://www.auhouseprices.com/sold/list/ACT/2914/Forde/,66 Blizzard Circuit ,-35.1560340,149.1543730,house,5,3,2,"$969,000",30 Oct 2017,https://www.auhouseprices.com/sold/view/ACT/341341708/66+Blizzard+Circuit%2C+Forde+ACT/
203,2914,Forde,56,https://www.auhouseprices.com/sold/list/ACT/2914/Forde/,83 Francis Forde Boulevard ,-35.1701760,149.1469010,house,3,2,1,"$555,000",23 Oct 2017,https://www.auhouseprices.com/sold/view/ACT/341650498/83+Francis+Forde+Boulevard%2C+Forde+ACT/
204,2914,Forde,56,https://www.auhouseprices.com/sold/list/ACT/2914/Forde/,1 Bromham Street ,-35.1685820,149.1444000,house,4,2,2,"$800,000",16 Oct 2017,https://www.auhouseprices.com/sold/view/ACT/341142498/1+Bromham+Street%2C+Forde+ACT/
205,2914,Forde,56,https://www.auhouseprices.com/sold/list/ACT/2914/Forde/,70 Blizzard Circuit ,-35.1562340,149.1545250,house,4,2,2,"$920,000",13 Oct 2017,https://www.auhouseprices.com/sold/view/ACT/341054608/70+Blizzard+Circuit%2C+Forde+ACT/
206,2914,Forde,56,https://www.auhouseprices.com/sold/list/ACT/2914/Forde/,33 Zakharov Avenue ,-35.1739480,149.1452300,house,3,2,1,"$573,650",4 Oct 2017,https://www.auhouseprices.com/sold/view/ACT/341717708/33+Zakharov+Avenue%2C+Forde+ACT/
207,2914,Forde,56,https://www.auhouseprices.com/sold/list/ACT/2914/Forde/,80 Blizzard Circuit ,-35.1569640,149.1539790,house,4,3,2,"$935,000",28 Sep 2017,https://www.auhouseprices.com/sold/view/ACT/341757298/80+Blizzard++Circuit%2C+Forde+ACT/
208,2914,Forde,56,https://www.auhouseprices.com/sold/list/ACT/2914/Forde/,12 Phyllis Frost Street ,-35.1698050,149.1499300,house,4,2,2,"$745,000",26 Sep 2017,https://www.auhouseprices.com/sold/view/ACT/341915298/12+Phyllis+Frost+Street%2C+Forde+ACT/
209,2914,Forde,56,https://www.auhouseprices.com/sold/list/ACT/2914/Forde/,16 Denoon Street ,-35.1655110,149.1429190,house,5,2,2,"$782,000",12 Sep 2017,https://www.auhouseprices.com/sold/view/ACT/341387098/16+Denoon+Street%2C+Forde+ACT/
210,2914,Forde,56,https://www.auhouseprices.com/sold/list/ACT/2914/Forde/,2/18 Dickins Street ,-35.1743050,149.1460840,townhouse,3,3,2,"$528,000",4 Sep 2017,https://www.auhouseprices.com/sold/view/ACT/341166998/2-18+Dickins+Street%2C+Forde+ACT/
211,2914,Forde,56,https://www.auhouseprices.com/sold/list/ACT/2914/Forde/,1 Arndt Street ,-35.1700500,149.1471600,house,4,2,2,"$765,000",2 Sep 2017,https://www.auhouseprices.com/sold/view/ACT/341933998/1+Arndt+Street%2C+Forde+ACT/
212,2914,Forde,56,https://www.auhouseprices.com/sold/list/ACT/2914/Forde/,7 Rickman Street ,-35.1701990,149.1447080,house,4,2,2,"$790,000",30 Aug 2017,https://www.auhouseprices.com/sold/view/ACT/341989898/7+Rickman+Street%2C+Forde+ACT/
213,2914,Forde,56,https://www.auhouseprices.com/sold/list/ACT/2914/Forde/,1/45 Francis Forde Boulevard ,-35.1706320,149.1443470,house,4,2,2,"$706,000",22 Aug 2017,https://www.auhouseprices.com/sold/view/ACT/341411898/1-45+Francis+Forde+Boulevard%2C+Forde+ACT/
214,2914,Forde,56,https://www.auhouseprices.com/sold/list/ACT/2914/Forde/,5 Hooton Street ,-35.1622720,149.1493270,house,5,3,2,"$820,000",8 Aug 2017,https://www.auhouseprices.com/sold/view/ACT/341343698/5+Hooton+Street%2C+Forde+ACT/
215,2914,Forde,56,https://www.auhouseprices.com/sold/list/ACT/2914/Forde/,2/25 Hurrell Street ,-35.1682760,149.1437140,house,4,3,2,"$685,000",5 Aug 2017,https://www.auhouseprices.com/sold/view/ACT/341739598/2-25+Hurrell+Street%2C+Forde+ACT/
216,2914,Forde,56,https://www.auhouseprices.com/sold/list/ACT/2914/Forde/,40 Max Purnell Street ,-35.1769960,149.1422810,house,5,2,2,"$702,500",27 Jul 2017,https://www.auhouseprices.com/sold/view/ACT/341545598/40+Max+Purnell+Street%2C+Forde+ACT/
217,2914,Forde,56,https://www.auhouseprices.com/sold/list/ACT/2914/Forde/,3 Foy Street ,-35.1596520,149.1508650,house,4,3,2,"$849,000",25 Jul 2017,https://www.auhouseprices.com/sold/view/ACT/341988488/3+Foy+Street%2C+Forde+ACT/
218,2914,Forde,56,https://www.auhouseprices.com/sold/list/ACT/2914/Forde/,15 Quinane Avenue ,-35.1672420,149.1465680,house,5,4,4,"$2,035,000",19 Jul 2017,https://www.auhouseprices.com/sold/view/ACT/341621488/15+Quinane+Avenue%2C+Forde+ACT/
219,2914,Forde,56,https://www.auhouseprices.com/sold/list/ACT/2914/Forde/,6 Spillett Street ,-35.1566120,149.1525960,house,4,2,2,"$825,000",13 Jul 2017,https://www.auhouseprices.com/sold/view/ACT/341056388/6+Spillett+Street%2C+Forde+ACT/
220,2914,Forde,56,https://www.auhouseprices.com/sold/list/ACT/2914/Forde/,6 Jessie Street ,-35.1649600,149.1454010,house,3,2,1,"$590,000",12 Jul 2017,https://www.auhouseprices.com/sold/view/ACT/341545388/6+Jessie+Street%2C+Forde+ACT/
221,2914,Forde,56,https://www.auhouseprices.com/sold/list/ACT/2914/Forde/,5/12 Lomax Street ,-35.1720050,149.1439390,unit,3,2,2,"$550,000",30 Jun 2017,https://www.auhouseprices.com/sold/view/ACT/341155288/5-12+Lomax+Street%2C+Forde+ACT/
222,2914,Forde,56,https://www.auhouseprices.com/sold/list/ACT/2914/Forde/,3 Les Edwards Street ,-35.1728480,149.1490510,house,4,2,2,"$950,000",29 Jun 2017,https://www.auhouseprices.com/sold/view/ACT/341172288/3+Les+Edwards+Street%2C+Forde+ACT/
223,2914,Forde,56,https://www.auhouseprices.com/sold/list/ACT/2914/Forde/,4 Loma Rudduck Street ,-35.1706390,149.1476740,house,4,2,2,"$725,000",28 Jun 2017,https://www.auhouseprices.com/sold/view/ACT/341661288/4+Loma+Rudduck+Street%2C+Forde+ACT/
224,2914,Forde,56,https://www.auhouseprices.com/sold/list/ACT/2914/Forde/,18 Jessie Street ,-35.1646870,149.1445240,house,4,2,2,"$1,050,000",22 Jun 2017,https://www.auhouseprices.com/sold/view/ACT/341515188/18+Jessie+Street%2C+Forde+ACT/
225,2914,Forde,56,https://www.auhouseprices.com/sold/list/ACT/2914/Forde/,7 Pahlman Street ,-35.1701120,149.1455370,house,4,2,2,"$765,000",19 Jun 2017,https://www.auhouseprices.com/sold/view/ACT/341561188/7+Pahlman+Street%2C+Forde+ACT/
226,2914,Forde,56,https://www.auhouseprices.com/sold/list/ACT/2914/Forde/,58 Francis Forde Boulevard ,-35.1710850,149.1448840,townhouse,3,2,2,"$512,000",9 Jun 2017,https://www.auhouseprices.com/sold/view/ACT/341511969/58+Francis+Forde+Boulevard%2C+Forde+ACT/
227,2914,Forde,56,https://www.auhouseprices.com/sold/list/ACT/2914/Forde/,29 Hibberd Crescent ,-35.1624400,149.1460330,house,4,2,2,"$805,000",7 Jun 2017,https://www.auhouseprices.com/sold/view/ACT/341259988/29+Hibberd+Crescent%2C+Forde+ACT/
228,2914,Forde,56,https://www.auhouseprices.com/sold/list/ACT/2914/Forde/,7/15 Zakharov Avenue ,-35.1724470,149.1433400,townhouse,2,2,1,"$530,000",3 Jun 2017,https://www.auhouseprices.com/sold/view/ACT/341674988/7-15+Zakharov+Avenue%2C+Forde+ACT/
229,2914,Forde,56,https://www.auhouseprices.com/sold/list/ACT/2914/Forde/,69 Turbayne Crescent ,-35.1606150,149.1505260,house,3,2,2,"$674,800",30 May 2017,https://www.auhouseprices.com/sold/view/ACT/341211988/69+Turbayne+Crescent%2C+Forde+ACT/
230,2914,Forde,56,https://www.auhouseprices.com/sold/list/ACT/2914/Forde/,3 Bruce Dittmar Street ,-35.1750100,149.1437400,house,3,2,1,"$606,000",13 May 2017,https://www.auhouseprices.com/sold/view/ACT/341966688/3+Bruce+Dittmar+Street%2C+Forde+ACT/
231,2914,Forde,56,https://www.auhouseprices.com/sold/list/ACT/2914/Forde/,18 Horneville Street ,-35.1750600,149.1448400,house,4,2,2,"$738,000",13 May 2017,https://www.auhouseprices.com/sold/view/ACT/341026688/18+Horneville+Street%2C+Forde+ACT/
232,2914,Forde,56,https://www.auhouseprices.com/sold/list/ACT/2914/Forde/,33 Phyllis Frost Street ,-35.1676150,149.1498780,house,5,2,2,"$887,500",5 May 2017,https://www.auhouseprices.com/sold/view/ACT/341307588/33+Phyllis+Frost+Street%2C+Forde+ACT/
233,2914,Forde,56,https://www.auhouseprices.com/sold/list/ACT/2914/Forde/,5 Denoon Street ,-35.1661990,149.1431640,house,4,2,2,"$803,000",4 May 2017,https://www.auhouseprices.com/sold/view/ACT/341034588/5+Denoon+Street%2C+Forde+ACT/
234,2914,Forde,56,https://www.auhouseprices.com/sold/list/ACT/2914/Forde/,53 Ada Baker Street ,-35.1699980,149.1416570,house,4,3,2,"$935,000",3 May 2017,https://www.auhouseprices.com/sold/view/ACT/341022588/53+Ada+Baker+Street%2C+Forde+ACT/
235,2914,Forde,56,https://www.auhouseprices.com/sold/list/ACT/2914/Forde/,11 Aida Ball Circuit ,-35.1740150,149.1496010,house,4,2,2,"$930,000",3 May 2017,https://www.auhouseprices.com/sold/view/ACT/341792588/11+Aida+Ball+Circuit%2C+Forde+ACT/
236,2914,Forde,56,https://www.auhouseprices.com/sold/list/ACT/2914/Forde/,1/1 Jack Ryan Street ,-35.1739750,149.1470740,townhouse,4,2,2,"$655,000",27 Apr 2017,https://www.auhouseprices.com/sold/view/ACT/341328478/1-1+Jack+Ryan+Street%2C+Forde+ACT/
237,2914,Forde,56,https://www.auhouseprices.com/sold/list/ACT/2914/Forde/,50 Aida Ball Circuit ,-35.1720390,149.1509460,house,4,1,2,"$1,000,000",27 Apr 2017,https://www.auhouseprices.com/sold/view/ACT/341556478/50+Aida+Ball+Circuit%2C+Forde+ACT/
238,2914,Forde,56,https://www.auhouseprices.com/sold/list/ACT/2914/Forde/,3/16 Ray Ellis Crescent ,-35.1745240,149.1421980,townhouse,4,2,2,"$623,000",19 Apr 2017,https://www.auhouseprices.com/sold/view/ACT/341530378/3-16+Ray+Ellis+Crescent%2C+Forde+ACT/
239,2914,Forde,56,https://www.auhouseprices.com/sold/list/ACT/2914/Forde/,16 Hooton Street ,-35.1618430,149.1491640,house,3,2,1,"$577,500",18 Apr 2017,https://www.auhouseprices.com/sold/view/ACT/341998378/16+Hooton+Street%2C+Forde+ACT/
240,2914,Forde,56,https://www.auhouseprices.com/sold/list/ACT/2914/Forde/,37 Helen Leonard Crescent ,-35.1663730,149.1428510,house,3,2,1,"$620,000",11 Apr 2017,https://www.auhouseprices.com/sold/view/ACT/341183378/37+Helen+Leonard+Crescent%2C+Forde+ACT/
241,2914,Forde,56,https://www.auhouseprices.com/sold/list/ACT/2914/Forde/,21 Beveridge Crescent ,-35.1697790,149.1401560,house,4,2,2,"$800,000",3 Apr 2017,https://www.auhouseprices.com/sold/view/ACT/341705378/21+Beveridge+Crescent%2C+Forde+ACT/
242,2914,Forde,56,https://www.auhouseprices.com/sold/list/ACT/2914/Forde/,25 Tom Nicholas Crescent ,-35.1717450,149.1450410,townhouse,2,1,1,"$432,000",27 Mar 2017,https://www.auhouseprices.com/sold/view/ACT/341004178/25++Tom+Nicholas+Crescent%2C+Forde+ACT/
243,2914,Forde,56,https://www.auhouseprices.com/sold/list/ACT/2914/Forde/,8 Arndt Street ,-35.1694380,149.1474710,house,4,2,2,"$888,000",24 Mar 2017,https://www.auhouseprices.com/sold/view/ACT/341903178/8+Arndt+Street%2C+Forde+ACT/
244,2914,Forde,56,https://www.auhouseprices.com/sold/list/ACT/2914/Forde/,36 Justice Kelly Street ,-35.1679260,149.1512260,house,4,2,2,"$905,000",24 Mar 2017,https://www.auhouseprices.com/sold/view/ACT/341066278/36+Justice+Kelly+Street%2C+Forde+ACT/
245,2914,Forde,56,https://www.auhouseprices.com/sold/list/ACT/2914/Forde/,1 Allnutt Crescent ,-35.1684110,149.1421560,house,4,2,2,"$775,000",16 Mar 2017,https://www.auhouseprices.com/sold/view/ACT/341693978/1+Allnutt+Crescent%2C+Forde+ACT/
246,2914,Forde,56,https://www.auhouseprices.com/sold/list/ACT/2914/Forde/,33 Turbayne Crescent ,-35.1616800,149.1480550,house,4,2,2,"$750,000",10 Mar 2017,https://www.auhouseprices.com/sold/view/ACT/341638878/33+Turbayne+Crescent%2C+Forde+ACT/
247,2914,Forde,56,https://www.auhouseprices.com/sold/list/ACT/2914/Forde/,35 Phyllis Frost Street ,-35.1673920,149.1499760,house,5,3,2,"$1,182,500",7 Mar 2017,https://www.auhouseprices.com/sold/view/ACT/341614878/35+Phyllis+Frost+Street%2C+Forde+ACT/
248,2914,Forde,56,https://www.auhouseprices.com/sold/list/ACT/2914/Forde/,3 Arndt Street ,-35.1698590,149.1469950,house,5,2,2,"$1,400,000",4 Mar 2017,https://www.auhouseprices.com/sold/view/ACT/341538778/3+Arndt+Street%2C+Forde+ACT/
249,2914,Forde,56,https://www.auhouseprices.com/sold/list/ACT/2914/Forde/,2/35 Laird Crescent ,-35.1568750,149.1515860,townhouse,3,2,2,"$520,000",4 Mar 2017,https://www.auhouseprices.com/sold/view/ACT/341921969/2-35+Laird+Crescent%2C+Forde+ACT/
250,2914,Forde,56,https://www.auhouseprices.com/sold/list/ACT/2914/Forde/,23 Quinane Avenue ,-35.1680150,149.1474200,house,4,2,3,"$1,250,000",25 Feb 2017,https://www.auhouseprices.com/sold/view/ACT/341608678/23+Quinane+Avenue%2C+Forde+ACT/
251,2914,Forde,56,https://www.auhouseprices.com/sold/list/ACT/2914/Forde/,15 Ivy Kent ,-35.1768530,149.1441200,house,5,1,2,"$850,000",11 Feb 2017,https://www.auhouseprices.com/sold/view/ACT/341409468/15+Ivy+Kent%2C+Forde+ACT/
252,2914,Forde,56,https://www.auhouseprices.com/sold/list/ACT/2914/Forde/,15 Ivy Kent Street ,-35.1768520,149.1441160,house,5,2,2,"$850,000",3 Feb 2017,https://www.auhouseprices.com/sold/view/ACT/341218368/15+Ivy+Kent+Street%2C+Forde+ACT/
253,2914,Forde,56,https://www.auhouseprices.com/sold/list/ACT/2914/Forde/,16 Proud Street ,-35.1617820,149.1477010,house,4,2,2,"$730,000",Feb 2017,https://www.auhouseprices.com/sold/view/ACT/341077368/16+Proud+Street%2C+Forde+ACT/
254,2914,Forde,56,https://www.auhouseprices.com/sold/list/ACT/2914/Forde/,11 Tom Nicholas Crescent ,-35.1717590,149.1445680,townhouse,3,2,2,"$520,100",27 Jan 2017,https://www.auhouseprices.com/sold/view/ACT/341252368/11+Tom+Nicholas+Crescent%2C+Forde+ACT/
255,2914,Forde,56,https://www.auhouseprices.com/sold/list/ACT/2914/Forde/,4/16 Neil Harris Crescent ,-35.1742210,149.1406480,house,4,2,2,"$650,000",22 Dec 2016,https://www.auhouseprices.com/sold/view/ACT/341205168/4-16++Neil+Harris+Crescent%2C+Forde+ACT/
256,2914,Forde,56,https://www.auhouseprices.com/sold/list/ACT/2914/Forde/,78 Blizzard Circuit ,-35.1568420,149.1540900,house,4,2,2,"$840,000",15 Dec 2016,https://www.auhouseprices.com/sold/view/ACT/341043068/78+Blizzard+Circuit%2C+Forde+ACT/
257,2914,Forde,56,https://www.auhouseprices.com/sold/list/ACT/2914/Forde/,12 Alice Berry Street ,-35.1730270,149.1467900,house,4,2,2,"$650,000",3 Dec 2016,https://www.auhouseprices.com/sold/view/ACT/341434868/12+Alice+Berry+Street%2C+Forde+ACT/
258,2914,Forde,56,https://www.auhouseprices.com/sold/list/ACT/2914/Forde/,3 Phyllis Frost Street ,-35.1706280,149.1494600,house,4,2,2,"$875,000",3 Dec 2016,https://www.auhouseprices.com/sold/view/ACT/341753868/3+Phyllis+Frost+Street%2C+Forde+ACT/
259,2914,Forde,56,https://www.auhouseprices.com/sold/list/ACT/2914/Forde/,28 Hibberd Crescent ,-35.1622240,149.1466280,house,2,1,2,"$415,000",2 Dec 2016,https://www.auhouseprices.com/sold/view/ACT/341309868/28+Hibberd++Crescent%2C+Forde+ACT/
260,2914,Forde,56,https://www.auhouseprices.com/sold/list/ACT/2914/Forde/,3 Huddy Street ,-35.1679500,149.1486500,house,4,2,2,"$842,000",26 Nov 2016,https://www.auhouseprices.com/sold/view/ACT/341193768/3+Huddy+Street%2C+Forde+ACT/
261,2914,Forde,56,https://www.auhouseprices.com/sold/list/ACT/2914/Forde/,21 Neil Harris Crescent ,-35.1735340,149.1406400,house,4,3,2,"$859,000",19 Nov 2016,https://www.auhouseprices.com/sold/view/ACT/341076668/21+Neil+Harris+Crescent%2C+Forde+ACT/
262,2914,Forde,56,https://www.auhouseprices.com/sold/list/ACT/2914/Forde/,14 Jack Ryan Street ,-35.1728970,149.1477400,house,4,2,2,"$765,000",19 Nov 2016,https://www.auhouseprices.com/sold/view/ACT/341155668/14+Jack+Ryan+Street%2C+Forde+ACT/
263,2914,Forde,56,https://www.auhouseprices.com/sold/list/ACT/2914/Forde/,67 Turbayne Crescent ,-35.1606010,149.1503890,house,4,2,2,"$680,000",14 Nov 2016,https://www.auhouseprices.com/sold/view/ACT/341322268/67+Turbayne+Crescent%2C+Forde+ACT/
264,2914,Forde,56,https://www.auhouseprices.com/sold/list/ACT/2914/Forde/,1 Neil Harris Crescent ,-35.1728850,149.1403790,house,4,2,2,"$815,000",12 Nov 2016,https://www.auhouseprices.com/sold/view/ACT/341067568/1+Neil+Harris+Crescent%2C+Forde+ACT/
265,2914,Forde,56,https://www.auhouseprices.com/sold/list/ACT/2914/Forde/,54 Hibberd Crescent ,-35.1616250,149.1468470,house,3,2,1,"$445,000",4 Nov 2016,https://www.auhouseprices.com/sold/view/ACT/341395458/54+Hibberd+Crescent%2C+Forde+ACT/
266,2914,Forde,56,https://www.auhouseprices.com/sold/list/ACT/2914/Forde/,54 Hibberd Crescent ,-35.1616250,149.1468470,townhouse,3,2,1,"$445,000",4 Nov 2016,https://www.auhouseprices.com/sold/view/ACT/341370969/54+Hibberd+Crescent%2C+Forde+ACT/
267,2914,Forde,56,https://www.auhouseprices.com/sold/list/ACT/2914/Forde/,18 Quinane Avenue ,-35.1675200,149.1460400,house,4,2,2,"$940,000",29 Oct 2016,https://www.auhouseprices.com/sold/view/ACT/341556358/18+Quinane++Avenue%2C+Forde+ACT/
268,2914,Forde,56,https://www.auhouseprices.com/sold/list/ACT/2914/Forde/,11 Proud Street ,-35.1619780,149.1471010,townhouse,2,1,1,"$410,000",19 Oct 2016,https://www.auhouseprices.com/sold/view/ACT/341341969/11+Proud+Street%2C+Forde+ACT/
269,2914,Forde,56,https://www.auhouseprices.com/sold/list/ACT/2914/Forde/,102 Zakharov Avenue ,-35.1702220,149.1491160,house,3,2,1,"$586,000",14 Oct 2016,https://www.auhouseprices.com/sold/view/ACT/341078158/102+Zakharov+Avenue%2C+Forde+ACT/
270,2914,Forde,56,https://www.auhouseprices.com/sold/list/ACT/2914/Forde/,4/25 Hurrell St ,-35.1682760,149.1437140,villa,4,2,2,"$652,000",5 Oct 2016,https://www.auhouseprices.com/sold/view/ACT/341455058/4-25+Hurrell+St%2C+Forde+ACT/
271,2914,Forde,56,https://www.auhouseprices.com/sold/list/ACT/2914/Forde/,69 Zakharov Avenue ,-35.1733930,149.1481020,house,4,2,2,"$630,000",28 Sep 2016,https://www.auhouseprices.com/sold/view/ACT/341018958/69+Zakharov+Avenue%2C+Forde+ACT/
272,2914,Forde,56,https://www.auhouseprices.com/sold/list/ACT/2914/Forde/,4/25 Hurrell Street ,-35.1682780,149.1437000,townhouse,4,3,2,"$652,000",28 Sep 2016,https://www.auhouseprices.com/sold/view/ACT/341704058/4-25+Hurrell+Street%2C+Forde+ACT/
273,2914,Forde,56,https://www.auhouseprices.com/sold/list/ACT/2914/Forde/,100 Hibberd Crescent ,-35.1616580,149.1499260,house,5,2,3,"$865,000",12 Sep 2016,https://www.auhouseprices.com/sold/view/ACT/341072858/100+Hibberd+Crescent%2C+Forde+ACT/
274,2914,Forde,56,https://www.auhouseprices.com/sold/list/ACT/2914/Forde/,6 Ada Baker Street ,-35.1721460,149.1402000,house,4,3,2,"$770,000",10 Sep 2016,https://www.auhouseprices.com/sold/view/ACT/341590858/6+Ada+Baker+Street%2C+Forde+ACT/
275,2914,Forde,56,https://www.auhouseprices.com/sold/list/ACT/2914/Forde/,2/31 Leslie Dwyer Street ,-35.1756270,149.1432790,townhouse,2,1,1,"$390,000",5 Sep 2016,https://www.auhouseprices.com/sold/view/ACT/341506758/2-31+Leslie+Dwyer++Street%2C+Forde+ACT/
276,2914,Forde,56,https://www.auhouseprices.com/sold/list/ACT/2914/Forde/,7 Proud Street ,-35.1620550,149.1470080,townhouse,2,1,1,"$410,000",2 Sep 2016,https://www.auhouseprices.com/sold/view/ACT/341945758/7+Proud+Street%2C+Forde+ACT/
277,2914,Forde,56,https://www.auhouseprices.com/sold/list/ACT/2914/Forde/,51 Paquita Street ,-35.1634060,149.1470410,house,4,2,2,"$634,000",20 Aug 2016,https://www.auhouseprices.com/sold/view/ACT/341409558/51+Paquita+Street%2C+Forde+ACT/
278,2914,Forde,56,https://www.auhouseprices.com/sold/list/ACT/2914/Forde/,65 Blizzard Circuit ,-35.1555230,149.1543530,house,4,1,2,"$650,000",19 Aug 2016,https://www.auhouseprices.com/sold/view/ACT/341637558/65+Blizzard++Circuit%2C+Forde+ACT/
279,2914,Forde,56,https://www.auhouseprices.com/sold/list/ACT/2914/Forde/,26 Zakharov Avenue ,-35.1740180,149.1443190,other,3,2,1,"$592,500",13 Aug 2016,https://www.auhouseprices.com/sold/view/ACT/341244558/26+Zakharov+Avenue%2C+Forde+ACT/
280,2914,Forde,56,https://www.auhouseprices.com/sold/list/ACT/2914/Forde/,10 Proud Street ,-35.1621650,149.1476440,house,4,2,2,"$700,000",5 Aug 2016,https://www.auhouseprices.com/sold/view/ACT/341356448/10+Proud+Street%2C+Forde+ACT/
281,2914,Forde,56,https://www.auhouseprices.com/sold/list/ACT/2914/Forde/,18 Phyllis Frost Street ,-35.1692850,149.1500700,house,4,2,2,"$860,000",23 Jul 2016,https://www.auhouseprices.com/sold/view/ACT/341244348/18+Phyllis+Frost+Street%2C+Forde+ACT/
282,2914,Forde,56,https://www.auhouseprices.com/sold/list/ACT/2914/Forde/,4/16 Ray Ellis Crescent ,-35.1745240,149.1421980,house,5,2,2,"$580,000",15 Jul 2016,https://www.auhouseprices.com/sold/view/ACT/341748248/4-16+Ray+Ellis+Crescent%2C+Forde+ACT/
283,2914,Forde,56,https://www.auhouseprices.com/sold/list/ACT/2914/Forde/,10 Loma Rudduck Street ,-35.1710960,149.1477470,house,4,2,3,"$692,000",7 Jul 2016,https://www.auhouseprices.com/sold/view/ACT/341211248/10+Loma+Rudduck+Street%2C+Forde+ACT/
284,2914,Forde,56,https://www.auhouseprices.com/sold/list/ACT/2914/Forde/,9 Bruce Dittmar Street ,-35.1751150,149.1441040,house,3,1,1,"$530,000",Jul 2016,https://www.auhouseprices.com/sold/view/ACT/341118148/9+Bruce+Dittmar+Street%2C+Forde+ACT/
285,2914,Forde,56,https://www.auhouseprices.com/sold/list/ACT/2914/Forde/,1 Tom Nicholas Crescent ,-35.1713360,149.1446240,townhouse,3,2,2,"$510,000",26 Jun 2016,https://www.auhouseprices.com/sold/view/ACT/341562148/1+Tom+Nicholas+Crescent%2C+Forde+ACT/
286,2914,Forde,56,https://www.auhouseprices.com/sold/list/ACT/2914/Forde/,100 Zakharov Avenue ,-35.1704490,149.1491000,house,4,2,2,"$860,000",20 Jun 2016,https://www.auhouseprices.com/sold/view/ACT/341006048/100+Zakharov+Avenue%2C+Forde+ACT/
287,2914,Forde,56,https://www.auhouseprices.com/sold/list/ACT/2914/Forde/,3/1 Jack Ryan Street ,-35.1739750,149.1470740,house,3,2,2,"$508,000",15 Jun 2016,https://www.auhouseprices.com/sold/view/ACT/341011048/3-1+Jack+Ryan+Street%2C+Forde+ACT/
288,2914,Forde,56,https://www.auhouseprices.com/sold/list/ACT/2914/Forde/,63 Francis Forde Boulevard ,-35.1706220,149.1453210,house,3,2,1,"$500,000",7 Jun 2016,https://www.auhouseprices.com/sold/view/ACT/341754948/63+Francis+Forde+Boulevard%2C+Forde+ACT/
289,2914,Forde,56,https://www.auhouseprices.com/sold/list/ACT/2914/Forde/,9 Doris Turner Street ,-35.1691230,149.1487010,house,4,2,2,"$793,000",4 Jun 2016,https://www.auhouseprices.com/sold/view/ACT/341821948/9+Doris+Turner+Street%2C+Forde+ACT/
290,2914,Forde,56,https://www.auhouseprices.com/sold/list/ACT/2914/Forde/,18 Allnutt Crescent ,-35.1677230,149.1413650,house,4,2,2,"$600,000",3 Jun 2016,https://www.auhouseprices.com/sold/view/ACT/341924948/18+Allnutt+Crescent%2C+Forde+ACT/
291,2914,Forde,56,https://www.auhouseprices.com/sold/list/ACT/2914/Forde/,13 Doris Turner Street ,-35.1687420,149.1488590,house,4,1,2,"$705,000",30 May 2016,https://www.auhouseprices.com/sold/view/ACT/341057848/13+Doris+Turner+Street%2C+Forde+ACT/
292,2914,Forde,56,https://www.auhouseprices.com/sold/list/ACT/2914/Forde/,36 Bruce Dittmar Street ,-35.1773640,149.1448200,house,4,2,2,"$587,500",28 May 2016,https://www.auhouseprices.com/sold/view/ACT/341505848/36+Bruce+Dittmar+Street%2C+Forde+ACT/
293,2914,Forde,56,https://www.auhouseprices.com/sold/list/ACT/2914/Forde/,14 Allnutt Crescent ,-35.1679200,149.1415400,house,4,2,2,"$600,000",28 May 2016,https://www.auhouseprices.com/sold/view/ACT/341364848/14+Allnutt+Crescent%2C+Forde+ACT/
294,2914,Forde,56,https://www.auhouseprices.com/sold/list/ACT/2914/Forde/,7 Allnutt Crescent ,-35.1683260,149.1414950,house,4,2,2,"$665,000",23 May 2016,https://www.auhouseprices.com/sold/view/ACT/341077748/7+Allnutt+Crescent%2C+Forde+ACT/
295,2914,Forde,56,https://www.auhouseprices.com/sold/list/ACT/2914/Forde/,35 Helen Leonard Crescent ,-35.1663270,149.1427110,house,5,2,2,"$737,500",23 May 2016,https://www.auhouseprices.com/sold/view/ACT/341156748/35+Helen+Leonard+Crescent%2C+Forde+ACT/
296,2914,Forde,56,https://www.auhouseprices.com/sold/list/ACT/2914/Forde/,80 Hibberd Crescent ,-35.1612620,149.1482680,house,4,2,2,"$621,000",21 May 2016,https://www.auhouseprices.com/sold/view/ACT/341221969/80+Hibberd+Crescent%2C+Forde+ACT/
297,2914,Forde,56,https://www.auhouseprices.com/sold/list/ACT/2914/Forde/,33 Neil Harris Crescent ,-35.1727320,149.1407400,house,4,2,2,"$897,500",19 May 2016,https://www.auhouseprices.com/sold/view/ACT/341161748/33+Neil+Harris+Crescent%2C+Forde+ACT/
298,2914,Forde,56,https://www.auhouseprices.com/sold/list/ACT/2914/Forde/,8 Allnutt Crescent ,-35.1679930,149.1419400,house,3,2,2,"$501,500",15 May 2016,https://www.auhouseprices.com/sold/view/ACT/341408648/8+Allnutt+Crescent%2C+Forde+ACT/
299,2914,Forde,56,https://www.auhouseprices.com/sold/list/ACT/2914/Forde/,5 Proud Street ,-35.1621050,149.1469410,townhouse,4,3,2,"$610,000",12 May 2016,https://www.auhouseprices.com/sold/view/ACT/341806648/5+Proud+Street%2C+Forde+ACT/
300,2914,Forde,56,https://www.auhouseprices.com/sold/list/ACT/2914/Forde/,22 Justice Kelly Street ,-35.1694170,149.1508700,house,4,2,3,"$760,000",9 May 2016,https://www.auhouseprices.com/sold/view/ACT/341533648/22+Justice+Kelly+Street%2C+Forde+ACT/
301,2914,Forde,56,https://www.auhouseprices.com/sold/list/ACT/2914/Forde/,35 Leslie Dwyer Street ,-35.1756760,149.1436100,house,5,2,2,"$730,000",2 May 2016,https://www.auhouseprices.com/sold/view/ACT/341205548/35+Leslie+Dwyer+Street%2C+Forde+ACT/
302,2914,Forde,56,https://www.auhouseprices.com/sold/list/ACT/2914/Forde/,7 Tom Nicholas Crescent ,-35.1715030,149.1445730,house,3,2,2,"$510,000",27 Apr 2016,https://www.auhouseprices.com/sold/view/ACT/341200438/7+Tom+Nicholas+Crescent%2C+Forde+ACT/
303,2914,Forde,56,https://www.auhouseprices.com/sold/list/ACT/2914/Forde/,16 Doris Turner Street ,-35.1682090,149.1491490,house,4,2,2,"$751,800",22 Apr 2016,https://www.auhouseprices.com/sold/view/ACT/341131548/16+Doris+Turner+Street%2C+Forde+ACT/
304,2914,Forde,56,https://www.auhouseprices.com/sold/list/ACT/2914/Forde/,4 Hibberd Crescent ,-35.1632880,149.1482760,house,3,2,2,"$659,999",18 Apr 2016,https://www.auhouseprices.com/sold/view/ACT/341881438/4+Hibberd+Crescent%2C+Forde+ACT/
305,2914,Forde,56,https://www.auhouseprices.com/sold/list/ACT/2914/Forde/,2 Huddy Street ,-35.1675400,149.1490200,house,5,3,2,"$1,170,000",2 Apr 2016,https://www.auhouseprices.com/sold/view/ACT/341494238/2+Huddy+Street%2C+Forde+ACT/
306,2914,Forde,56,https://www.auhouseprices.com/sold/list/ACT/2914/Forde/,22 Buchan Crescent ,-35.1583120,149.1523130,house,4,2,2,"$550,000",29 Mar 2016,https://www.auhouseprices.com/sold/view/ACT/341480138/22+Buchan+Crescent%2C+Forde+ACT/
307,2914,Forde,56,https://www.auhouseprices.com/sold/list/ACT/2914/Forde/,47 Hurrell Street ,-35.1694580,149.1452220,house,4,4,2,"$901,000",29 Mar 2016,https://www.auhouseprices.com/sold/view/ACT/341070138/47+Hurrell+Street%2C+Forde+ACT/
308,2914,Forde,56,https://www.auhouseprices.com/sold/list/ACT/2914/Forde/,10 Eric Wright Street ,-35.1702280,149.1502700,house,5,2,2,"$1,270,000",16 Mar 2016,https://www.auhouseprices.com/sold/view/ACT/341708038/10+Eric+Wright+Street%2C+Forde+ACT/
309,2914,Forde,56,https://www.auhouseprices.com/sold/list/ACT/2914/Forde/,12 Proud Street ,-35.1620300,149.1476640,house,4,2,2,"$680,000",8 Mar 2016,https://www.auhouseprices.com/sold/view/ACT/341042038/12+Proud+Street%2C+Forde+ACT/
310,2914,Forde,56,https://www.auhouseprices.com/sold/list/ACT/2914/Forde/,16 Proud Street ,-35.1617820,149.1477010,house,4,2,2,"$745,000",Mar 2016,https://www.auhouseprices.com/sold/view/ACT/341943938/16+Proud+Street%2C+Forde+ACT/
311,2914,Forde,56,https://www.auhouseprices.com/sold/list/ACT/2914/Forde/,8 Doris Turner Street ,-35.1692070,149.1492140,house,4,2,2,"$826,000",24 Feb 2016,https://www.auhouseprices.com/sold/view/ACT/341205838/8+Doris+Turner+Street%2C+Forde+ACT/
312,2914,Forde,56,https://www.auhouseprices.com/sold/list/ACT/2914/Forde/,99 Blizzard Circuit ,-35.1573200,149.1529010,house,4,1,2,"$605,000",18 Feb 2016,https://www.auhouseprices.com/sold/view/ACT/341208738/99+Blizzard+Circuit%2C+Forde+ACT/
313,2914,Forde,56,https://www.auhouseprices.com/sold/list/ACT/2914/Forde/,11 Jack Ryan Street ,-35.1732430,149.1472440,house,3,2,2,"$585,000",18 Feb 2016,https://www.auhouseprices.com/sold/view/ACT/341931438/11+Jack+Ryan+Street%2C+Forde+ACT/
314,2914,Forde,56,https://www.auhouseprices.com/sold/list/ACT/2914/Forde/,38 Aida Ball Circuit ,-35.1720160,149.1506200,house,4,2,2,"$700,000",13 Feb 2016,https://www.auhouseprices.com/sold/view/ACT/341822738/38+Aida+Ball+Circuit%2C+Forde+ACT/
315,2914,Forde,56,https://www.auhouseprices.com/sold/list/ACT/2914/Forde/,67 Francis Forde Boulevard ,-35.1706100,149.1455640,house,4,2,1,"$540,000",Feb 2016,https://www.auhouseprices.com/sold/view/ACT/341658538/67+Francis+Forde+Boulevard%2C+Forde+ACT/
316,2914,Forde,56,https://www.auhouseprices.com/sold/list/ACT/2914/Forde/,7 Hooton Street ,-35.1622580,149.1491910,house,4,2,2,"$725,000",18 Jan 2016,https://www.auhouseprices.com/sold/view/ACT/341969527/7+Hooton+Street%2C+Forde+ACT/
317,2914,Forde,56,https://www.auhouseprices.com/sold/list/ACT/2914/Forde/,24 Allnutt Crescent ,-35.1677250,149.1419260,house,4,2,2,"$668,000",22 Dec 2015,https://www.auhouseprices.com/sold/view/ACT/341198427/24+Allnutt+Crescent%2C+Forde+ACT/
318,2914,Forde,56,https://www.auhouseprices.com/sold/list/ACT/2914/Forde/,9/23 Hurrell Street ,-35.1682370,149.1436040,townhouse,3,2,2,"$665,000",11 Dec 2015,https://www.auhouseprices.com/sold/view/ACT/341074327/9-23+Hurrell+Street%2C+Forde+ACT/
319,2914,Forde,56,https://www.auhouseprices.com/sold/list/ACT/2914/Forde/,11 Callus Street ,-35.1561220,149.1538770,house,4,2,2,"$685,000",10 Dec 2015,https://www.auhouseprices.com/sold/view/ACT/341318327/11+Callus+Street%2C+Forde+ACT/
320,2914,Forde,56,https://www.auhouseprices.com/sold/list/ACT/2914/Forde/,9 Ray Ellis Crescent ,-35.1733970,149.1422500,house,4,3,2,"$990,000",7 Dec 2015,https://www.auhouseprices.com/sold/view/ACT/341880227/9+Ray+Ellis+Crescent%2C+Forde+ACT/
321,2914,Forde,56,https://www.auhouseprices.com/sold/list/ACT/2914/Forde/,34 Beveridge Crescent ,-35.1690300,149.1415710,house,4,2,2,"$745,000",27 Nov 2015,https://www.auhouseprices.com/sold/view/ACT/341981227/34+Beveridge+Crescent%2C+Forde+ACT/
322,2914,Forde,56,https://www.auhouseprices.com/sold/list/ACT/2914/Forde/,17 Ivy Kent Street ,-35.1767110,149.1441670,house,3,2,2,"$660,000",26 Nov 2015,https://www.auhouseprices.com/sold/view/ACT/341267127/17+Ivy+Kent+Street%2C+Forde+ACT/
323,2914,Forde,56,https://www.auhouseprices.com/sold/list/ACT/2914/Forde/,21 Turbayne Crescent ,-35.1623960,149.1478670,house,4,2,3,"$820,000",20 Nov 2015,https://www.auhouseprices.com/sold/view/ACT/341425127/21+Turbayne+Crescent%2C+Forde+ACT/
324,2914,Forde,56,https://www.auhouseprices.com/sold/list/ACT/2914/Forde/,3 Volpato Street ,-35.1603850,149.1510300,house,4,3,2,"$747,500",14 Nov 2015,https://www.auhouseprices.com/sold/view/ACT/341118627/3+Volpato+Street%2C+Forde+ACT/
325,2914,Forde,56,https://www.auhouseprices.com/sold/list/ACT/2914/Forde/,6/16 Neil Harris Crescent ,-35.1742200,149.1406600,townhouse,3,2,2,"$537,500",9 Nov 2015,https://www.auhouseprices.com/sold/view/ACT/341893627/6-16+Neil+Harris+Crescent%2C+Forde+ACT/
326,2914,Forde,56,https://www.auhouseprices.com/sold/list/ACT/2914/Forde/,7 Les Edwards Street ,-35.1725200,149.1491200,house,5,2,2,"$765,000",8 Nov 2015,https://www.auhouseprices.com/sold/view/ACT/341322627/7+Les+Edwards+Street%2C+Forde+ACT/
327,2914,Forde,56,https://www.auhouseprices.com/sold/list/ACT/2914/Forde/,11/1 Jack Ryan Street ,-35.1739770,149.1470800,townhouse,4,2,2,"$545,000",4 Nov 2015,https://www.auhouseprices.com/sold/view/ACT/341156517/11-1+Jack+Ryan+Street%2C+Forde+ACT/
328,2914,Forde,56,https://www.auhouseprices.com/sold/list/ACT/2914/Forde/,7 Pahlman Street ,-35.1701130,149.1455400,house,4,2,2,"$740,000",2 Nov 2015,https://www.auhouseprices.com/sold/view/ACT/341185517/7+Pahlman+Street%2C+Forde+ACT/
329,2914,Forde,56,https://www.auhouseprices.com/sold/list/ACT/2914/Forde/,51 Beveridge Crescent ,-35.1686250,149.1417000,house,5,3,4,"$872,500",22 Oct 2015,https://www.auhouseprices.com/sold/view/ACT/341167317/51+Beveridge+Crescent%2C+Forde+ACT/
330,2914,Forde,56,https://www.auhouseprices.com/sold/list/ACT/2914/Forde/,86 Hibberd Street ,-35.1615520,149.1488520,house,4,2,2,"$695,000",19 Oct 2015,https://www.auhouseprices.com/sold/view/ACT/341604227/86+Hibberd+Street%2C+Forde+ACT/
331,2914,Forde,56,https://www.auhouseprices.com/sold/list/ACT/2914/Forde/,8 Huddy Street ,-35.1674730,149.1482100,house,4,3,3,"$1,180,000",11 Oct 2015,https://www.auhouseprices.com/sold/view/ACT/341055217/8+Huddy+Street%2C+Forde+ACT/
332,2914,Forde,56,https://www.auhouseprices.com/sold/list/ACT/2914/Forde/,2 Convine Street ,-35.1633200,149.1469000,house,4,2,2,"$670,500",29 Sep 2015,https://www.auhouseprices.com/sold/view/ACT/341895117/2+Convine+Street%2C+Forde+ACT/
333,2914,Forde,56,https://www.auhouseprices.com/sold/list/ACT/2914/Forde/,49 Francis Forde Boulevard ,-35.1706280,149.1445000,terrace,3,2,2,"$500,000",11 Sep 2015,https://www.auhouseprices.com/sold/view/ACT/341452017/49+Francis+Forde+Boulevard%2C+Forde+ACT/
334,2914,Forde,56,https://www.auhouseprices.com/sold/list/ACT/2914/Forde/,18B Alice Berry Street ,-35.1727330,149.1467900,townhouse,1,1,1,"$350,000",9 Sep 2015,https://www.auhouseprices.com/sold/view/ACT/341624917/18B+Alice+Berry+Street%2C+Forde+ACT/
335,2914,Forde,56,https://www.auhouseprices.com/sold/list/ACT/2914/Forde/,36 Paquita Street ,-35.1636350,149.1465300,house,4,2,2,"$725,000",8 Sep 2015,https://www.auhouseprices.com/sold/view/ACT/341214917/36+Paquita+Street%2C+Forde+ACT/
336,2914,Forde,56,https://www.auhouseprices.com/sold/list/ACT/2914/Forde/,15 Hooton Street ,-35.1620300,149.1492900,house,4,2,2,"$850,000",31 Aug 2015,https://www.auhouseprices.com/sold/view/ACT/341366817/15+Hooton+Street%2C+Forde+ACT/
337,2914,Forde,56,https://www.auhouseprices.com/sold/list/ACT/2914/Forde/,7 Beveridge Crescent ,-35.1696550,149.1411300,house,4,2,2,"$798,000",24 Aug 2015,https://www.auhouseprices.com/sold/view/ACT/341738717/7+Beveridge+Crescent%2C+Forde+ACT/
338,2914,Forde,56,https://www.auhouseprices.com/sold/list/ACT/2914/Forde/,10 Rickman Street ,-35.1700800,149.1452000,house,4,3,2,"$710,000",20 Aug 2015,https://www.auhouseprices.com/sold/view/ACT/341328717/10+Rickman+Street%2C+Forde+ACT/
339,2914,Forde,56,https://www.auhouseprices.com/sold/list/ACT/2914/Forde/,3 Callus Street ,-35.1558880,149.1533500,house,4,2,2,"$690,000",18 Aug 2015,https://www.auhouseprices.com/sold/view/ACT/341391717/3+Callus+Street%2C+Forde+ACT/
340,2914,Forde,56,https://www.auhouseprices.com/sold/list/ACT/2914/Forde/,4 Ada Baker Street ,-35.1722680,149.1402400,house,4,3,2,"$800,000",10 Aug 2015,https://www.auhouseprices.com/sold/view/ACT/341962617/4+Ada+Baker+Street%2C+Forde+ACT/
341,2914,Forde,56,https://www.auhouseprices.com/sold/list/ACT/2914/Forde/,20 Ada Baker Street ,-35.1712530,149.1400600,house,4,2,2,"$630,000",8 Aug 2015,https://www.auhouseprices.com/sold/view/ACT/341080617/20+Ada+Baker+Street%2C+Forde+ACT/
342,2914,Forde,56,https://www.auhouseprices.com/sold/list/ACT/2914/Forde/,35 Quinane Avenue ,-35.1684760,149.1489900,house,4,2,3,"$705,000",4 Aug 2015,https://www.auhouseprices.com/sold/view/ACT/341465507/35+Quinane+Avenue%2C+Forde+ACT/
343,2914,Forde,56,https://www.auhouseprices.com/sold/list/ACT/2914/Forde/,49 Doris Turner Street ,-35.1668600,149.1461600,house,4,4,2,"$1,225,000",31 Jul 2015,https://www.auhouseprices.com/sold/view/ACT/341925507/49+Doris+Turner+Street%2C+Forde+ACT/
344,2914,Forde,56,https://www.auhouseprices.com/sold/list/ACT/2914/Forde/,9/16 Ray Ellis Crescent ,-35.1745220,149.1422000,townhouse,4,2,2,"$625,000",24 Jul 2015,https://www.auhouseprices.com/sold/view/ACT/341684407/9-16+Ray+Ellis+Crescent%2C+Forde+ACT/
345,2914,Forde,56,https://www.auhouseprices.com/sold/list/ACT/2914/Forde/,3/16 Ray Ellis Crescent ,-35.1745220,149.1422000,house,4,2,2,"$530,000",9 Jul 2015,https://www.auhouseprices.com/sold/view/ACT/341725307/3-16+Ray+Ellis+Crescent%2C+Forde+ACT/
346,2914,Forde,56,https://www.auhouseprices.com/sold/list/ACT/2914/Forde/,24/29 Tom Nicholas ,-35.1714480,149.1449700,house,3,2,2,"$487,000",7 Jul 2015,https://www.auhouseprices.com/sold/view/ACT/341450207/24-29+Tom+Nicholas%2C+Forde+ACT/
347,2914,Forde,56,https://www.auhouseprices.com/sold/list/ACT/2914/Forde/,30 Ada Baker Street ,-35.1703720,149.1400600,house,3,1,1,"$460,000",29 Jun 2015,https://www.auhouseprices.com/sold/view/ACT/341074207/30+Ada+Baker+Street%2C+Forde+ACT/
348,2914,Forde,56,https://www.auhouseprices.com/sold/list/ACT/2914/Forde/,24 Doris Turner Street ,-35.1675700,149.1495400,house,4,2,2,"$790,000",24 Jun 2015,https://www.auhouseprices.com/sold/view/ACT/341355107/24+Doris+Turner+Street%2C+Forde+ACT/
349,2914,Forde,56,https://www.auhouseprices.com/sold/list/ACT/2914/Forde/,19 Tom Nicholas Crescent ,-35.1717590,149.1448320,townhouse,3,2,2,"$478,000",11 Jun 2015,https://www.auhouseprices.com/sold/view/ACT/341080969/19+Tom+Nicholas+Crescent%2C+Forde+ACT/
350,2914,Forde,56,https://www.auhouseprices.com/sold/list/ACT/2914/Forde/,9 Zorzi Street ,-35.1676140,149.1454300,house,4,2,2,"$650,000",3 Jun 2015,https://www.auhouseprices.com/sold/view/ACT/341075907/9+Zorzi+Street%2C+Forde+ACT/
351,2914,Forde,56,https://www.auhouseprices.com/sold/list/ACT/2914/Forde/,26 Pooley Street ,-35.1671870,149.1446400,house,4,2,2,"$852,500",20 May 2015,https://www.auhouseprices.com/sold/view/ACT/341560807/26+Pooley+Street%2C+Forde+ACT/
352,2914,Forde,56,https://www.auhouseprices.com/sold/list/ACT/2914/Forde/,33 Quinane Avenue ,-35.1682300,149.1485900,house,4,2,2,"$726,000",16 May 2015,https://www.auhouseprices.com/sold/view/ACT/341426707/33+Quinane+Avenue%2C+Forde+ACT/
353,2914,Forde,56,https://www.auhouseprices.com/sold/list/ACT/2914/Forde/,70 Francis Forde Boulevard ,-35.1710360,149.1453100,townhouse,2,1,1,"$355,000",14 May 2015,https://www.auhouseprices.com/sold/view/ACT/341745707/70+Francis+Forde+Boulevard%2C+Forde+ACT/
354,2914,Forde,56,https://www.auhouseprices.com/sold/list/ACT/2914/Forde/,97 Hibberd Crescent ,-35.1612050,149.1495200,house,3,2,1,"$504,000",5 May 2015,https://www.auhouseprices.com/sold/view/ACT/341880397/97+Hibberd+Crescent%2C+Forde+ACT/
355,2914,Forde,56,https://www.auhouseprices.com/sold/list/ACT/2914/Forde/,3 Justice Kelly Street ,-35.1708530,149.1493000,house,3,1,2,"$520,000",2 May 2015,https://www.auhouseprices.com/sold/view/ACT/341947397/3+Justice+Kelly+Street%2C+Forde+ACT/
356,2914,Forde,56,https://www.auhouseprices.com/sold/list/ACT/2914/Forde/,86 Blizzard Circuit ,-35.1569700,149.1535200,house,4,2,2,"$785,000",29 Apr 2015,https://www.auhouseprices.com/sold/view/ACT/341898807/86+Blizzard+Circuit%2C+Forde+ACT/
357,2914,Forde,56,https://www.auhouseprices.com/sold/list/ACT/2914/Forde/,5/12 Lomax Street ,-35.1720050,149.1439400,townhouse,3,2,2,"$527,000",18 Apr 2015,https://www.auhouseprices.com/sold/view/ACT/341425297/5-12+Lomax+Street%2C+Forde+ACT/
358,2914,Forde,56,https://www.auhouseprices.com/sold/list/ACT/2914/Forde/,28 Helen Leonard Crescent ,-35.1666900,149.1424700,house,4,2,2,"$600,000",13 Apr 2015,https://www.auhouseprices.com/sold/view/ACT/341401297/28+Helen+Leonard+Crescent%2C+Forde+ACT/
359,2914,Forde,56,https://www.auhouseprices.com/sold/list/ACT/2914/Forde/,4 Max Purnell Street ,-35.1783450,149.1444500,house,5,3,2,"$730,000",31 Mar 2015,https://www.auhouseprices.com/sold/view/ACT/341225597/4+Max+Purnell+Street%2C+Forde+ACT/
360,2914,Forde,56,https://www.auhouseprices.com/sold/list/ACT/2914/Forde/,15/16 Ray Ellis Crescent ,-35.1745220,149.1422000,townhouse,3,2,2,"$525,000",30 Mar 2015,https://www.auhouseprices.com/sold/view/ACT/341320487/15-16+Ray+Ellis+Crescent%2C+Forde+ACT/
361,2914,Forde,56,https://www.auhouseprices.com/sold/list/ACT/2914/Forde/,14 Miljanovic Street ,-35.1641500,149.1450500,house,2,1,1,"$425,000",10 Mar 2015,https://www.auhouseprices.com/sold/view/ACT/341527387/14+Miljanovic+Street%2C+Forde+ACT/
362,2914,Forde,56,https://www.auhouseprices.com/sold/list/ACT/2914/Forde/,5 Proud Street ,-35.1621060,149.1469400,house,4,3,2,"$580,626",2 Mar 2015,https://www.auhouseprices.com/sold/view/ACT/341290707/5+Proud+Street%2C+Forde+ACT/
363,2914,Forde,56,https://www.auhouseprices.com/sold/list/ACT/2914/Forde/,30 Blizzard Circuit ,-35.1570430,149.1526600,house,4,2,2,"$679,950",19 Feb 2015,https://www.auhouseprices.com/sold/view/ACT/341162187/30+Blizzard+Circuit%2C+Forde+ACT/
364,2914,Forde,56,https://www.auhouseprices.com/sold/list/ACT/2914/Forde/,133 Amy Ackman Street ,-35.1617700,149.1503400,house,4,2,2,"$535,000",13 Feb 2015,https://www.auhouseprices.com/sold/view/ACT/341651187/133+Amy+Ackman+Street%2C+Forde+ACT/
365,2914,Forde,56,https://www.auhouseprices.com/sold/list/ACT/2914/Forde/,27 Quinane Avenue ,-35.1681700,149.1478600,house,4,2,2,"$931,800",12 Feb 2015,https://www.auhouseprices.com/sold/view/ACT/341587087/27+Quinane+Avenue%2C+Forde+ACT/
366,2914,Forde,56,https://www.auhouseprices.com/sold/list/ACT/2914/Forde/,8 Hooton Street ,-35.1619000,149.1497300,other,4,1,2,"$622,500",10 Feb 2015,https://www.auhouseprices.com/sold/view/ACT/341807087/8+Hooton+Street%2C+Forde+ACT/
367,2914,Forde,56,https://www.auhouseprices.com/sold/list/ACT/2914/Forde/,32 Hibberd Crescent ,-35.1621500,149.1465100,townhouse,2,1,2,"$395,000",28 Jan 2015,https://www.auhouseprices.com/sold/view/ACT/341627987/32+Hibberd+Crescent%2C+Forde+ACT/
368,2914,Forde,56,https://www.auhouseprices.com/sold/list/ACT/2914/Forde/,34 Bruce Dittmar Street ,-35.1772460,149.1448700,house,4,3,2,"$690,000",19 Dec 2014,https://www.auhouseprices.com/sold/view/ACT/341618887/34+Bruce+Dittmar+Street%2C+Forde+ACT/
369,2914,Forde,56,https://www.auhouseprices.com/sold/list/ACT/2914/Forde/,7 Les Edwards Street ,-35.1725200,149.1491200,house,5,2,2,"$738,500",25 Nov 2014,https://www.auhouseprices.com/sold/view/ACT/341956587/7+Les+Edwards+Street%2C+Forde+ACT/
370,2914,Forde,56,https://www.auhouseprices.com/sold/list/ACT/2914/Forde/,100 Hibberd Crescent ,-35.1616600,149.1499300,house,5,2,3,"$785,000",25 Nov 2014,https://www.auhouseprices.com/sold/view/ACT/341177587/100+Hibberd+Crescent%2C+Forde+ACT/
371,2914,Forde,56,https://www.auhouseprices.com/sold/list/ACT/2914/Forde/,7/21 Francis Forde Boulevard ,-35.1712760,149.1414300,townhouse,4,2,2,"$557,500",21 Nov 2014,https://www.auhouseprices.com/sold/view/ACT/341153587/7-21+Francis+Forde+Boulevard%2C+Forde+ACT/
372,2914,Forde,56,https://www.auhouseprices.com/sold/list/ACT/2914/Forde/,6 Loma Rudduck Street ,-35.1708030,149.1477200,house,4,2,2,"$645,000",20 Nov 2014,https://www.auhouseprices.com/sold/view/ACT/341261587/6+Loma+Rudduck+Street%2C+Forde+ACT/
373,2914,Forde,56,https://www.auhouseprices.com/sold/list/ACT/2914/Forde/,5 Callus Street ,-35.1559370,149.1534900,house,4,2,2,"$670,000",19 Nov 2014,https://www.auhouseprices.com/sold/view/ACT/341522587/5+Callus+Street%2C+Forde+ACT/
374,2914,Forde,56,https://www.auhouseprices.com/sold/list/ACT/2914/Forde/,64 Turbayne Crescent ,-35.1610500,149.1505700,house,4,2,2,"$640,000",14 Nov 2014,https://www.auhouseprices.com/sold/view/ACT/341397477/64+Turbayne+Crescent%2C+Forde+ACT/
375,2914,Forde,56,https://www.auhouseprices.com/sold/list/ACT/2914/Forde/,58 Hibberd Crescent ,-35.1615560,149.1469400,villa,3,2,2,"$419,000",30 Oct 2014,https://www.auhouseprices.com/sold/view/ACT/341290587/58+Hibberd+Crescent%2C+Forde+ACT/
376,2914,Forde,56,https://www.auhouseprices.com/sold/list/ACT/2914/Forde/,82 Blizzard Circuit ,-35.1698700,149.1423800,house,4,2,2,"$605,000",30 Oct 2014,https://www.auhouseprices.com/sold/view/ACT/341028587/82+Blizzard+Circuit%2C+Forde+ACT/
377,2914,Forde,56,https://www.auhouseprices.com/sold/list/ACT/2914/Forde/,23 Turbayne Crescent ,-35.1624100,149.1480400,house,5,3,2,"$695,000",24 Oct 2014,https://www.auhouseprices.com/sold/view/ACT/341007277/23+Turbayne+Crescent%2C+Forde+ACT/
378,2914,Forde,56,https://www.auhouseprices.com/sold/list/ACT/2914/Forde/,14 Buchan Crescent ,-35.1583440,149.1530800,house,4,2,2,"$750,000",24 Oct 2014,https://www.auhouseprices.com/sold/view/ACT/341091377/14+Buchan+Crescent%2C+Forde+ACT/
379,2914,Forde,56,https://www.auhouseprices.com/sold/list/ACT/2914/Forde/,15 Ivy Kent Street ,-35.1768530,149.1441200,house,4,2,2,"$730,000",23 Oct 2014,https://www.auhouseprices.com/sold/view/ACT/341396277/15+Ivy+Kent+Street%2C+Forde+ACT/
380,2914,Forde,56,https://www.auhouseprices.com/sold/list/ACT/2914/Forde/,29 Leslie Dwyer Street ,-35.1755300,149.1433100,house,4,2,2,"$522,000",30 Sep 2014,https://www.auhouseprices.com/sold/view/ACT/341329177/29+Leslie+Dwyer+Street%2C+Forde+ACT/
381,2914,Forde,56,https://www.auhouseprices.com/sold/list/ACT/2914/Forde/,14 Paquita Street ,-35.1637040,149.1449100,house,4,2,2,"$690,000",18 Aug 2014,https://www.auhouseprices.com/sold/view/ACT/341522877/14+Paquita+Street%2C+Forde+ACT/
382,2914,Forde,56,https://www.auhouseprices.com/sold/list/ACT/2914/Forde/,100 Blizzard Circuit ,-35.1698700,149.1423800,house,3,2,2,"$542,000",8 Aug 2014,https://www.auhouseprices.com/sold/view/ACT/341182877/100+Blizzard+Circuit%2C+Forde+ACT/
383,2914,Forde,56,https://www.auhouseprices.com/sold/list/ACT/2914/Forde/,43 Ada Baker Street ,-35.1699100,149.1409100,house,3,2,2,"$520,000",5 Aug 2014,https://www.auhouseprices.com/sold/view/ACT/341691777/43+Ada+Baker+Street%2C+Forde+ACT/
384,2914,Forde,56,https://www.auhouseprices.com/sold/list/ACT/2914/Forde/,10 Mantle Street ,-35.1734730,149.1497200,house,4,3,4,"$865,000",23 Jul 2014,https://www.auhouseprices.com/sold/view/ACT/341732677/10+Mantle+Street%2C+Forde+ACT/
385,2914,Forde,56,https://www.auhouseprices.com/sold/list/ACT/2914/Forde/,30 Phyllis Frost Street ,-35.1679200,149.1503400,house,4,2,2,"$720,000",14 Jul 2014,https://www.auhouseprices.com/sold/view/ACT/341677467/30+Phyllis+Frost+Street%2C+Forde+ACT/
386,2914,Forde,56,https://www.auhouseprices.com/sold/list/ACT/2914/Forde/,37 Helen Leonard Crescent ,-35.1663740,149.1428500,house,4,2,1,"$510,000",29 Jun 2014,https://www.auhouseprices.com/sold/view/ACT/341958367/37+Helen+Leonard+Crescent%2C+Forde+ACT/
387,2914,Forde,56,https://www.auhouseprices.com/sold/list/ACT/2914/Forde/,1/26 Loma Ruddock Street ,-35.1703000,149.1463600,duplex-semi-detached,4,2,2,"$550,000",25 Jun 2014,https://www.auhouseprices.com/sold/view/ACT/341445367/1-26+Loma+Ruddock+Street%2C+Forde+ACT/
388,2914,Forde,56,https://www.auhouseprices.com/sold/list/ACT/2914/Forde/,7 Callus Street ,-35.1559000,149.1528800,house,4,2,2,"$559,157",18 Jun 2014,https://www.auhouseprices.com/sold/view/ACT/341172367/7+Callus+Street%2C+Forde+ACT/
389,2914,Forde,56,https://www.auhouseprices.com/sold/list/ACT/2914/Forde/,75 Hibberd Crescent ,-35.1614000,149.1494600,house,3,2,2,"$427,250",3 Jun 2014,https://www.auhouseprices.com/sold/view/ACT/341063167/75+Hibberd+Crescent%2C+Forde+ACT/
390,2914,Forde,56,https://www.auhouseprices.com/sold/list/ACT/2914/Forde/,2 Jessie Street ,-35.1647700,149.1442600,house,4,3,2,"$645,000",20 May 2014,https://www.auhouseprices.com/sold/view/ACT/341452067/2+Jessie+Street%2C+Forde+ACT/
391,2914,Forde,56,https://www.auhouseprices.com/sold/list/ACT/2914/Forde/,32 Alice Berry Street ,-35.1740200,149.1484700,house,4,2,2,"$740,000",15 May 2014,https://www.auhouseprices.com/sold/view/ACT/341449967/32+Alice+Berry+Street%2C+Forde+ACT/
392,2914,Forde,56,https://www.auhouseprices.com/sold/list/ACT/2914/Forde/,22 Allnut Street ,-35.1676940,149.1417200,house,4,2,2,"$850,000",14 May 2014,https://www.auhouseprices.com/sold/view/ACT/341039967/22+Allnut+Street%2C+Forde+ACT/
393,2914,Forde,56,https://www.auhouseprices.com/sold/list/ACT/2914/Forde/,18 Paquita Street ,-35.1631050,149.1461000,house,4,2,2,"$575,000",14 May 2014,https://www.auhouseprices.com/sold/view/ACT/341598967/18+Paquita+Street%2C+Forde+ACT/
394,2914,Forde,56,https://www.auhouseprices.com/sold/list/ACT/2914/Forde/,14 Octoman Street ,-35.1639100,149.1455100,house,4,2,3,"$622,000",2 May 2014,https://www.auhouseprices.com/sold/view/ACT/341811967/14+Octoman+Street%2C+Forde+ACT/
395,2914,Forde,56,https://www.auhouseprices.com/sold/list/ACT/2914/Forde/,5/18 Dickins Street ,-35.1736830,149.1461600,townhouse,3,2,2,"$500,000",16 Apr 2014,https://www.auhouseprices.com/sold/view/ACT/341855867/5-18+Dickins+Street%2C+Forde+ACT/
396,2914,Forde,56,https://www.auhouseprices.com/sold/list/ACT/2914/Forde/,17 Francis Forde Boulevard ,-35.1727700,149.1416000,house,4,2,2,"$713,000",11 Apr 2014,https://www.auhouseprices.com/sold/view/ACT/341620867/17+Francis+Forde+Boulevard%2C+Forde+ACT/
397,2914,Forde,56,https://www.auhouseprices.com/sold/list/ACT/2914/Forde/,10 Rubeo Street ,-35.1638500,149.1463600,house,3,2,2,"$500,000",2 Apr 2014,https://www.auhouseprices.com/sold/view/ACT/341002437/10+Rubeo+Street%2C+Forde+ACT/
398,2914,Forde,56,https://www.auhouseprices.com/sold/list/ACT/2914/Forde/,11 Ray Ellis Crescent ,-35.1732670,149.1427300,house,4,2,2,"$850,000",31 Mar 2014,https://www.auhouseprices.com/sold/view/ACT/341213437/11+Ray+Ellis+Crescent%2C+Forde+ACT/
399,2914,Forde,56,https://www.auhouseprices.com/sold/list/ACT/2914/Forde/,18 Oke Street ,-35.1663000,149.1438400,house,6,2,2,"$879,000",31 Mar 2014,https://www.auhouseprices.com/sold/view/ACT/341394047/18+Oke+Street%2C+Forde+ACT/
400,2914,Forde,56,https://www.auhouseprices.com/sold/list/ACT/2914/Forde/,125 Amy Ackman Street ,-35.1641800,149.1474300,house,9,9,18,"$676,000",27 Mar 2014,https://www.auhouseprices.com/sold/view/ACT/341904547/125+Amy+Ackman+Street%2C+Forde+ACT/
401,2914,Forde,56,https://www.auhouseprices.com/sold/list/ACT/2914/Forde/,25 Neil Harris Crescent ,-35.1743170,149.1407850,house,3,2,2,"$661,600",21 Mar 2014,https://www.auhouseprices.com/sold/view/ACT/331587916/25+Neil+Harris+Crescent%2C+Forde+ACT/
402,2914,Forde,56,https://www.auhouseprices.com/sold/list/ACT/2914/Forde/,7/16 Ray Ellis Crescent ,-35.1732683,149.1427234,townhouse,3,2,2,"$526,000",19 Mar 2014,https://www.auhouseprices.com/sold/view/ACT/331141916/7-16+Ray+Ellis+Crescent%2C+Forde+ACT/
403,2914,Forde,56,https://www.auhouseprices.com/sold/list/ACT/2914/Forde/,4 Denoon Street ,-35.1669130,149.1445900,house,4,3,2,"$662,000",6 Mar 2014,https://www.auhouseprices.com/sold/view/ACT/331387716/4+Denoon+Street%2C+Forde+ACT/
404,2914,Forde,56,https://www.auhouseprices.com/sold/list/ACT/2914/Forde/,2 Laird Street ,-35.1580331,149.1511887,house,4,2,2,"$569,950",5 Mar 2014,https://www.auhouseprices.com/sold/view/ACT/331677716/2+Laird+Street%2C+Forde+ACT/
405,2914,Forde,56,https://www.auhouseprices.com/sold/list/ACT/2914/Forde/,47 David Walsh Avenue ,-35.1698692,149.1423828,house,4,2,2,"$615,000",4 Mar 2014,https://www.auhouseprices.com/sold/view/ACT/331838616/47+David+Walsh+Avenue%2C+Forde+ACT/
406,2914,Forde,56,https://www.auhouseprices.com/sold/list/ACT/2914/Forde/,45 David Walsh Avenue ,-35.1698692,149.1423828,house,4,2,2,"$634,500",3 Mar 2014,https://www.auhouseprices.com/sold/view/ACT/331138616/45+David+Walsh+Avenue%2C+Forde+ACT/
407,2914,Forde,56,https://www.auhouseprices.com/sold/list/ACT/2914/Forde/,2 Laird Crescent ,-35.1580331,149.1511887,House,4,2,2,"$745,000",1 Mar 2014,https://www.auhouseprices.com/sold/view/ACT/331981816/2+Laird+Crescent%2C+Forde+ACT/
408,2914,Forde,56,https://www.auhouseprices.com/sold/list/ACT/2914/Forde/,15 Leslie Dwyer Street ,-35.1698692,149.1423828,House,3,2,2,"$520,000",1 Mar 2014,https://www.auhouseprices.com/sold/view/ACT/331691816/15+Leslie+Dwyer+Street%2C+Forde+ACT/
409,2914,Forde,56,https://www.auhouseprices.com/sold/list/ACT/2914/Forde/,28 Alice Berry Street ,-35.1740330,149.1481780,house,4,2,2,"$885,000",18 Feb 2014,https://www.auhouseprices.com/sold/view/ACT/331516506/28+Alice+Berry+Street%2C+Forde+ACT/
410,2914,Forde,56,https://www.auhouseprices.com/sold/list/ACT/2914/Forde/,14 Loma Rudduck Street ,-35.1698692,149.1423828,house,3,2,1,"$480,000",4 Feb 2014,https://www.auhouseprices.com/sold/view/ACT/331297916/14+Loma+Rudduck+Street%2C+Forde+ACT/
