,Postcode,Suburb Name,Recent Sales,Suburb Link,Street Address,Latitude,Longitude,Property Type,Beds,Baths,Cars,Sold Price,Sold Date,Property Link
0,2914,Amaroo,77,https://www.auhouseprices.com/sold/list/ACT/2914/Amaroo/,4 Conjola Close ,-35.1710369,149.1237940,house,4,2,2,"$860,000",19 Mar 2021,https://www.auhouseprices.com/sold/view/ACT/341058270/4+Conjola+Close%2C+Amaroo+ACT/
1,2914,Amaroo,77,https://www.auhouseprices.com/sold/list/ACT/2914/Amaroo/,92 Burdekin Avenue ,-35.1658346,149.1253713,house,5,2,2,"$905,000",15 Mar 2021,https://www.auhouseprices.com/sold/view/ACT/341345370/92+Burdekin+Avenue%2C+Amaroo+ACT/
2,2914,Amaroo,77,https://www.auhouseprices.com/sold/list/ACT/2914/Amaroo/,3 Allyn Close ,-35.1701904,149.1227180,house,3,2,4,"$640,000",6 Mar 2021,https://www.auhouseprices.com/sold/view/ACT/341467070/3+Allyn+Close%2C+Amaroo+ACT/
3,2914,Amaroo,77,https://www.auhouseprices.com/sold/list/ACT/2914/Amaroo/,11 Annan Close ,-35.1700748,149.1267333,house,3,2,2,"$770,000",5 Mar 2021,https://www.auhouseprices.com/sold/view/ACT/341505070/11+Annan+Close%2C+Amaroo+ACT/
4,2914,Amaroo,77,https://www.auhouseprices.com/sold/list/ACT/2914/Amaroo/,45 Burdekin Avenue ,-35.1687867,149.1205077,house,4,2,5,"$1,000,000",Mar 2021,https://www.auhouseprices.com/sold/view/ACT/341752970/45+Burdekin+Avenue%2C+Amaroo+ACT/
5,2914,Amaroo,77,https://www.auhouseprices.com/sold/list/ACT/2914/Amaroo/,2 Benaroon Circuit ,-35.1705758,149.1356613,house,4,2,2,"$855,000",27 Feb 2021,https://www.auhouseprices.com/sold/view/ACT/341081970/2+Benaroon+Circuit%2C+Amaroo+ACT/
6,2914,Amaroo,77,https://www.auhouseprices.com/sold/list/ACT/2914/Amaroo/,1/11 Clara Close ,-35.1743311,149.1217704,townhouse,3,1,3,"$526,000",23 Feb 2021,https://www.auhouseprices.com/sold/view/ACT/341183270/1-11+Clara+Close%2C+Amaroo+ACT/
7,2914,Amaroo,77,https://www.auhouseprices.com/sold/list/ACT/2914/Amaroo/,12 Bywaters Street ,-35.1700990,149.1217605,house,4,2,2,"$805,000",19 Feb 2021,https://www.auhouseprices.com/sold/view/ACT/341547770/12+Bywaters+Street%2C+Amaroo+ACT/
8,2914,Amaroo,77,https://www.auhouseprices.com/sold/list/ACT/2914/Amaroo/,2/32 Roderick Street ,-35.1744766,149.1255552,townhouse,3,1,1,"$505,000",18 Feb 2021,https://www.auhouseprices.com/sold/view/ACT/341696770/2-32+Roderick+Street%2C+Amaroo+ACT/
9,2914,Amaroo,77,https://www.auhouseprices.com/sold/list/ACT/2914/Amaroo/,4 Meerup Street ,-35.1712498,149.1337356,house,4,2,2,"$1,080,000",10 Feb 2021,https://www.auhouseprices.com/sold/view/ACT/341145670/4+Meerup+Street%2C+Amaroo+ACT/
10,2914,Amaroo,77,https://www.auhouseprices.com/sold/list/ACT/2914/Amaroo/,1/43 Bywaters Street ,-35.1691714,149.1239477,townhouse,3,2,2,"$577,000",29 Dec 2020,https://www.auhouseprices.com/sold/view/ACT/341662260/1-43+Bywaters+Street%2C+Amaroo+ACT/
11,2914,Amaroo,77,https://www.auhouseprices.com/sold/list/ACT/2914/Amaroo/,21 Conjola Close ,-35.1713513,149.1243731,house,5,2,5,"$1,025,000",22 Dec 2020,https://www.auhouseprices.com/sold/view/ACT/341267160/21+Conjola+Close%2C+Amaroo+ACT/
12,2914,Amaroo,77,https://www.auhouseprices.com/sold/list/ACT/2914/Amaroo/,53 Benaroon Circuit ,-35.1705891,149.1374621,house,4,2,2,"$800,000",21 Dec 2020,https://www.auhouseprices.com/sold/view/ACT/341902160/53+Benaroon+Circuit%2C+Amaroo+ACT/
13,2914,Amaroo,77,https://www.auhouseprices.com/sold/list/ACT/2914/Amaroo/,28 Dulverton Street ,-35.1673381,149.1290773,house,3,2,2,"$725,000",18 Dec 2020,https://www.auhouseprices.com/sold/view/ACT/341852160/28+Dulverton+Street%2C+Amaroo+ACT/
14,2914,Amaroo,77,https://www.auhouseprices.com/sold/list/ACT/2914/Amaroo/,6 Tuross Close ,-35.1715794,149.1231933,house,4,2,2,"$822,000",16 Dec 2020,https://www.auhouseprices.com/sold/view/ACT/341196060/6+Tuross+Close%2C+Amaroo+ACT/
15,2914,Amaroo,77,https://www.auhouseprices.com/sold/list/ACT/2914/Amaroo/,9 Redwater Place ,-35.1669919,149.1344038,house,4,2,2,"$740,000",15 Dec 2020,https://www.auhouseprices.com/sold/view/ACT/341855060/9+Redwater+Place%2C+Amaroo+ACT/
16,2914,Amaroo,77,https://www.auhouseprices.com/sold/list/ACT/2914/Amaroo/,49 Burdekin Avenue ,-35.1685179,149.1209289,house,4,2,2,"$805,000",3 Dec 2020,https://www.auhouseprices.com/sold/view/ACT/341429760/49+Burdekin+Avenue%2C+Amaroo+ACT/
17,2914,Amaroo,77,https://www.auhouseprices.com/sold/list/ACT/2914/Amaroo/,16 Traine Court ,-35.1696987,149.1209376,house,3,2,2,"$695,000",Dec 2020,https://www.auhouseprices.com/sold/view/ACT/341355760/16+Traine+Court%2C+Amaroo+ACT/
18,2914,Amaroo,77,https://www.auhouseprices.com/sold/list/ACT/2914/Amaroo/,3 Benaroon Circuit ,-35.1705349,149.1359347,house,4,2,2,"$900,000",30 Nov 2020,https://www.auhouseprices.com/sold/view/ACT/341753760/3+Benaroon+Circuit%2C+Amaroo+ACT/
19,2914,Amaroo,77,https://www.auhouseprices.com/sold/list/ACT/2914/Amaroo/,9 Genoa Street ,-35.1695390,149.1279819,house,3,2,2,"$752,000",27 Nov 2020,https://www.auhouseprices.com/sold/view/ACT/341847660/9+Genoa+Street%2C+Amaroo+ACT/
20,2914,Amaroo,77,https://www.auhouseprices.com/sold/list/ACT/2914/Amaroo/,1/34 Proserpine Circuit ,-35.1688906,149.1320269,townhouse,3,2,2,"$610,000",16 Nov 2020,https://www.auhouseprices.com/sold/view/ACT/341562660/1-34+Proserpine+Circuit%2C+Amaroo+ACT/
21,2914,Amaroo,77,https://www.auhouseprices.com/sold/list/ACT/2914/Amaroo/,9/51 Sandover Circuit ,-35.1752755,149.1272899,townhouse,3,2,2,"$596,000",11 Nov 2020,https://www.auhouseprices.com/sold/view/ACT/341486350/9-51+Sandover+Circuit%2C+Amaroo+ACT/
22,2914,Amaroo,77,https://www.auhouseprices.com/sold/list/ACT/2914/Amaroo/,29 Mission Street ,-35.1685285,149.1352015,house,4,2,2,"$800,000",9 Nov 2020,https://www.auhouseprices.com/sold/view/ACT/341867350/29+Mission+Street%2C+Amaroo+ACT/
23,2914,Amaroo,77,https://www.auhouseprices.com/sold/list/ACT/2914/Amaroo/,22/1 Emerald Way ,-35.1645282,149.1324883,townhouse,2,2,2,"$425,000",4 Nov 2020,https://www.auhouseprices.com/sold/view/ACT/341163250/22-1+Emerald+Way%2C+Amaroo+ACT/
24,2914,Amaroo,77,https://www.auhouseprices.com/sold/list/ACT/2914/Amaroo/,72 Shoalhaven Avenue ,-35.1678192,149.1273552,house,4,2,2,"$820,000",20 Oct 2020,https://www.auhouseprices.com/sold/view/ACT/341607950/72+Shoalhaven+Avenue%2C+Amaroo+ACT/
25,2914,Amaroo,77,https://www.auhouseprices.com/sold/list/ACT/2914/Amaroo/,10 Crossman Street ,-35.1648912,149.1333760,townhouse,3,2,1,"$600,000",16 Oct 2020,https://www.auhouseprices.com/sold/view/ACT/341720950/10+Crossman+Street%2C+Amaroo+ACT/
26,2914,Amaroo,77,https://www.auhouseprices.com/sold/list/ACT/2914/Amaroo/,24 Timboram Street ,-35.1714688,149.1289764,house,5,2,2,"$880,000",15 Oct 2020,https://www.auhouseprices.com/sold/view/ACT/341929850/24+Timboram+Street%2C+Amaroo+ACT/
27,2914,Amaroo,77,https://www.auhouseprices.com/sold/list/ACT/2914/Amaroo/,1 Lander Crescent ,-35.1740762,149.1232143,house,4,2,2,"$745,000",13 Oct 2020,https://www.auhouseprices.com/sold/view/ACT/341349850/1+Lander+Crescent%2C+Amaroo+ACT/
28,2914,Amaroo,77,https://www.auhouseprices.com/sold/list/ACT/2914/Amaroo/,58 Magenta Square ,-35.1730521,149.1214639,house,3,2,1,"$571,000",8 Oct 2020,https://www.auhouseprices.com/sold/view/ACT/341187750/58+Magenta+Square%2C+Amaroo+ACT/
29,2914,Amaroo,77,https://www.auhouseprices.com/sold/list/ACT/2914/Amaroo/,14 Wanderer Court ,-35.1687745,149.1191460,house,4,2,3,"$880,000",6 Oct 2020,https://www.auhouseprices.com/sold/view/ACT/341851750/14+Wanderer+Court%2C+Amaroo+ACT/
30,2914,Amaroo,77,https://www.auhouseprices.com/sold/list/ACT/2914/Amaroo/,6 Burdekin Avenue ,-35.1721536,149.1228349,house,4,2,2,"$885,000",28 Sep 2020,https://www.auhouseprices.com/sold/view/ACT/341792650/6+Burdekin+Avenue%2C+Amaroo+ACT/
31,2914,Amaroo,77,https://www.auhouseprices.com/sold/list/ACT/2914/Amaroo/,12 Genoa Street ,-35.1695354,149.1276744,house,4,2,2,"$801,000",24 Sep 2020,https://www.auhouseprices.com/sold/view/ACT/341464550/12+Genoa+Street%2C+Amaroo+ACT/
32,2914,Amaroo,77,https://www.auhouseprices.com/sold/list/ACT/2914/Amaroo/,5 Dulverton Street ,-35.1687336,149.1302115,house,4,2,2,"$765,000",21 Sep 2020,https://www.auhouseprices.com/sold/view/ACT/341198550/5+Dulverton+Street%2C+Amaroo+ACT/
33,2914,Amaroo,77,https://www.auhouseprices.com/sold/list/ACT/2914/Amaroo/,5 Dulverton Street ,-35.1687336,149.1302115,house,4,2,2,"$765,000",19 Sep 2020,https://www.auhouseprices.com/sold/view/ACT/341133550/5+Dulverton+Street%2C+Amaroo+ACT/
34,2914,Amaroo,77,https://www.auhouseprices.com/sold/list/ACT/2914/Amaroo/,10 Auburn Street ,-35.1686236,149.1272334,house,3,2,2,"$655,751",17 Sep 2020,https://www.auhouseprices.com/sold/view/ACT/341204440/10+Auburn+Street%2C+Amaroo+ACT/
35,2914,Amaroo,77,https://www.auhouseprices.com/sold/list/ACT/2914/Amaroo/,10 Evella Court ,-35.1680064,149.1202789,house,4,2,2,"$895,000",10 Sep 2020,https://www.auhouseprices.com/sold/view/ACT/341373340/10+Evella+Court%2C+Amaroo+ACT/
36,2914,Amaroo,77,https://www.auhouseprices.com/sold/list/ACT/2914/Amaroo/,12 Mornington Street ,-35.1657117,149.1313226,townhouse,4,2,2,"$655,000",4 Sep 2020,https://www.auhouseprices.com/sold/view/ACT/341074240/12+Mornington+Street%2C+Amaroo+ACT/
37,2914,Amaroo,77,https://www.auhouseprices.com/sold/list/ACT/2914/Amaroo/,13 Annan Close ,-35.1701352,149.1268886,house,3,1,2,"$591,000",ep 2020,https://www.auhouseprices.com/sold/view/ACT/341232240/13+Annan+Close%2C+Amaroo+ACT/
38,2914,Amaroo,77,https://www.auhouseprices.com/sold/list/ACT/2914/Amaroo/,18 Buckingham Street ,-35.1686117,149.1381459,house,4,2,2,"$701,500",26 Aug 2020,https://www.auhouseprices.com/sold/view/ACT/341660040/18+Buckingham+Street%2C+Amaroo+ACT/
39,2914,Amaroo,77,https://www.auhouseprices.com/sold/list/ACT/2914/Amaroo/,7/23 Carstairs Circuit ,-35.1691062,149.1378242,townhouse,3,2,2,"$565,000",20 Aug 2020,https://www.auhouseprices.com/sold/view/ACT/341902040/7-23+Carstairs+Circuit%2C+Amaroo+ACT/
40,2914,Amaroo,77,https://www.auhouseprices.com/sold/list/ACT/2914/Amaroo/,20 Auburn Street ,-35.1693027,149.1270645,house,3,2,2,"$635,000",15 Aug 2020,https://www.auhouseprices.com/sold/view/ACT/341734940/20+Auburn+Street%2C+Amaroo+ACT/
41,2914,Amaroo,77,https://www.auhouseprices.com/sold/list/ACT/2914/Amaroo/,19 Olary Street ,-35.1690750,149.1344000,house,4,2,2,"$762,000",15 Aug 2020,https://www.auhouseprices.com/sold/view/ACT/341353940/19+Olary+Street%2C+Amaroo+ACT/
42,2914,Amaroo,77,https://www.auhouseprices.com/sold/list/ACT/2914/Amaroo/,6 Reeve Close ,-35.1675896,149.1229688,house,4,2,2,"$900,000",15 Aug 2020,https://www.auhouseprices.com/sold/view/ACT/341523940/6+Reeve+Close%2C+Amaroo+ACT/
43,2914,Amaroo,77,https://www.auhouseprices.com/sold/list/ACT/2914/Amaroo/,1 Augusta Place ,-35.1685231,149.1257707,house,4,2,2,"$700,000",10 Aug 2020,https://www.auhouseprices.com/sold/view/ACT/341936840/1+Augusta+Place%2C+Amaroo+ACT/
44,2914,Amaroo,77,https://www.auhouseprices.com/sold/list/ACT/2914/Amaroo/,39 Bizant Street ,-35.1723998,149.1344683,house,5,2,5,"$859,000",5 Aug 2020,https://www.auhouseprices.com/sold/view/ACT/341320840/39+Bizant+Street%2C+Amaroo+ACT/
45,2914,Amaroo,77,https://www.auhouseprices.com/sold/list/ACT/2914/Amaroo/,29 Tarrabool Street ,-35.1725540,149.1338000,house,4,2,2,"$990,000",1 Aug 2020,https://www.auhouseprices.com/sold/view/ACT/341215740/29+Tarrabool+Street%2C+Amaroo+ACT/
46,2914,Amaroo,77,https://www.auhouseprices.com/sold/list/ACT/2914/Amaroo/,42 Magenta Square ,-35.1733719,149.1207037,house,3,2,1,"$600,000",29 Jul 2020,https://www.auhouseprices.com/sold/view/ACT/341100740/42+Magenta+Square%2C+Amaroo+ACT/
47,2914,Amaroo,77,https://www.auhouseprices.com/sold/list/ACT/2914/Amaroo/,10 Clarendon Street ,-35.1710376,149.1345205,house,4,2,2,"$785,000",22 Jul 2020,https://www.auhouseprices.com/sold/view/ACT/341619540/10+Clarendon+Street%2C+Amaroo+ACT/
48,2914,Amaroo,77,https://www.auhouseprices.com/sold/list/ACT/2914/Amaroo/,4 Alice Street ,-35.1672557,149.1322260,house,4,2,2,"$785,000",21 Jul 2020,https://www.auhouseprices.com/sold/view/ACT/341545540/4+Alice+Street%2C+Amaroo+ACT/
49,2914,Amaroo,77,https://www.auhouseprices.com/sold/list/ACT/2914/Amaroo/,4/2 Lander Crescent ,-35.1734802,149.1228702,townhouse,3,1,1,"$435,000",20 Jul 2020,https://www.auhouseprices.com/sold/view/ACT/341504540/4-2+Lander+Crescent%2C+Amaroo+ACT/
50,2914,Amaroo,77,https://www.auhouseprices.com/sold/list/ACT/2914/Amaroo/,5 Wenlock Street ,-35.1673606,149.1303624,house,4,2,2,"$735,000",3 Jul 2020,https://www.auhouseprices.com/sold/view/ACT/341284429/5+Wenlock+Street%2C+Amaroo+ACT/
51,2914,Amaroo,77,https://www.auhouseprices.com/sold/list/ACT/2914/Amaroo/,26 Tuross Close ,-35.1717720,149.1240800,house,5,3,4,"$870,000",20 Jun 2020,https://www.auhouseprices.com/sold/view/ACT/341990229/26+Tuross+Close%2C+Amaroo+ACT/
52,2914,Amaroo,77,https://www.auhouseprices.com/sold/list/ACT/2914/Amaroo/,18 Clarendon Street ,-35.1716107,149.1347441,house,4,2,2,"$760,000",2 Jun 2020,https://www.auhouseprices.com/sold/view/ACT/341749029/18+Clarendon+Street%2C+Amaroo+ACT/
53,2914,Amaroo,77,https://www.auhouseprices.com/sold/list/ACT/2914/Amaroo/,9/815 Horse Park Drive ,-35.1647814,149.1314191,unit,2,2,2,"$441,000",27 May 2020,https://www.auhouseprices.com/sold/view/ACT/341886029/9-815+Horse+Park+Drive%2C+Amaroo+ACT/
54,2914,Amaroo,77,https://www.auhouseprices.com/sold/list/ACT/2914/Amaroo/,7/2 Yule Street ,-35.1662812,149.1271293,townhouse,3,2,3,"$550,000",21 May 2020,https://www.auhouseprices.com/sold/view/ACT/341996929/7-2+Yule+Street%2C+Amaroo+ACT/
55,2914,Amaroo,77,https://www.auhouseprices.com/sold/list/ACT/2914/Amaroo/,9 Augusta Place ,-35.1689706,149.1254420,house,4,2,2,"$685,000",11 May 2020,https://www.auhouseprices.com/sold/view/ACT/341582829/9+Augusta+Place%2C+Amaroo+ACT/
56,2914,Amaroo,77,https://www.auhouseprices.com/sold/list/ACT/2914/Amaroo/,10 Ashbrook Street ,-35.1725430,149.1325200,house,5,3,3,"$1,150,000",2 May 2020,https://www.auhouseprices.com/sold/view/ACT/341333729/10+Ashbrook++Street%2C+Amaroo+ACT/
57,2914,Amaroo,77,https://www.auhouseprices.com/sold/list/ACT/2914/Amaroo/,10 Annan Close ,-35.1705089,149.1271728,house,3,2,1,"$609,000",22 Apr 2020,https://www.auhouseprices.com/sold/view/ACT/341113629/10+Annan+Close%2C+Amaroo+ACT/
58,2914,Amaroo,77,https://www.auhouseprices.com/sold/list/ACT/2914/Amaroo/,14 Meerup Street ,-35.1722413,149.1342556,house,4,2,2,"$810,000",9 Apr 2020,https://www.auhouseprices.com/sold/view/ACT/341067519/14+Meerup+Street%2C+Amaroo+ACT/
59,2914,Amaroo,77,https://www.auhouseprices.com/sold/list/ACT/2914/Amaroo/,3/30 Magenta Square ,-35.1724435,149.1204230,townhouse,3,2,2,"$600,000",7 Apr 2020,https://www.auhouseprices.com/sold/view/ACT/341611519/3-30+Magenta+Square%2C+Amaroo+ACT/
60,2914,Amaroo,77,https://www.auhouseprices.com/sold/list/ACT/2914/Amaroo/,4 Newstead Street ,-35.1677827,149.1360822,house,4,2,2,"$730,000",3 Apr 2020,https://www.auhouseprices.com/sold/view/ACT/341386519/4+Newstead+Street%2C+Amaroo+ACT/
61,2914,Amaroo,77,https://www.auhouseprices.com/sold/list/ACT/2914/Amaroo/,2 Redwater Place ,-35.1668926,149.1349104,house,5,3,2,"$800,000",27 Mar 2020,https://www.auhouseprices.com/sold/view/ACT/341921419/2+Redwater+Place%2C+Amaroo+ACT/
62,2914,Amaroo,77,https://www.auhouseprices.com/sold/list/ACT/2914/Amaroo/,9/82 Buckingham Street ,-35.1652043,149.1344107,townhouse,4,2,2,"$615,000",27 Mar 2020,https://www.auhouseprices.com/sold/view/ACT/341840319/9-82+Buckingham+Street%2C+Amaroo+ACT/
63,2914,Amaroo,77,https://www.auhouseprices.com/sold/list/ACT/2914/Amaroo/,38 Magenta Square ,-35.1731513,149.1204345,house,4,2,3,"$640,000",27 Mar 2020,https://www.auhouseprices.com/sold/view/ACT/341907319/38+Magenta+Square%2C+Amaroo+ACT/
64,2914,Amaroo,77,https://www.auhouseprices.com/sold/list/ACT/2914/Amaroo/,10 McHenry Street ,-35.1702815,149.1334358,house,4,2,4,"$906,500",26 Mar 2020,https://www.auhouseprices.com/sold/view/ACT/341095319/10+McHenry+Street%2C+Amaroo+ACT/
65,2914,Amaroo,77,https://www.auhouseprices.com/sold/list/ACT/2914/Amaroo/,42/815 Horse Park Drive ,-35.1647814,149.1314191,townhouse,1,1,2,"$345,000",25 Mar 2020,https://www.auhouseprices.com/sold/view/ACT/341315319/42-815+Horse+Park+Drive%2C+Amaroo+ACT/
66,2914,Amaroo,77,https://www.auhouseprices.com/sold/list/ACT/2914/Amaroo/,15 McHenry Street ,-35.1703711,149.1329551,house,4,2,3,"$753,000",21 Mar 2020,https://www.auhouseprices.com/sold/view/ACT/341529219/15+McHenry+Street%2C+Amaroo+ACT/
67,2914,Amaroo,77,https://www.auhouseprices.com/sold/list/ACT/2914/Amaroo/,3 Newstead Street ,-35.1675588,149.1359995,house,3,2,2,"$687,000",7 Mar 2020,https://www.auhouseprices.com/sold/view/ACT/341660019/3+Newstead+Street%2C+Amaroo+ACT/
68,2914,Amaroo,77,https://www.auhouseprices.com/sold/list/ACT/2914/Amaroo/,45 Diamond Street ,-35.1732716,149.1300116,house,5,3,2,"$860,000",28 Feb 2020,https://www.auhouseprices.com/sold/view/ACT/341895919/45+Diamond+Street%2C+Amaroo+ACT/
69,2914,Amaroo,77,https://www.auhouseprices.com/sold/list/ACT/2914/Amaroo/,12 Bemm Place ,-35.1682239,149.1248407,house,3,2,2,"$645,000",22 Feb 2020,https://www.auhouseprices.com/sold/view/ACT/341368819/12+Bemm+Place%2C+Amaroo+ACT/
70,2914,Amaroo,77,https://www.auhouseprices.com/sold/list/ACT/2914/Amaroo/,8/12 Redwater Place ,-35.1667824,149.1338714,townhouse,4,2,2,"$633,000",18 Feb 2020,https://www.auhouseprices.com/sold/view/ACT/341783819/8-12+Redwater+Place%2C+Amaroo+ACT/
71,2914,Amaroo,77,https://www.auhouseprices.com/sold/list/ACT/2914/Amaroo/,11 Moondarra Street ,-35.1709354,149.1311144,house,4,2,2,"$837,000",17 Feb 2020,https://www.auhouseprices.com/sold/view/ACT/341493819/11+Moondarra+Street%2C+Amaroo+ACT/
72,2914,Amaroo,77,https://www.auhouseprices.com/sold/list/ACT/2914/Amaroo/,10 Moondarra Street ,-35.1708512,149.1307718,house,4,2,2,"$802,600",12 Feb 2020,https://www.auhouseprices.com/sold/view/ACT/341431719/10+Moondarra+Street%2C+Amaroo+ACT/
73,2914,Amaroo,77,https://www.auhouseprices.com/sold/list/ACT/2914/Amaroo/,13 Willara Close ,-35.1716904,149.1256006,house,4,2,2,"$770,000",6 Feb 2020,https://www.auhouseprices.com/sold/view/ACT/341103619/13+Willara+Close%2C+Amaroo+ACT/
74,2914,Amaroo,77,https://www.auhouseprices.com/sold/list/ACT/2914/Amaroo/,11/1 Emerald Way ,-35.1642185,149.1316459,apartment,2,2,2,"$425,000",4 Feb 2020,https://www.auhouseprices.com/sold/view/ACT/341530619/11-1+Emerald+Way%2C+Amaroo+ACT/
75,2914,Amaroo,77,https://www.auhouseprices.com/sold/list/ACT/2914/Amaroo/,3/28 Rollston Street ,-35.1667956,149.1310771,townhouse,3,2,2,"$545,000",20 Jan 2020,https://www.auhouseprices.com/sold/view/ACT/341616409/3-28+Rollston+Street%2C+Amaroo+ACT/
76,2914,Amaroo,77,https://www.auhouseprices.com/sold/list/ACT/2914/Amaroo/,1 Olary Street ,-35.1684729,149.1327298,house,5,3,2,"$880,000",15 Jan 2020,https://www.auhouseprices.com/sold/view/ACT/341691409/1+Olary+Street%2C+Amaroo+ACT/
77,2914,Amaroo,77,https://www.auhouseprices.com/sold/list/ACT/2914/Amaroo/,125 Katherine Avenue ,-35.1659009,149.1277553,house,3,2,2,"$670,000",23 Dec 2019,https://www.auhouseprices.com/sold/view/ACT/341154009/125+Katherine+Avenue%2C+Amaroo+ACT/
78,2914,Amaroo,77,https://www.auhouseprices.com/sold/list/ACT/2914/Amaroo/,3 Geehi Place ,-35.1681900,149.1241000,house,4,2,2,"$855,000",7 Dec 2019,https://www.auhouseprices.com/sold/view/ACT/341960809/3+Geehi+Place%2C+Amaroo+ACT/
79,2914,Amaroo,77,https://www.auhouseprices.com/sold/list/ACT/2914/Amaroo/,27 Dulverton Street ,-35.1679580,149.1286370,house,4,2,2,"$660,000",6 Dec 2019,https://www.auhouseprices.com/sold/view/ACT/341890909/27+Dulverton+Street%2C+Amaroo+ACT/
80,2914,Amaroo,77,https://www.auhouseprices.com/sold/list/ACT/2914/Amaroo/,62 Shoalhaven Avenue ,-35.1688139,149.1266675,house,4,2,3,"$770,000",29 Nov 2019,https://www.auhouseprices.com/sold/view/ACT/341879709/62+Shoalhaven+Avenue%2C+Amaroo+ACT/
81,2914,Amaroo,77,https://www.auhouseprices.com/sold/list/ACT/2914/Amaroo/,11 Meerup Street ,-35.1714323,149.1341246,house,4,2,2,"$730,000",21 Nov 2019,https://www.auhouseprices.com/sold/view/ACT/341161909/11+Meerup+Street%2C+Amaroo+ACT/
82,2914,Amaroo,77,https://www.auhouseprices.com/sold/list/ACT/2914/Amaroo/,14 Olary Street ,-35.1691384,149.1338451,house,3,2,2,"$645,000",15 Nov 2019,https://www.auhouseprices.com/sold/view/ACT/341896499/14+Olary+Street%2C+Amaroo+ACT/
83,2914,Amaroo,77,https://www.auhouseprices.com/sold/list/ACT/2914/Amaroo/,48/815 Horsepark Drive ,-35.1647814,149.1314191,unit,1,1,2,"$345,000",15 Nov 2019,https://www.auhouseprices.com/sold/view/ACT/341814499/48-815+Horsepark+Drive%2C+Amaroo+ACT/
84,2914,Amaroo,77,https://www.auhouseprices.com/sold/list/ACT/2914/Amaroo/,14 Mission Street ,-35.1682980,149.1339549,house,4,2,2,"$771,000",11 Nov 2019,https://www.auhouseprices.com/sold/view/ACT/341494609/14+Mission+Street%2C+Amaroo+ACT/
85,2914,Amaroo,77,https://www.auhouseprices.com/sold/list/ACT/2914/Amaroo/,4/3 Barrington Crescent ,-35.1753910,149.1261920,townhouse,3,2,2,"$526,000",9 Nov 2019,https://www.auhouseprices.com/sold/view/ACT/341545809/4-3+Barrington+Crescent%2C+Amaroo+ACT/
86,2914,Amaroo,77,https://www.auhouseprices.com/sold/list/ACT/2914/Amaroo/,17/815 Horse Park Drive ,-35.1645990,149.1320240,unit,2,2,2,"$450,000",5 Nov 2019,https://www.auhouseprices.com/sold/view/ACT/341866299/17-815+Horse+Park+Drive%2C+Amaroo+ACT/
87,2914,Amaroo,77,https://www.auhouseprices.com/sold/list/ACT/2914/Amaroo/,17 Sanamere Street ,-35.1679100,149.1374700,house,3,2,2,"$642,000",2 Nov 2019,https://www.auhouseprices.com/sold/view/ACT/341171299/17+Sanamere+Street%2C+Amaroo+ACT/
88,2914,Amaroo,77,https://www.auhouseprices.com/sold/list/ACT/2914/Amaroo/,13 Benaroon Circuit ,-35.1712243,149.1362052,house,3,2,2,"$602,500",22 Oct 2019,https://www.auhouseprices.com/sold/view/ACT/341277199/13+Benaroon+Circuit%2C+Amaroo+ACT/
89,2914,Amaroo,77,https://www.auhouseprices.com/sold/list/ACT/2914/Amaroo/,8 Leven Street ,-35.1679700,149.1260200,house,3,2,2,"$647,000",19 Oct 2019,https://www.auhouseprices.com/sold/view/ACT/341613099/8+Leven+Street%2C+Amaroo+ACT/
90,2914,Amaroo,77,https://www.auhouseprices.com/sold/list/ACT/2914/Amaroo/,2/15 Barrington Crescent ,-35.1758793,149.1267885,townhouse,3,2,2,"$550,000",17 Oct 2019,https://www.auhouseprices.com/sold/view/ACT/341179999/2-15+Barrington+Crescent%2C+Amaroo+ACT/
91,2914,Amaroo,77,https://www.auhouseprices.com/sold/list/ACT/2914/Amaroo/,2/3 Sophia Street ,-35.1660253,149.1296397,townhouse,3,2,3,"$510,000",16 Oct 2019,https://www.auhouseprices.com/sold/view/ACT/341978399/2-3+Sophia+Street%2C+Amaroo+ACT/
92,2914,Amaroo,77,https://www.auhouseprices.com/sold/list/ACT/2914/Amaroo/,3 Barrington Crescent ,-35.1755157,149.1261875,house,3,2,1,"$526,000",10 Oct 2019,https://www.auhouseprices.com/sold/view/ACT/341125919/3+Barrington+Crescent%2C+Amaroo+ACT/
93,2914,Amaroo,77,https://www.auhouseprices.com/sold/list/ACT/2914/Amaroo/,13/2 Lander Crescent ,-35.1736820,149.1225490,townhouse,3,1,1,"$420,000",4 Oct 2019,https://www.auhouseprices.com/sold/view/ACT/341635899/13-2+Lander+Crescent%2C+Amaroo+ACT/
94,2914,Amaroo,77,https://www.auhouseprices.com/sold/list/ACT/2914/Amaroo/,13 Gara Place ,-35.1758850,149.1237310,house,3,2,2,"$615,250",26 Sep 2019,https://www.auhouseprices.com/sold/view/ACT/341614799/13+Gara+Place%2C+Amaroo+ACT/
95,2914,Amaroo,77,https://www.auhouseprices.com/sold/list/ACT/2914/Amaroo/,20 Phelp Court ,-35.1725484,149.1255132,house,3,1,1,"$495,000",19 Sep 2019,https://www.auhouseprices.com/sold/view/ACT/341874699/20+Phelp+Court%2C+Amaroo+ACT/
96,2914,Amaroo,77,https://www.auhouseprices.com/sold/list/ACT/2914/Amaroo/,7 Saxby Close ,-35.1713455,149.1272714,house,3,1,1,"$520,000",18 Sep 2019,https://www.auhouseprices.com/sold/view/ACT/341663699/7+Saxby+Close%2C+Amaroo+ACT/
97,2914,Amaroo,77,https://www.auhouseprices.com/sold/list/ACT/2914/Amaroo/,23 Conjola Close ,-35.1715333,149.1242790,house,5,2,2,"$840,000",16 Sep 2019,https://www.auhouseprices.com/sold/view/ACT/341268599/23+Conjola+Close%2C+Amaroo+ACT/
98,2914,Amaroo,77,https://www.auhouseprices.com/sold/list/ACT/2914/Amaroo/,8 Mission Street ,-35.1681370,149.1334200,house,4,2,2,"$893,000",14 Sep 2019,https://www.auhouseprices.com/sold/view/ACT/341045599/8+Mission+Street%2C+Amaroo+ACT/
99,2914,Amaroo,77,https://www.auhouseprices.com/sold/list/ACT/2914/Amaroo/,7 Meerup Street ,-35.1711400,149.1339900,house,4,2,2,"$731,000",24 Aug 2019,https://www.auhouseprices.com/sold/view/ACT/341628289/7+Meerup+Street%2C+Amaroo+ACT/
100,2914,Amaroo,77,https://www.auhouseprices.com/sold/list/ACT/2914/Amaroo/,6 Bemm Place ,-35.1677908,149.1248623,house,4,2,2,"$688,000",17 Aug 2019,https://www.auhouseprices.com/sold/view/ACT/341660189/6+Bemm+Place%2C+Amaroo+ACT/
101,2914,Amaroo,77,https://www.auhouseprices.com/sold/list/ACT/2914/Amaroo/,36 Tarrabool Street ,-35.1728600,149.1335050,house,5,2,2,"$872,500",12 Aug 2019,https://www.auhouseprices.com/sold/view/ACT/341624189/36+Tarrabool+Street%2C+Amaroo+ACT/
102,2914,Amaroo,77,https://www.auhouseprices.com/sold/list/ACT/2914/Amaroo/,17 Mission Street ,-35.1681661,149.1342808,house,5,2,2,"$740,000",6 Aug 2019,https://www.auhouseprices.com/sold/view/ACT/341747089/17+Mission+Street%2C+Amaroo+ACT/
103,2914,Amaroo,77,https://www.auhouseprices.com/sold/list/ACT/2914/Amaroo/,57 Buckingham Street ,-35.1655510,149.1351610,house,4,2,2,"$670,000",30 Jul 2019,https://www.auhouseprices.com/sold/view/ACT/341536089/57+Buckingham+Street%2C+Amaroo+ACT/
104,2914,Amaroo,77,https://www.auhouseprices.com/sold/list/ACT/2914/Amaroo/,17 Proserpine Circuit ,-35.1676330,149.1306320,house,4,2,2,"$700,000",23 Jul 2019,https://www.auhouseprices.com/sold/view/ACT/341440989/17+Proserpine+Circuit%2C+Amaroo+ACT/
105,2914,Amaroo,77,https://www.auhouseprices.com/sold/list/ACT/2914/Amaroo/,28 Heatherdale Street ,-35.1720010,149.1370020,house,4,2,2,"$795,000",7 Jun 2019,https://www.auhouseprices.com/sold/view/ACT/341818479/28+Heatherdale+Street%2C+Amaroo+ACT/
106,2914,Amaroo,77,https://www.auhouseprices.com/sold/list/ACT/2914/Amaroo/,2 Cooloola Street ,-35.1697650,149.1313690,house,4,2,2,"$735,000",3 Jun 2019,https://www.auhouseprices.com/sold/view/ACT/341196379/2+Cooloola+Street%2C+Amaroo+ACT/
107,2914,Amaroo,77,https://www.auhouseprices.com/sold/list/ACT/2914/Amaroo/,4 Inkerman Street ,-35.1672160,149.1358670,house,4,2,2,"$675,000",31 May 2019,https://www.auhouseprices.com/sold/view/ACT/341143379/4+Inkerman+Street%2C+Amaroo+ACT/
108,2914,Amaroo,77,https://www.auhouseprices.com/sold/list/ACT/2914/Amaroo/,12 Buckingham Street ,-35.1688420,149.1378200,house,3,2,2,"$591,000",25 May 2019,https://www.auhouseprices.com/sold/view/ACT/341465279/12+Buckingham+Street%2C+Amaroo+ACT/
109,2914,Amaroo,77,https://www.auhouseprices.com/sold/list/ACT/2914/Amaroo/,12 Auburn Street ,-35.1687370,149.1271240,house,4,2,2,"$621,000",22 May 2019,https://www.auhouseprices.com/sold/view/ACT/341482279/12+Auburn+Street%2C+Amaroo+ACT/
110,2914,Amaroo,77,https://www.auhouseprices.com/sold/list/ACT/2914/Amaroo/,6 Clara Close ,-35.1740260,149.1224630,house,3,1,1,"$457,000",8 May 2019,https://www.auhouseprices.com/sold/view/ACT/341500079/6+Clara+Close%2C+Amaroo+ACT/
111,2914,Amaroo,77,https://www.auhouseprices.com/sold/list/ACT/2914/Amaroo/,77 Burdekin Avenue ,-35.1671380,149.1240350,house,5,2,2,"$800,000",8 May 2019,https://www.auhouseprices.com/sold/view/ACT/341236079/77+Burdekin+Avenue%2C+Amaroo+ACT/
112,2914,Amaroo,77,https://www.auhouseprices.com/sold/list/ACT/2914/Amaroo/,25a Bywaters Street ,-35.1695160,149.1225600,house,3,2,2,"$525,000",29 Apr 2019,https://www.auhouseprices.com/sold/view/ACT/341202979/25a+Bywaters+Street%2C+Amaroo+ACT/
113,2914,Amaroo,77,https://www.auhouseprices.com/sold/list/ACT/2914/Amaroo/,6 Yantara St ,-35.1677520,149.1303690,house,4,2,2,"$655,000",29 Apr 2019,https://www.auhouseprices.com/sold/view/ACT/341572079/6+Yantara+St%2C+Amaroo+ACT/
114,2914,Amaroo,77,https://www.auhouseprices.com/sold/list/ACT/2914/Amaroo/,7/3 Barrington Crescent ,-35.1753910,149.1261920,townhouse,3,3,2,"$512,000",27 Mar 2019,https://www.auhouseprices.com/sold/view/ACT/341157579/7-3+Barrington+Crescent%2C+Amaroo+ACT/
115,2914,Amaroo,77,https://www.auhouseprices.com/sold/list/ACT/2914/Amaroo/,17 Lander Crescent ,-35.1746190,149.1245040,house,4,2,2,"$865,000",27 Mar 2019,https://www.auhouseprices.com/sold/view/ACT/341207579/17+Lander+Crescent%2C+Amaroo+ACT/
116,2914,Amaroo,77,https://www.auhouseprices.com/sold/list/ACT/2914/Amaroo/,6 Ashbrook Street ,-35.1722030,149.1321700,house,4,2,3,"$865,000",23 Mar 2019,https://www.auhouseprices.com/sold/view/ACT/341282579/6+Ashbrook+Street%2C+Amaroo+ACT/
117,2914,Amaroo,77,https://www.auhouseprices.com/sold/list/ACT/2914/Amaroo/,2/27 Roderick Street ,-35.1742690,149.1261260,townhouse,3,1,1,"$410,000",25 Feb 2019,https://www.auhouseprices.com/sold/view/ACT/341180169/2-27+Roderick+Street%2C+Amaroo+ACT/
118,2914,Amaroo,77,https://www.auhouseprices.com/sold/list/ACT/2914/Amaroo/,5 Arte Street ,-35.1717800,149.1308300,house,4,2,2,"$855,000",23 Feb 2019,https://www.auhouseprices.com/sold/view/ACT/341137969/5+Arte+Street%2C+Amaroo+ACT/
119,2914,Amaroo,77,https://www.auhouseprices.com/sold/list/ACT/2914/Amaroo/,1 Cooloola Street ,-35.1697540,149.1318000,house,4,2,3,"$855,000",16 Feb 2019,https://www.auhouseprices.com/sold/view/ACT/341012669/1+Cooloola+Street%2C+Amaroo+ACT/
120,2914,Amaroo,77,https://www.auhouseprices.com/sold/list/ACT/2914/Amaroo/,18 Heatherdale Street ,-35.1713430,149.1367410,house,3,2,2,"$685,000",12 Feb 2019,https://www.auhouseprices.com/sold/view/ACT/341106569/18+Heatherdale+Street%2C+Amaroo+ACT/
121,2914,Amaroo,77,https://www.auhouseprices.com/sold/list/ACT/2914/Amaroo/,10 Buckingham Street ,-35.1688770,149.1376550,house,3,2,2,"$585,000",12 Feb 2019,https://www.auhouseprices.com/sold/view/ACT/341209569/10+Buckingham+Street%2C+Amaroo+ACT/
122,2914,Amaroo,77,https://www.auhouseprices.com/sold/list/ACT/2914/Amaroo/,15 Narran Street ,-35.1667150,149.1262340,house,6,2,4,"$815,000",4 Feb 2019,https://www.auhouseprices.com/sold/view/ACT/341115669/15+Narran+Street%2C+Amaroo+ACT/
123,2914,Amaroo,77,https://www.auhouseprices.com/sold/list/ACT/2914/Amaroo/,33 Corringle Close ,-35.1729560,149.1260490,house,3,1,2,"$510,000",30 Jan 2019,https://www.auhouseprices.com/sold/view/ACT/341712459/33+Corringle+Close%2C+Amaroo+ACT/
124,2914,Amaroo,77,https://www.auhouseprices.com/sold/list/ACT/2914/Amaroo/,21 Corringle Close ,-35.1729190,149.1251190,house,3,2,2,"$550,000",29 Jan 2019,https://www.auhouseprices.com/sold/view/ACT/341252459/21+Corringle+Close%2C+Amaroo+ACT/
125,2914,Amaroo,77,https://www.auhouseprices.com/sold/list/ACT/2914/Amaroo/,1/12 Redwater Place ,-35.1665260,149.1335630,house,4,2,2,"$590,000",24 Jan 2019,https://www.auhouseprices.com/sold/view/ACT/341569359/1-12+Redwater+Place%2C+Amaroo+ACT/
126,2914,Amaroo,77,https://www.auhouseprices.com/sold/list/ACT/2914/Amaroo/,39 Benaroon Circuit ,-35.1718350,149.1376790,house,5,2,2,"$900,000",14 Jan 2019,https://www.auhouseprices.com/sold/view/ACT/341809259/39+Benaroon+Circuit%2C+Amaroo+ACT/
127,2914,Amaroo,77,https://www.auhouseprices.com/sold/list/ACT/2914/Amaroo/,34 Benaroon Circuit ,-35.1726250,149.1373340,house,5,3,2,"$1,025,000",14 Jan 2019,https://www.auhouseprices.com/sold/view/ACT/341074769/34+Benaroon+Circuit%2C+Amaroo+ACT/
128,2914,Amaroo,77,https://www.auhouseprices.com/sold/list/ACT/2914/Amaroo/,15 Proserpine Circuit ,-35.1677520,149.1304190,house,4,2,2,"$640,000",24 Dec 2018,https://www.auhouseprices.com/sold/view/ACT/341951259/15+Proserpine+Circuit%2C+Amaroo+ACT/
129,2914,Amaroo,77,https://www.auhouseprices.com/sold/list/ACT/2914/Amaroo/,2 Dulverton Street ,-35.1684650,149.1304880,house,4,2,2,"$660,000",12 Dec 2018,https://www.auhouseprices.com/sold/view/ACT/341456059/2+Dulverton+Street%2C+Amaroo+ACT/
130,2914,Amaroo,77,https://www.auhouseprices.com/sold/list/ACT/2914/Amaroo/,43/815 Horsepark Dr ,-35.1645990,149.1320240,unit,1,1,2,"$340,000",28 Nov 2018,https://www.auhouseprices.com/sold/view/ACT/341574859/43-815+Horsepark+Dr%2C+Amaroo+ACT/
131,2914,Amaroo,77,https://www.auhouseprices.com/sold/list/ACT/2914/Amaroo/,72 Wanderer Court ,-35.1685120,149.1178940,house,3,2,1,"$509,000",21 Nov 2018,https://www.auhouseprices.com/sold/view/ACT/341076759/72+Wanderer+Court%2C+Amaroo+ACT/
132,2914,Amaroo,77,https://www.auhouseprices.com/sold/list/ACT/2914/Amaroo/,26 Auburn Street ,-35.1697730,149.1268600,house,3,2,2,"$660,000",17 Nov 2018,https://www.auhouseprices.com/sold/view/ACT/341158659/26+Auburn+Street%2C+Amaroo+ACT/
133,2914,Amaroo,77,https://www.auhouseprices.com/sold/list/ACT/2914/Amaroo/,2 Larpent Street ,-35.1722060,149.1312500,house,4,2,2,"$835,000",16 Nov 2018,https://www.auhouseprices.com/sold/view/ACT/341421759/2+Larpent+Street%2C+Amaroo+ACT/
134,2914,Amaroo,77,https://www.auhouseprices.com/sold/list/ACT/2914/Amaroo/,59 Burdekin Avenue ,-35.1682020,149.1221810,house,4,2,2,"$741,000",15 Nov 2018,https://www.auhouseprices.com/sold/view/ACT/341374659/59+Burdekin+Avenue%2C+Amaroo+ACT/
135,2914,Amaroo,77,https://www.auhouseprices.com/sold/list/ACT/2914/Amaroo/,5 Cane Place ,-35.1704600,149.1216480,house,4,2,2,"$717,000",13 Nov 2018,https://www.auhouseprices.com/sold/view/ACT/341072659/5+Cane+Place%2C+Amaroo+ACT/
136,2914,Amaroo,77,https://www.auhouseprices.com/sold/list/ACT/2914/Amaroo/,86 Katherine Ave ,-35.1690440,149.1299000,house,4,2,3,"$880,000",10 Nov 2018,https://www.auhouseprices.com/sold/view/ACT/341110659/86+Katherine+Ave%2C+Amaroo+ACT/
137,2914,Amaroo,77,https://www.auhouseprices.com/sold/list/ACT/2914/Amaroo/,39/815 Horse Park Drive ,-35.1645990,149.1320240,apartment,1,1,1,"$345,500",5 Nov 2018,https://www.auhouseprices.com/sold/view/ACT/341324559/39-815+Horse+Park+Drive%2C+Amaroo+ACT/
138,2914,Amaroo,77,https://www.auhouseprices.com/sold/list/ACT/2914/Amaroo/,23 Barrington Crescent ,-35.1763060,149.1271140,house,4,2,2,"$835,000",Nov 2018,https://www.auhouseprices.com/sold/view/ACT/341386659/23+Barrington+Crescent%2C+Amaroo+ACT/
139,2914,Amaroo,77,https://www.auhouseprices.com/sold/list/ACT/2914/Amaroo/,50/815 Horse Park Drive ,-35.1645990,149.1320240,townhouse,1,1,2,"$345,100",30 Oct 2018,https://www.auhouseprices.com/sold/view/ACT/341386449/50-815+Horse+Park+Drive%2C+Amaroo+ACT/
140,2914,Amaroo,77,https://www.auhouseprices.com/sold/list/ACT/2914/Amaroo/,5/23 Carstairs Circuit ,-35.1692550,149.1378830,townhouse,3,2,2,"$510,000",24 Oct 2018,https://www.auhouseprices.com/sold/view/ACT/341394059/5-23+Carstairs+Circuit%2C+Amaroo+ACT/
141,2914,Amaroo,77,https://www.auhouseprices.com/sold/list/ACT/2914/Amaroo/,18 Wellesley Street ,-35.1678910,149.1359130,house,4,2,2,"$766,000",26 Sep 2018,https://www.auhouseprices.com/sold/view/ACT/341717559/18+Wellesley+Street%2C+Amaroo+ACT/
142,2914,Amaroo,77,https://www.auhouseprices.com/sold/list/ACT/2914/Amaroo/,5/22 Lander Crescent ,-35.1750500,149.1230400,townhouse,3,2,2,"$501,000",14 Sep 2018,https://www.auhouseprices.com/sold/view/ACT/341724339/5-22+Lander+Crescent%2C+Amaroo+ACT/
143,2914,Amaroo,77,https://www.auhouseprices.com/sold/list/ACT/2914/Amaroo/,42 Corringle Close ,-35.1729220,149.1272700,house,3,1,2,"$555,000",4 Sep 2018,https://www.auhouseprices.com/sold/view/ACT/341761239/42+Corringle+Close%2C+Amaroo+ACT/
144,2914,Amaroo,77,https://www.auhouseprices.com/sold/list/ACT/2914/Amaroo/,41 Rollston Street ,-35.1665010,149.1316910,house,4,2,2,"$722,000",29 Aug 2018,https://www.auhouseprices.com/sold/view/ACT/341205139/41+Rollston+Street%2C+Amaroo+ACT/
145,2914,Amaroo,77,https://www.auhouseprices.com/sold/list/ACT/2914/Amaroo/,26 Olary Street ,-35.1695200,149.1348010,house,3,2,2,"$632,000",23 Aug 2018,https://www.auhouseprices.com/sold/view/ACT/341978039/26+Olary+Street%2C+Amaroo+ACT/
146,2914,Amaroo,77,https://www.auhouseprices.com/sold/list/ACT/2914/Amaroo/,4 Buckingham Street ,-35.1691310,149.1372820,house,3,2,2,"$592,000",23 Aug 2018,https://www.auhouseprices.com/sold/view/ACT/341709039/4+Buckingham+Street%2C+Amaroo+ACT/
147,2914,Amaroo,77,https://www.auhouseprices.com/sold/list/ACT/2914/Amaroo/,8 Evella Court ,-35.1681470,149.1200510,house,3,1,2,"$642,500",3 Aug 2018,https://www.auhouseprices.com/sold/view/ACT/341961939/8+Evella+Court%2C+Amaroo+ACT/
148,2914,Amaroo,77,https://www.auhouseprices.com/sold/list/ACT/2914/Amaroo/,17 Benaroon Circuit ,-35.1714610,149.1364240,house,4,2,2,"$710,000",Aug 2018,https://www.auhouseprices.com/sold/view/ACT/341446839/17+Benaroon+Circuit%2C+Amaroo+ACT/
149,2914,Amaroo,77,https://www.auhouseprices.com/sold/list/ACT/2914/Amaroo/,5 Clarendon Street ,-35.1707200,149.1347700,house,3,2,2,"$616,000",28 Jul 2018,https://www.auhouseprices.com/sold/view/ACT/341082839/5+Clarendon+Street%2C+Amaroo+ACT/
150,2914,Amaroo,77,https://www.auhouseprices.com/sold/list/ACT/2914/Amaroo/,26 Timboram Street ,-35.1716730,149.1290000,house,4,2,2,"$724,000",7 Jul 2018,https://www.auhouseprices.com/sold/view/ACT/341369539/26+Timboram+Street%2C+Amaroo+ACT/
151,2914,Amaroo,77,https://www.auhouseprices.com/sold/list/ACT/2914/Amaroo/,15 Roderick Street ,-35.1738680,149.1243770,house,4,2,2,"$725,000",21 Jun 2018,https://www.auhouseprices.com/sold/view/ACT/341234528/15+Roderick+Street%2C+Amaroo+ACT/
152,2914,Amaroo,77,https://www.auhouseprices.com/sold/list/ACT/2914/Amaroo/,10 Tarrabool Street ,-35.1704600,149.1324200,house,4,2,2,"$765,000",16 Jun 2018,https://www.auhouseprices.com/sold/view/ACT/341659428/10+Tarrabool+Street%2C+Amaroo+ACT/
153,2914,Amaroo,77,https://www.auhouseprices.com/sold/list/ACT/2914/Amaroo/,9 Willara Close ,-35.1714030,149.1258600,house,3,2,2,"$585,000",12 Jun 2018,https://www.auhouseprices.com/sold/view/ACT/341177439/9+Willara+Close%2C+Amaroo+ACT/
154,2914,Amaroo,77,https://www.auhouseprices.com/sold/list/ACT/2914/Amaroo/,50 Katherine Avenue ,-35.1696100,149.1342110,house,5,2,2,"$848,000",22 May 2018,https://www.auhouseprices.com/sold/view/ACT/341650839/50+Katherine+Avenue%2C+Amaroo+ACT/
155,2914,Amaroo,77,https://www.auhouseprices.com/sold/list/ACT/2914/Amaroo/,9 Marrett Street ,-35.1706450,149.1302840,house,4,2,3,"$815,000",19 May 2018,https://www.auhouseprices.com/sold/view/ACT/341153128/9+Marrett+Street%2C+Amaroo+ACT/
156,2914,Amaroo,77,https://www.auhouseprices.com/sold/list/ACT/2914/Amaroo/,8 Genoa Street ,-35.1692160,149.1277420,house,3,2,2,"$667,500",18 May 2018,https://www.auhouseprices.com/sold/view/ACT/341690128/8+Genoa+Street%2C+Amaroo+ACT/
157,2914,Amaroo,77,https://www.auhouseprices.com/sold/list/ACT/2914/Amaroo/,11/2 Lander Crescent ,-35.1736820,149.1225490,townhouse,3,1,1,"$457,000",4 May 2018,https://www.auhouseprices.com/sold/view/ACT/341072928/11-2+Lander+Crescent%2C+Amaroo+ACT/
158,2914,Amaroo,77,https://www.auhouseprices.com/sold/list/ACT/2914/Amaroo/,3 Star Close ,-35.1670300,149.1262220,house,3,2,5,"$620,000",2 May 2018,https://www.auhouseprices.com/sold/view/ACT/341350928/3+Star+Close%2C+Amaroo+ACT/
159,2914,Amaroo,77,https://www.auhouseprices.com/sold/list/ACT/2914/Amaroo/,40 Burdekin Avenue ,-35.1690130,149.1209020,house,4,2,2,"$780,000",20 Apr 2018,https://www.auhouseprices.com/sold/view/ACT/341617728/40+Burdekin+Avenue%2C+Amaroo+ACT/
160,2914,Amaroo,77,https://www.auhouseprices.com/sold/list/ACT/2914/Amaroo/,57 Bizant Street ,-35.1713900,149.1358870,house,4,2,2,"$720,500",16 Apr 2018,https://www.auhouseprices.com/sold/view/ACT/341069628/57+Bizant++Street%2C+Amaroo+ACT/
161,2914,Amaroo,77,https://www.auhouseprices.com/sold/list/ACT/2914/Amaroo/,30 Mornington Street ,-35.1657190,149.1318840,townhouse,4,2,2,"$610,000",16 Apr 2018,https://www.auhouseprices.com/sold/view/ACT/341560728/30+Mornington+Street%2C+Amaroo+ACT/
162,2914,Amaroo,77,https://www.auhouseprices.com/sold/list/ACT/2914/Amaroo/,10 Cooloola Street ,-35.1704860,149.1315300,house,4,2,2,"$708,000",24 Mar 2018,https://www.auhouseprices.com/sold/view/ACT/341141418/10+Cooloola+Street%2C+Amaroo+ACT/
163,2914,Amaroo,77,https://www.auhouseprices.com/sold/list/ACT/2914/Amaroo/,63 Rollston Street ,-35.1671830,149.1339190,house,3,1,2,"$555,000",10 Mar 2018,https://www.auhouseprices.com/sold/view/ACT/341322218/63++Rollston+Street%2C+Amaroo+ACT/
164,2914,Amaroo,77,https://www.auhouseprices.com/sold/list/ACT/2914/Amaroo/,29 Diamond Street ,-35.1719910,149.1287890,house,3,2,2,"$610,000",2 Mar 2018,https://www.auhouseprices.com/sold/view/ACT/341143118/29+Diamond+Street%2C+Amaroo+ACT/
165,2914,Amaroo,77,https://www.auhouseprices.com/sold/list/ACT/2914/Amaroo/,33 Rollston Street ,-35.1663830,149.1310050,house,4,2,2,"$675,000",28 Feb 2018,https://www.auhouseprices.com/sold/view/ACT/341187018/33+Rollston+Street%2C+Amaroo+ACT/
166,2914,Amaroo,77,https://www.auhouseprices.com/sold/list/ACT/2914/Amaroo/,1/3 Sophia Street ,-35.1659410,149.1297710,townhouse,3,2,2,"$560,000",9 Feb 2018,https://www.auhouseprices.com/sold/view/ACT/341372818/1-3+Sophia+Street%2C+Amaroo+ACT/
167,2914,Amaroo,77,https://www.auhouseprices.com/sold/list/ACT/2914/Amaroo/,6 Sanamere Street ,-35.1684800,149.1365640,house,3,2,2,"$570,000",9 Feb 2018,https://www.auhouseprices.com/sold/view/ACT/341093118/6+Sanamere+Street%2C+Amaroo+ACT/
168,2914,Amaroo,77,https://www.auhouseprices.com/sold/list/ACT/2914/Amaroo/,12 Sanamere Street ,-35.1683460,149.1370650,house,4,2,2,"$720,000",3 Feb 2018,https://www.auhouseprices.com/sold/view/ACT/341773718/12+Sanamere+Street%2C+Amaroo+ACT/
169,2914,Amaroo,77,https://www.auhouseprices.com/sold/list/ACT/2914/Amaroo/,8 Alice Street ,-35.1670200,149.1324350,house,3,2,2,"$622,000",3 Feb 2018,https://www.auhouseprices.com/sold/view/ACT/341483718/8+Alice+Street%2C+Amaroo+ACT/
170,2914,Amaroo,77,https://www.auhouseprices.com/sold/list/ACT/2914/Amaroo/,15 Mission Street ,-35.1680070,149.1341080,house,5,2,2,"$835,000",3 Feb 2018,https://www.auhouseprices.com/sold/view/ACT/341984718/15+Mission++Street%2C+Amaroo+ACT/
171,2914,Amaroo,77,https://www.auhouseprices.com/sold/list/ACT/2914/Amaroo/,10 Crossman Street ,-35.1648920,149.1334200,house,3,2,1,"$448,000",2 Feb 2018,https://www.auhouseprices.com/sold/view/ACT/341032718/10+Crossman+Street%2C+Amaroo+ACT/
172,2914,Amaroo,77,https://www.auhouseprices.com/sold/list/ACT/2914/Amaroo/,64 Mornington Street ,-35.1649330,149.1335510,house,3,2,1,"$555,000",29 Jan 2018,https://www.auhouseprices.com/sold/view/ACT/341718618/64+Mornington+Street%2C+Amaroo+ACT/
173,2914,Amaroo,77,https://www.auhouseprices.com/sold/list/ACT/2914/Amaroo/,10 Mornington Street ,-35.1656170,149.1313070,house,4,2,2,"$595,000",23 Jan 2018,https://www.auhouseprices.com/sold/view/ACT/341524618/10+Mornington+Street%2C+Amaroo+ACT/
174,2914,Amaroo,77,https://www.auhouseprices.com/sold/list/ACT/2914/Amaroo/,7 Bemm Place ,-35.1678130,149.1252410,house,4,2,2,"$650,000",19 Jan 2018,https://www.auhouseprices.com/sold/view/ACT/341831618/7+Bemm+Place%2C+Amaroo+ACT/
175,2914,Amaroo,77,https://www.auhouseprices.com/sold/list/ACT/2914/Amaroo/,13 Heatherdale Street ,-35.1709550,149.1371180,house,4,2,2,"$705,000",22 Dec 2017,https://www.auhouseprices.com/sold/view/ACT/341958408/13+Heatherdale+Street%2C+Amaroo+ACT/
176,2914,Amaroo,77,https://www.auhouseprices.com/sold/list/ACT/2914/Amaroo/,5 Reeve Close ,-35.1677880,149.1222870,house,4,2,2,"$810,000",6 Dec 2017,https://www.auhouseprices.com/sold/view/ACT/341075208/5+Reeve+Close%2C+Amaroo+ACT/
177,2914,Amaroo,77,https://www.auhouseprices.com/sold/list/ACT/2914/Amaroo/,39 Rollston Street ,-35.1663540,149.1315540,house,4,2,2,"$648,000",30 Nov 2017,https://www.auhouseprices.com/sold/view/ACT/341078108/39+Rollston+Street%2C+Amaroo+ACT/
178,2914,Amaroo,77,https://www.auhouseprices.com/sold/list/ACT/2914/Amaroo/,26 Heatherdale Street ,-35.1718630,149.1369480,house,4,2,2,"$753,000",17 Nov 2017,https://www.auhouseprices.com/sold/view/ACT/341507908/26+Heatherdale+Street%2C+Amaroo+ACT/
179,2914,Amaroo,77,https://www.auhouseprices.com/sold/list/ACT/2914/Amaroo/,22 Auburn Street ,-35.1694430,149.1269450,house,3,2,2,"$626,000",15 Nov 2017,https://www.auhouseprices.com/sold/view/ACT/341577908/22+Auburn+Street%2C+Amaroo+ACT/
180,2914,Amaroo,77,https://www.auhouseprices.com/sold/list/ACT/2914/Amaroo/,5 Phelp Court ,-35.1723050,149.1262180,house,3,2,2,"$600,000",14 Nov 2017,https://www.auhouseprices.com/sold/view/ACT/341582908/5+Phelp+Court%2C+Amaroo+ACT/
181,2914,Amaroo,77,https://www.auhouseprices.com/sold/list/ACT/2914/Amaroo/,9 Benaroon Circuit ,-35.1709200,149.1362090,house,4,2,2,"$720,000",7 Nov 2017,https://www.auhouseprices.com/sold/view/ACT/341622518/9+Benaroon+Circuit%2C+Amaroo+ACT/
182,2914,Amaroo,77,https://www.auhouseprices.com/sold/list/ACT/2914/Amaroo/,1 Styx Close ,-35.1739310,149.1277550,house,4,2,2,"$760,000",Nov 2017,https://www.auhouseprices.com/sold/view/ACT/341945708/1+Styx+Close%2C+Amaroo+ACT/
183,2914,Amaroo,77,https://www.auhouseprices.com/sold/list/ACT/2914/Amaroo/,24/1 Emerald Way ,-35.1647760,149.1327130,townhouse,2,2,2,"$393,000",27 Oct 2017,https://www.auhouseprices.com/sold/view/ACT/341919608/24-1+Emerald+Way%2C+Amaroo+ACT/
184,2914,Amaroo,77,https://www.auhouseprices.com/sold/list/ACT/2914/Amaroo/,44 Wellesley Street ,-35.1658120,149.1350650,house,4,2,2,"$680,000",23 Oct 2017,https://www.auhouseprices.com/sold/view/ACT/341559498/44+Wellesley+Street%2C+Amaroo+ACT/
185,2914,Amaroo,77,https://www.auhouseprices.com/sold/list/ACT/2914/Amaroo/,6 Star Close ,-35.1674970,149.1265410,house,4,2,2,"$655,000",12 Oct 2017,https://www.auhouseprices.com/sold/view/ACT/341579398/6+Star+Close%2C+Amaroo+ACT/
186,2914,Amaroo,77,https://www.auhouseprices.com/sold/list/ACT/2914/Amaroo/,20 Clarendon Street ,-35.1718120,149.1347400,house,4,2,2,"$765,000",10 Oct 2017,https://www.auhouseprices.com/sold/view/ACT/341886398/20+Clarendon+Street%2C+Amaroo+ACT/
187,2914,Amaroo,77,https://www.auhouseprices.com/sold/list/ACT/2914/Amaroo/,42 Burdekin Avenue ,-35.1688320,149.1211300,house,5,1,6,"$785,000",3 Oct 2017,https://www.auhouseprices.com/sold/view/ACT/341912398/42+Burdekin+Avenue%2C+Amaroo+ACT/
188,2914,Amaroo,77,https://www.auhouseprices.com/sold/list/ACT/2914/Amaroo/,4 Geehi Place ,-35.1683770,149.1236350,house,4,2,2,"$740,000",22 Sep 2017,https://www.auhouseprices.com/sold/view/ACT/341261298/4+Geehi+Place%2C+Amaroo+ACT/
189,2914,Amaroo,77,https://www.auhouseprices.com/sold/list/ACT/2914/Amaroo/,25 Tarrabool Street ,-35.1721790,149.1336670,house,4,2,2,"$789,000",18 Sep 2017,https://www.auhouseprices.com/sold/view/ACT/341127198/25+Tarrabool+Street%2C+Amaroo+ACT/
190,2914,Amaroo,77,https://www.auhouseprices.com/sold/list/ACT/2914/Amaroo/,7 Mission Street ,-35.1677360,149.1333140,house,5,2,2,"$845,000",16 Sep 2017,https://www.auhouseprices.com/sold/view/ACT/341053198/7+Mission+Street%2C+Amaroo+ACT/
191,2914,Amaroo,77,https://www.auhouseprices.com/sold/list/ACT/2914/Amaroo/,82 Burdekin Avenue ,-35.1665230,149.1245900,house,4,2,2,"$675,000",6 Sep 2017,https://www.auhouseprices.com/sold/view/ACT/341377998/82+Burdekin+Avenue%2C+Amaroo+ACT/
192,2914,Amaroo,77,https://www.auhouseprices.com/sold/list/ACT/2914/Amaroo/,38 Corringle Close ,-35.1731810,149.1270780,house,3,2,2,"$590,000",25 Aug 2017,https://www.auhouseprices.com/sold/view/ACT/341543898/38+Corringle+Close%2C+Amaroo+ACT/
193,2914,Amaroo,77,https://www.auhouseprices.com/sold/list/ACT/2914/Amaroo/,21 Tyenna Close ,-35.1715430,149.1267520,house,4,3,2,"$595,000",21 Aug 2017,https://www.auhouseprices.com/sold/view/ACT/341649798/21+Tyenna+Close%2C+Amaroo+ACT/
194,2914,Amaroo,77,https://www.auhouseprices.com/sold/list/ACT/2914/Amaroo/,58 Wanderer Court ,-35.1692100,149.1182400,house,3,2,2,"$565,000",19 Aug 2017,https://www.auhouseprices.com/sold/view/ACT/341608798/58+Wanderer+Court%2C+Amaroo+ACT/
195,2914,Amaroo,77,https://www.auhouseprices.com/sold/list/ACT/2914/Amaroo/,16 Mission Street ,-35.1685390,149.1341490,house,4,2,2,"$740,000",17 Aug 2017,https://www.auhouseprices.com/sold/view/ACT/341865798/16+Mission+Street%2C+Amaroo+ACT/
196,2914,Amaroo,77,https://www.auhouseprices.com/sold/list/ACT/2914/Amaroo/,14 Lett Place ,-35.1757400,149.1240400,house,3,2,2,"$600,000",29 Jul 2017,https://www.auhouseprices.com/sold/view/ACT/341533598/14+Lett+Place%2C+Amaroo+ACT/
197,2914,Amaroo,77,https://www.auhouseprices.com/sold/list/ACT/2914/Amaroo/,36 Benaroon Circuit ,-35.1725700,149.1375400,house,4,2,2,"$960,000",8 Jul 2017,https://www.auhouseprices.com/sold/view/ACT/341061388/36+Benaroon+Circuit%2C+Amaroo+ACT/
198,2914,Amaroo,77,https://www.auhouseprices.com/sold/list/ACT/2914/Amaroo/,6 Tia Close ,-35.1670160,149.1237050,house,4,2,2,"$793,000",1 Jul 2017,https://www.auhouseprices.com/sold/view/ACT/341383288/6+Tia+Close%2C+Amaroo+ACT/
199,2914,Amaroo,77,https://www.auhouseprices.com/sold/list/ACT/2914/Amaroo/,25 Benaroon Circuit ,-35.1720500,149.1366600,house,5,3,2,"$910,000",1 Jul 2017,https://www.auhouseprices.com/sold/view/ACT/341064288/25+Benaroon+Circuit%2C+Amaroo+ACT/
200,2914,Amaroo,77,https://www.auhouseprices.com/sold/list/ACT/2914/Amaroo/,2/32 Roderick Street ,-35.1747060,149.1255850,townhouse,3,1,1,"$418,000",27 Jun 2017,https://www.auhouseprices.com/sold/view/ACT/341369188/2-32+Roderick+Street%2C+Amaroo+ACT/
201,2914,Amaroo,77,https://www.auhouseprices.com/sold/list/ACT/2914/Amaroo/,9 Tarrabool Street ,-35.1707260,149.1329470,house,4,2,3,"$775,000",22 Jun 2017,https://www.auhouseprices.com/sold/view/ACT/341513488/9+Tarrabool+Street%2C+Amaroo+ACT/
202,2914,Amaroo,77,https://www.auhouseprices.com/sold/list/ACT/2914/Amaroo/,9 Lett Place ,-35.1755620,149.1248060,house,3,2,2,"$585,000",15 Jun 2017,https://www.auhouseprices.com/sold/view/ACT/341667088/9+Lett+Place%2C+Amaroo+ACT/
203,2914,Amaroo,77,https://www.auhouseprices.com/sold/list/ACT/2914/Amaroo/,13 Buckingham Street ,-35.1685030,149.1375000,house,4,2,2,"$668,000",3 Jun 2017,https://www.auhouseprices.com/sold/view/ACT/341405988/13+Buckingham+Street%2C+Amaroo+ACT/
204,2914,Amaroo,77,https://www.auhouseprices.com/sold/list/ACT/2914/Amaroo/,14 Heatherdale Street ,-35.1710850,149.1366400,house,4,2,2,"$670,000",27 May 2017,https://www.auhouseprices.com/sold/view/ACT/341027888/14+Heatherdale+Street%2C+Amaroo+ACT/
205,2914,Amaroo,77,https://www.auhouseprices.com/sold/list/ACT/2914/Amaroo/,7/5 Buckingham Street ,-35.1688190,149.1367710,townhouse,3,2,2,"$517,500",22 May 2017,https://www.auhouseprices.com/sold/view/ACT/341867788/7-5+Buckingham+Street%2C+Amaroo+ACT/
206,2914,Amaroo,77,https://www.auhouseprices.com/sold/list/ACT/2914/Amaroo/,13 Lennard Street ,-35.1706430,149.1231700,house,4,2,2,"$811,000",20 May 2017,https://www.auhouseprices.com/sold/view/ACT/341184788/13+Lennard+Street%2C+Amaroo+ACT/
207,2914,Amaroo,77,https://www.auhouseprices.com/sold/list/ACT/2914/Amaroo/,13 Willara Close ,-35.1717200,149.1257350,house,3,2,2,"$605,000",19 May 2017,https://www.auhouseprices.com/sold/view/ACT/341720888/13+Willara+Close%2C+Amaroo+ACT/
208,2914,Amaroo,77,https://www.auhouseprices.com/sold/list/ACT/2914/Amaroo/,23 Bywaters Street ,-35.1694310,149.1227330,townhouse,3,2,2,"$510,000",15 May 2017,https://www.auhouseprices.com/sold/view/ACT/341009688/23+Bywaters+Street%2C+Amaroo+ACT/
209,2914,Amaroo,77,https://www.auhouseprices.com/sold/list/ACT/2914/Amaroo/,12 Annan Close ,-35.1706250,149.1272950,house,4,2,2,"$623,000",9 May 2017,https://www.auhouseprices.com/sold/view/ACT/341998588/12+Annan+Close%2C+Amaroo+ACT/
210,2914,Amaroo,77,https://www.auhouseprices.com/sold/list/ACT/2914/Amaroo/,76 Diamond Street ,-35.1746520,149.1307400,house,5,3,2,"$1,400,000",6 May 2017,https://www.auhouseprices.com/sold/view/ACT/341166588/76+Diamond+Street%2C+Amaroo+ACT/
211,2914,Amaroo,77,https://www.auhouseprices.com/sold/list/ACT/2914/Amaroo/,13 Corringle Close ,-35.1731900,149.1246000,duplex-semi-detached,3,1,1,"$430,000",6 May 2017,https://www.auhouseprices.com/sold/view/ACT/341286588/13+Corringle+Close%2C+Amaroo+ACT/
212,2914,Amaroo,77,https://www.auhouseprices.com/sold/list/ACT/2914/Amaroo/,68 Magenta Square ,-35.1721200,149.1217000,house,3,1,2,"$505,000",29 Apr 2017,https://www.auhouseprices.com/sold/view/ACT/341290478/68+Magenta+Square%2C+Amaroo+ACT/
213,2914,Amaroo,77,https://www.auhouseprices.com/sold/list/ACT/2914/Amaroo/,21 Bywaters Street ,-35.1695400,149.1224240,house,3,2,2,"$567,200",27 Apr 2017,https://www.auhouseprices.com/sold/view/ACT/341597478/21+Bywaters+Street%2C+Amaroo+ACT/
214,2914,Amaroo,77,https://www.auhouseprices.com/sold/list/ACT/2914/Amaroo/,2 Lockhart Place ,-35.1733280,149.1259310,house,3,1,1,"$471,000",27 Apr 2017,https://www.auhouseprices.com/sold/view/ACT/341235318/2+Lockhart+Place%2C+Amaroo+ACT/
215,2914,Amaroo,77,https://www.auhouseprices.com/sold/list/ACT/2914/Amaroo/,8 Traine Court ,-35.1692250,149.1213110,house,3,1,1,"$465,000",19 Apr 2017,https://www.auhouseprices.com/sold/view/ACT/341151478/8+Traine+Court%2C+Amaroo+ACT/
216,2914,Amaroo,77,https://www.auhouseprices.com/sold/list/ACT/2914/Amaroo/,17 Conjola Close ,-35.1710660,149.1247540,house,3,2,2,"$518,000",6 Apr 2017,https://www.auhouseprices.com/sold/view/ACT/341406278/17+Conjola+Close%2C+Amaroo+ACT/
217,2914,Amaroo,77,https://www.auhouseprices.com/sold/list/ACT/2914/Amaroo/,11 Willara Close ,-35.1715350,149.1257060,house,3,2,2,"$600,000",31 Mar 2017,https://www.auhouseprices.com/sold/view/ACT/341678178/11+Willara+Close%2C+Amaroo+ACT/
218,2914,Amaroo,77,https://www.auhouseprices.com/sold/list/ACT/2914/Amaroo/,5/128 Katherine Avenue ,-35.1658840,149.1286160,townhouse,3,2,2,"$525,000",30 Mar 2017,https://www.auhouseprices.com/sold/view/ACT/341962588/5-128+Katherine+Avenue%2C+Amaroo+ACT/
219,2914,Amaroo,77,https://www.auhouseprices.com/sold/list/ACT/2914/Amaroo/,13 Augusta Place ,-35.1692710,149.1255880,house,4,3,2,"$685,000",28 Mar 2017,https://www.auhouseprices.com/sold/view/ACT/341074178/13++Augusta+Place%2C+Amaroo+ACT/
220,2914,Amaroo,77,https://www.auhouseprices.com/sold/list/ACT/2914/Amaroo/,7 Acraman Place ,-35.1764760,149.1251800,house,4,2,2,"$795,500",18 Mar 2017,https://www.auhouseprices.com/sold/view/ACT/341726978/7+Acraman+Place%2C+Amaroo+ACT/
221,2914,Amaroo,77,https://www.auhouseprices.com/sold/list/ACT/2914/Amaroo/,24 Mission Street ,-35.1687580,149.1348000,house,5,2,2,"$740,000",14 Mar 2017,https://www.auhouseprices.com/sold/view/ACT/341223078/24+Mission+Street%2C+Amaroo+ACT/
222,2914,Amaroo,77,https://www.auhouseprices.com/sold/list/ACT/2914/Amaroo/,14 Timboram Street ,-35.1704980,149.1288300,house,5,2,2,"$815,000",25 Feb 2017,https://www.auhouseprices.com/sold/view/ACT/341587678/14+Timboram+Street%2C+Amaroo+ACT/
223,2914,Amaroo,77,https://www.auhouseprices.com/sold/list/ACT/2914/Amaroo/,11 Cooloola Street ,-35.1706810,149.1321090,house,4,2,2,"$635,000",25 Feb 2017,https://www.auhouseprices.com/sold/view/ACT/341320778/11++Cooloola+Street%2C+Amaroo+ACT/
224,2914,Amaroo,77,https://www.auhouseprices.com/sold/list/ACT/2914/Amaroo/,2/15 Barrington Crescent ,-35.1759150,149.1266970,townhouse,3,2,2,"$485,750",24 Feb 2017,https://www.auhouseprices.com/sold/view/ACT/341953778/2-15+Barrington+Crescent%2C+Amaroo+ACT/
225,2914,Amaroo,77,https://www.auhouseprices.com/sold/list/ACT/2914/Amaroo/,24 Saxby Close ,-35.1711020,149.1276770,house,3,2,1,"$459,000",22 Feb 2017,https://www.auhouseprices.com/sold/view/ACT/341592678/24+Saxby+Close%2C+Amaroo+ACT/
226,2914,Amaroo,77,https://www.auhouseprices.com/sold/list/ACT/2914/Amaroo/,28 Bizant Street ,-35.1740600,149.1341400,house,5,3,2,"$1,170,000",18 Feb 2017,https://www.auhouseprices.com/sold/view/ACT/341868578/28+Bizant+Street%2C+Amaroo+ACT/
227,2914,Amaroo,77,https://www.auhouseprices.com/sold/list/ACT/2914/Amaroo/,19 Sandover Circuit ,-35.1734250,149.1271080,house,3,2,2,"$510,000",9 Feb 2017,https://www.auhouseprices.com/sold/view/ACT/341505468/19+Sandover+Circuit%2C+Amaroo+ACT/
228,2914,Amaroo,77,https://www.auhouseprices.com/sold/list/ACT/2914/Amaroo/,33 Lennard Street ,-35.1700000,149.1252600,house,4,2,2,"$640,000",4 Feb 2017,https://www.auhouseprices.com/sold/view/ACT/341839368/33+Lennard+Street%2C+Amaroo+ACT/
229,2914,Amaroo,77,https://www.auhouseprices.com/sold/list/ACT/2914/Amaroo/,14 Bizant Street ,-35.1736080,149.1329470,house,5,3,2,"$995,000",31 Jan 2017,https://www.auhouseprices.com/sold/view/ACT/341964368/14+Bizant+Street%2C+Amaroo+ACT/
230,2914,Amaroo,77,https://www.auhouseprices.com/sold/list/ACT/2914/Amaroo/,38 Barrington Crescent ,-35.1755680,149.1280880,house,4,2,3,"$840,000",30 Jan 2017,https://www.auhouseprices.com/sold/view/ACT/341753368/38+Barrington+Crescent%2C+Amaroo+ACT/
231,2914,Amaroo,77,https://www.auhouseprices.com/sold/list/ACT/2914/Amaroo/,11/12 Redwater Place ,-35.1665260,149.1335630,townhouse,4,2,2,"$550,000",18 Jan 2017,https://www.auhouseprices.com/sold/view/ACT/341806268/11-12+Redwater+Place%2C+Amaroo+ACT/
232,2914,Amaroo,77,https://www.auhouseprices.com/sold/list/ACT/2914/Amaroo/,116 Burdekin Avenue ,-35.1659370,149.1272780,house,3,2,2,"$583,000",16 Jan 2017,https://www.auhouseprices.com/sold/view/ACT/341097268/116+Burdekin+Avenue%2C+Amaroo+ACT/
233,2914,Amaroo,77,https://www.auhouseprices.com/sold/list/ACT/2914/Amaroo/,9 Fryans Place ,-35.1735590,149.1314290,house,5,3,2,"$837,000",16 Dec 2016,https://www.auhouseprices.com/sold/view/ACT/341875068/9+Fryans+Place%2C+Amaroo+ACT/
234,2914,Amaroo,77,https://www.auhouseprices.com/sold/list/ACT/2914/Amaroo/,44 Tarrabool Street ,-35.1735650,149.1338000,house,4,2,2,"$750,000",14 Dec 2016,https://www.auhouseprices.com/sold/view/ACT/341709068/44+Tarrabool+Street%2C+Amaroo+ACT/
235,2914,Amaroo,77,https://www.auhouseprices.com/sold/list/ACT/2914/Amaroo/,3 Proserpine Circuit ,-35.1690120,149.1305920,house,5,2,2,"$718,000",2 Dec 2016,https://www.auhouseprices.com/sold/view/ACT/341707868/3+Proserpine+Circuit%2C+Amaroo+ACT/
236,2914,Amaroo,77,https://www.auhouseprices.com/sold/list/ACT/2914/Amaroo/,20 Mission Street ,-35.1686550,149.1344800,house,3,2,2,"$625,000",26 Nov 2016,https://www.auhouseprices.com/sold/view/ACT/341665768/20+Mission+Street%2C+Amaroo+ACT/
237,2914,Amaroo,77,https://www.auhouseprices.com/sold/list/ACT/2914/Amaroo/,56 Wanderer Court ,-35.1692260,149.1180240,house,3,2,2,"$555,000",19 Nov 2016,https://www.auhouseprices.com/sold/view/ACT/341234668/56+Wanderer+Court%2C+Amaroo+ACT/
238,2914,Amaroo,77,https://www.auhouseprices.com/sold/list/ACT/2914/Amaroo/,10 Clara Close ,-35.1740260,149.1221770,house,3,1,1,"$416,000",17 Nov 2016,https://www.auhouseprices.com/sold/view/ACT/341723668/10+Clara+Close%2C+Amaroo+ACT/
239,2914,Amaroo,77,https://www.auhouseprices.com/sold/list/ACT/2914/Amaroo/,4 Cane Place ,-35.1709020,149.1218290,house,4,2,2,"$730,000",12 Nov 2016,https://www.auhouseprices.com/sold/view/ACT/341693568/4+Cane+Place%2C+Amaroo+ACT/
240,2914,Amaroo,77,https://www.auhouseprices.com/sold/list/ACT/2914/Amaroo/,21 Lander Crescent ,-35.1745970,149.1250000,house,5,2,3,"$770,000",10 Nov 2016,https://www.auhouseprices.com/sold/view/ACT/341412568/21+Lander+Crescent%2C+Amaroo+ACT/
241,2914,Amaroo,77,https://www.auhouseprices.com/sold/list/ACT/2914/Amaroo/,7 Fryans Place ,-35.1733400,149.1314000,house,6,3,3,"$940,000",5 Nov 2016,https://www.auhouseprices.com/sold/view/ACT/341486458/7+Fryans+Place%2C+Amaroo+ACT/
242,2914,Amaroo,77,https://www.auhouseprices.com/sold/list/ACT/2914/Amaroo/,15 Buckingham Street ,-35.1684720,149.1377040,house,4,1,2,"$630,000",4 Nov 2016,https://www.auhouseprices.com/sold/view/ACT/341553458/15+Buckingham+Street%2C+Amaroo+ACT/
243,2914,Amaroo,77,https://www.auhouseprices.com/sold/list/ACT/2914/Amaroo/,4 Alice Street ,-35.1672790,149.1323610,house,4,2,2,"$678,000",4 Nov 2016,https://www.auhouseprices.com/sold/view/ACT/341006458/4+Alice+Street%2C+Amaroo+ACT/
244,2914,Amaroo,77,https://www.auhouseprices.com/sold/list/ACT/2914/Amaroo/,1/57 Sandover Circuit ,-35.1748480,149.1266010,townhouse,3,1,4,"$448,000",3 Nov 2016,https://www.auhouseprices.com/sold/view/ACT/341433458/1-57+Sandover++Circuit%2C+Amaroo+ACT/
245,2914,Amaroo,77,https://www.auhouseprices.com/sold/list/ACT/2914/Amaroo/,2 Sale Place ,-35.1764230,149.1262260,house,6,3,2,"$940,000",3 Nov 2016,https://www.auhouseprices.com/sold/view/ACT/341644458/2+Sale+Place%2C+Amaroo+ACT/
246,2914,Amaroo,77,https://www.auhouseprices.com/sold/list/ACT/2914/Amaroo/,1 Hanworth Street ,-35.1662960,149.1352360,house,4,2,2,"$627,101",2 Nov 2016,https://www.auhouseprices.com/sold/view/ACT/341222458/1+Hanworth+Street%2C+Amaroo+ACT/
247,2914,Amaroo,77,https://www.auhouseprices.com/sold/list/ACT/2914/Amaroo/,5/32 Roderick Street ,-35.1747060,149.1255850,townhouse,3,2,2,"$452,000",28 Oct 2016,https://www.auhouseprices.com/sold/view/ACT/341494358/5-32++Roderick+Street%2C+Amaroo+ACT/
248,2914,Amaroo,77,https://www.auhouseprices.com/sold/list/ACT/2914/Amaroo/,1 Cane Place ,-35.1706740,149.1212360,house,4,2,2,"$725,000",20 Oct 2016,https://www.auhouseprices.com/sold/view/ACT/341530258/1+Cane+Place%2C+Amaroo+ACT/
249,2914,Amaroo,77,https://www.auhouseprices.com/sold/list/ACT/2914/Amaroo/,4/8 Proserpine Circuit ,-35.1687860,149.1312590,townhouse,4,2,2,"$475,000",30 Sep 2016,https://www.auhouseprices.com/sold/view/ACT/341124058/4-8+Proserpine+Circuit%2C+Amaroo+ACT/
250,2914,Amaroo,77,https://www.auhouseprices.com/sold/list/ACT/2914/Amaroo/,22 Buckingham Street ,-35.1683140,149.1381320,house,4,2,2,"$585,000",28 Sep 2016,https://www.auhouseprices.com/sold/view/ACT/341639958/22+Buckingham+Street%2C+Amaroo+ACT/
251,2914,Amaroo,77,https://www.auhouseprices.com/sold/list/ACT/2914/Amaroo/,10/36 Sandover Circuit ,-35.1744410,149.1273660,townhouse,3,2,2,"$422,000",27 Sep 2016,https://www.auhouseprices.com/sold/view/ACT/341088958/10-36+Sandover+Circuit%2C+Amaroo+ACT/
252,2914,Amaroo,77,https://www.auhouseprices.com/sold/list/ACT/2914/Amaroo/,49 Magenta Square ,-35.1720100,149.1211450,townhouse,3,1,1,"$360,000",23 Sep 2016,https://www.auhouseprices.com/sold/view/ACT/341234958/49+Magenta+Square%2C+Amaroo+ACT/
253,2914,Amaroo,77,https://www.auhouseprices.com/sold/list/ACT/2914/Amaroo/,7/128 Katherine Avenue ,-35.1658840,149.1286160,townhouse,3,2,2,"$480,000",22 Sep 2016,https://www.auhouseprices.com/sold/view/ACT/341467439/7-128+Katherine+Avenue%2C+Amaroo+ACT/
254,2914,Amaroo,77,https://www.auhouseprices.com/sold/list/ACT/2914/Amaroo/,37 Rollston Street ,-35.1664420,149.1313480,house,4,2,2,"$625,000",21 Sep 2016,https://www.auhouseprices.com/sold/view/ACT/341752958/37+Rollston+Street%2C+Amaroo+ACT/
255,2914,Amaroo,77,https://www.auhouseprices.com/sold/list/ACT/2914/Amaroo/,40 Diamond Street ,-35.1722970,149.1284170,house,3,2,1,"$466,700",21 Sep 2016,https://www.auhouseprices.com/sold/view/ACT/341482688/40+Diamond+Street%2C+Amaroo+ACT/
256,2914,Amaroo,77,https://www.auhouseprices.com/sold/list/ACT/2914/Amaroo/,22 Tarrabool Street ,-35.1715280,149.1328400,house,3,2,2,"$770,000",10 Sep 2016,https://www.auhouseprices.com/sold/view/ACT/341611858/22+Tarrabool+Street%2C+Amaroo+ACT/
257,2914,Amaroo,77,https://www.auhouseprices.com/sold/list/ACT/2914/Amaroo/,1/6 Willara Close ,-35.1710150,149.1256150,townhouse,2,1,1,"$375,000",8 Sep 2016,https://www.auhouseprices.com/sold/view/ACT/341799758/1-6+Willara+Close%2C+Amaroo+ACT/
258,2914,Amaroo,77,https://www.auhouseprices.com/sold/list/ACT/2914/Amaroo/,22/1 Emerald Way ,-35.1647650,149.1327253,townhouse,2,2,2,"$339,900",6 Sep 2016,https://www.auhouseprices.com/sold/view/ACT/341322098/22-1+Emerald+Way%2C+Amaroo+ACT/
259,2914,Amaroo,77,https://www.auhouseprices.com/sold/list/ACT/2914/Amaroo/,5 Saxby Close ,-35.1714480,149.1272000,house,3,2,1,"$435,000",3 Sep 2016,https://www.auhouseprices.com/sold/view/ACT/341962758/5+Saxby+Close%2C+Amaroo+ACT/
260,2914,Amaroo,77,https://www.auhouseprices.com/sold/list/ACT/2914/Amaroo/,44 Bizant St ,-35.1729240,149.1349300,house,4,2,2,"$761,000",3 Sep 2016,https://www.auhouseprices.com/sold/view/ACT/341204758/44+Bizant+St%2C+Amaroo+ACT/
261,2914,Amaroo,77,https://www.auhouseprices.com/sold/list/ACT/2914/Amaroo/,3 Tarrabool Street ,-35.1700050,149.1328370,house,4,2,2,"$735,000",29 Aug 2016,https://www.auhouseprices.com/sold/view/ACT/341157658/3+Tarrabool+Street%2C+Amaroo+ACT/
262,2914,Amaroo,77,https://www.auhouseprices.com/sold/list/ACT/2914/Amaroo/,1/30 Magenta Square ,-35.1724860,149.1203060,house,3,2,2,"$479,000",12 Aug 2016,https://www.auhouseprices.com/sold/view/ACT/341091558/1-30+Magenta+Square%2C+Amaroo+ACT/
263,2914,Amaroo,77,https://www.auhouseprices.com/sold/list/ACT/2914/Amaroo/,6/5 Buckingham Street ,-35.1688190,149.1367710,townhouse,3,2,2,"$479,000",8 Aug 2016,https://www.auhouseprices.com/sold/view/ACT/341790448/6-5+Buckingham+Street%2C+Amaroo+ACT/
264,2914,Amaroo,77,https://www.auhouseprices.com/sold/list/ACT/2914/Amaroo/,7/82 Buckingham Street ,-35.1650120,149.1343700,townhouse,4,2,2,"$525,000",6 Aug 2016,https://www.auhouseprices.com/sold/view/ACT/341186448/7-82+Buckingham+Street%2C+Amaroo+ACT/
265,2914,Amaroo,77,https://www.auhouseprices.com/sold/list/ACT/2914/Amaroo/,62 Bizant Street ,-35.1717880,149.1358260,house,4,2,2,"$745,000",30 Jul 2016,https://www.auhouseprices.com/sold/view/ACT/341452448/62+Bizant+Street%2C+Amaroo+ACT/
266,2914,Amaroo,77,https://www.auhouseprices.com/sold/list/ACT/2914/Amaroo/,3 Newstead Street ,-35.1674730,149.1359690,house,3,2,4,"$516,000",29 Jul 2016,https://www.auhouseprices.com/sold/view/ACT/341690348/3+Newstead+Street%2C+Amaroo+ACT/
267,2914,Amaroo,77,https://www.auhouseprices.com/sold/list/ACT/2914/Amaroo/,25 Leven Street ,-35.1674590,149.1247940,house,4,2,2,"$665,000",26 Jul 2016,https://www.auhouseprices.com/sold/view/ACT/341634448/25+Leven+Street%2C+Amaroo+ACT/
268,2914,Amaroo,77,https://www.auhouseprices.com/sold/list/ACT/2914/Amaroo/,8 Evella Court ,-35.1681470,149.1200510,house,3,1,1,"$585,000",14 Jul 2016,https://www.auhouseprices.com/sold/view/ACT/341300248/8+Evella+Court%2C+Amaroo+ACT/
269,2914,Amaroo,77,https://www.auhouseprices.com/sold/list/ACT/2914/Amaroo/,36 Buckingham Street ,-35.1673320,149.1377000,house,4,2,2,"$560,000",7 Jul 2016,https://www.auhouseprices.com/sold/view/ACT/341981248/36+Buckingham+Street%2C+Amaroo+ACT/
270,2914,Amaroo,77,https://www.auhouseprices.com/sold/list/ACT/2914/Amaroo/,78 Burdekin Avenue ,-35.1668300,149.1246150,house,4,2,2,"$696,000",6 Jul 2016,https://www.auhouseprices.com/sold/view/ACT/341010148/78+Burdekin+Avenue%2C+Amaroo+ACT/
271,2914,Amaroo,77,https://www.auhouseprices.com/sold/list/ACT/2914/Amaroo/,10 Diamond Street ,-35.1705930,149.1280200,house,4,2,2,"$650,000",17 Jun 2016,https://www.auhouseprices.com/sold/view/ACT/341325048/10+Diamond+Street%2C+Amaroo+ACT/
272,2914,Amaroo,77,https://www.auhouseprices.com/sold/list/ACT/2914/Amaroo/,116 Burdekin Avenue ,-35.1659360,149.1272700,house,3,2,2,"$508,000",28 May 2016,https://www.auhouseprices.com/sold/view/ACT/341733848/116+Burdekin+Avenue%2C+Amaroo+ACT/
273,2914,Amaroo,77,https://www.auhouseprices.com/sold/list/ACT/2914/Amaroo/,12 Ashbrook Street ,-35.1727750,149.1324780,house,5,3,3,"$1,135,000",27 May 2016,https://www.auhouseprices.com/sold/view/ACT/341791848/12+Ashbrook+Street%2C+Amaroo+ACT/
274,2914,Amaroo,77,https://www.auhouseprices.com/sold/list/ACT/2914/Amaroo/,67 Buckingham Street ,-35.1656710,149.1341110,house,4,2,2,"$585,000",20 May 2016,https://www.auhouseprices.com/sold/view/ACT/341288748/67+Buckingham+Street%2C+Amaroo+ACT/
275,2914,Amaroo,77,https://www.auhouseprices.com/sold/list/ACT/2914/Amaroo/,27 Bizant Street ,-35.1734990,149.1346170,house,5,3,2,"$995,000",18 May 2016,https://www.auhouseprices.com/sold/view/ACT/341451748/27+Bizant+Street%2C+Amaroo+ACT/
276,2914,Amaroo,77,https://www.auhouseprices.com/sold/list/ACT/2914/Amaroo/,5 Phelp Court ,-35.1723050,149.1262180,house,3,2,2,"$485,000",8 May 2016,https://www.auhouseprices.com/sold/view/ACT/341997439/5+Phelp+Court%2C+Amaroo+ACT/
277,2914,Amaroo,77,https://www.auhouseprices.com/sold/list/ACT/2914/Amaroo/,61 Diamond Street ,-35.1742980,149.1312530,house,5,2,2,"$831,000",5 May 2016,https://www.auhouseprices.com/sold/view/ACT/341589548/61+Diamond+Street%2C+Amaroo+ACT/
278,2914,Amaroo,77,https://www.auhouseprices.com/sold/list/ACT/2914/Amaroo/,34 Tarrabool Street ,-35.1726830,149.1334000,house,4,2,2,"$750,000",4 May 2016,https://www.auhouseprices.com/sold/view/ACT/341773648/34+Tarrabool+Street%2C+Amaroo+ACT/
279,2914,Amaroo,77,https://www.auhouseprices.com/sold/list/ACT/2914/Amaroo/,9/2 Lander Crescent ,-35.1736820,149.1225490,townhouse,2,1,1,"$374,950",29 Apr 2016,https://www.auhouseprices.com/sold/view/ACT/341081548/9-2+Lander+Crescent%2C+Amaroo+ACT/
280,2914,Amaroo,77,https://www.auhouseprices.com/sold/list/ACT/2914/Amaroo/,6 Phelp Court ,-35.1717720,149.1260290,house,3,2,1,"$461,700",25 Apr 2016,https://www.auhouseprices.com/sold/view/ACT/341209438/6+Phelp+Court%2C+Amaroo+ACT/
281,2914,Amaroo,77,https://www.auhouseprices.com/sold/list/ACT/2914/Amaroo/,34 Buckingham Street ,-35.1674660,149.1377760,house,4,2,2,"$595,000",5 Apr 2016,https://www.auhouseprices.com/sold/view/ACT/341978238/34+Buckingham+Street%2C+Amaroo+ACT/
282,2914,Amaroo,77,https://www.auhouseprices.com/sold/list/ACT/2914/Amaroo/,5 Mission Street ,-35.1676580,149.1331110,house,4,2,2,"$730,000",4 Apr 2016,https://www.auhouseprices.com/sold/view/ACT/341637439/5+Mission+Street%2C+Amaroo+ACT/
283,2914,Amaroo,77,https://www.auhouseprices.com/sold/list/ACT/2914/Amaroo/,58 Shoalhaven Avenue ,-35.1692700,149.1266690,house,4,2,2,"$660,000",12 Mar 2016,https://www.auhouseprices.com/sold/view/ACT/341174038/58+Shoalhaven+Avenue%2C+Amaroo+ACT/
284,2914,Amaroo,77,https://www.auhouseprices.com/sold/list/ACT/2914/Amaroo/,7/60 Benaroon Circuit ,-35.1700100,149.1379780,townhouse,3,2,2,"$472,000",2 Mar 2016,https://www.auhouseprices.com/sold/view/ACT/341823938/7-60+Benaroon+Circuit%2C+Amaroo+ACT/
285,2914,Amaroo,77,https://www.auhouseprices.com/sold/list/ACT/2914/Amaroo/,23 Proserpine Circuit ,-35.1673600,149.1310400,townhouse,3,2,2,"$469,000",20 Feb 2016,https://www.auhouseprices.com/sold/view/ACT/341421838/23+Proserpine+Circuit%2C+Amaroo+ACT/
286,2914,Amaroo,77,https://www.auhouseprices.com/sold/list/ACT/2914/Amaroo/,7/28 Rollston Street ,-35.1671280,149.1313740,townhouse,3,2,2,"$461,000",19 Feb 2016,https://www.auhouseprices.com/sold/view/ACT/341706338/7-28+Rollston+Street%2C+Amaroo+ACT/
287,2914,Amaroo,77,https://www.auhouseprices.com/sold/list/ACT/2914/Amaroo/,24 Heatherdale Street ,-35.1717310,149.1368950,house,4,2,2,"$645,000",16 Feb 2016,https://www.auhouseprices.com/sold/view/ACT/341635738/24+Heatherdale+Street%2C+Amaroo+ACT/
288,2914,Amaroo,77,https://www.auhouseprices.com/sold/list/ACT/2914/Amaroo/,11 Wellesley Street ,-35.1681950,149.1354750,house,4,2,2,"$623,000",11 Feb 2016,https://www.auhouseprices.com/sold/view/ACT/341640738/11+Wellesley+Street%2C+Amaroo+ACT/
289,2914,Amaroo,77,https://www.auhouseprices.com/sold/list/ACT/2914/Amaroo/,3 Styx Close ,-35.1737000,149.1279580,house,4,2,2,"$695,000",4 Feb 2016,https://www.auhouseprices.com/sold/view/ACT/341880248/3+Styx+Close%2C+Amaroo+ACT/
290,2914,Amaroo,77,https://www.auhouseprices.com/sold/list/ACT/2914/Amaroo/,10 Annan Close ,-35.1705460,149.1270990,house,3,2,1,"$454,700",Feb 2016,https://www.auhouseprices.com/sold/view/ACT/341898538/10+Annan+Close%2C+Amaroo+ACT/
291,2914,Amaroo,77,https://www.auhouseprices.com/sold/list/ACT/2914/Amaroo/,2/18 Lander Crescent ,-35.1748420,149.1225480,house,3,1,1,"$350,000",21 Jan 2016,https://www.auhouseprices.com/sold/view/ACT/341476538/2-18+Lander+Crescent%2C+Amaroo+ACT/
292,2914,Amaroo,77,https://www.auhouseprices.com/sold/list/ACT/2914/Amaroo/,15 Lander Crescent ,-35.1745890,149.1242200,house,4,2,2,"$670,000",18 Jan 2016,https://www.auhouseprices.com/sold/view/ACT/341071538/15+Lander+Crescent%2C+Amaroo+ACT/
293,2914,Amaroo,77,https://www.auhouseprices.com/sold/list/ACT/2914/Amaroo/,9 Dulverton Street ,-35.1687110,149.1298540,house,4,2,2,"$615,000",22 Dec 2015,https://www.auhouseprices.com/sold/view/ACT/341962527/9+Dulverton+Street%2C+Amaroo+ACT/
294,2914,Amaroo,77,https://www.auhouseprices.com/sold/list/ACT/2914/Amaroo/,25 Dulverton Street ,-35.1681050,149.1286080,house,3,2,2,"$463,000",10 Dec 2015,https://www.auhouseprices.com/sold/view/ACT/341194327/25+Dulverton+Street%2C+Amaroo+ACT/
295,2914,Amaroo,77,https://www.auhouseprices.com/sold/list/ACT/2914/Amaroo/,4 Wellesley Street ,-35.1689750,149.1363280,house,4,2,2,"$596,000",20 Nov 2015,https://www.auhouseprices.com/sold/view/ACT/341220827/4+Wellesley+Street%2C+Amaroo+ACT/
296,2914,Amaroo,77,https://www.auhouseprices.com/sold/list/ACT/2914/Amaroo/,3 Reeve Close ,-35.1680070,149.1222200,house,4,2,2,"$759,000",14 Nov 2015,https://www.auhouseprices.com/sold/view/ACT/341120727/3+Reeve+Close%2C+Amaroo+ACT/
297,2914,Amaroo,77,https://www.auhouseprices.com/sold/list/ACT/2914/Amaroo/,28 Buckingham Street ,-35.1678850,149.1379700,house,4,2,2,"$605,000",29 Oct 2015,https://www.auhouseprices.com/sold/view/ACT/341909417/28+Buckingham+Street%2C+Amaroo+ACT/
298,2914,Amaroo,77,https://www.auhouseprices.com/sold/list/ACT/2914/Amaroo/,4/8 Proserpine Circuit ,-35.1687850,149.1312900,house,4,2,2,"$470,000",8 Oct 2015,https://www.auhouseprices.com/sold/view/ACT/341453217/4-8+Proserpine+Circuit%2C+Amaroo+ACT/
299,2914,Amaroo,77,https://www.auhouseprices.com/sold/list/ACT/2914/Amaroo/,4 Newstead Street ,-35.1678730,149.1361100,house,4,2,2,"$570,000",25 Sep 2015,https://www.auhouseprices.com/sold/view/ACT/341365117/4+Newstead+Street%2C+Amaroo+ACT/
300,2914,Amaroo,77,https://www.auhouseprices.com/sold/list/ACT/2914/Amaroo/,9 Star Close ,-35.1670300,149.1267100,house,4,2,2,"$570,000",15 Sep 2015,https://www.auhouseprices.com/sold/view/ACT/341310017/9+Star+Close%2C+Amaroo+ACT/
301,2914,Amaroo,77,https://www.auhouseprices.com/sold/list/ACT/2914/Amaroo/,13 Olary Street ,-35.1687600,149.1339700,house,4,2,4,"$755,000",12 Sep 2015,https://www.auhouseprices.com/sold/view/ACT/341557917/13+Olary+Street%2C+Amaroo+ACT/
302,2914,Amaroo,77,https://www.auhouseprices.com/sold/list/ACT/2914/Amaroo/,42 Tarrabool Street ,-35.1733930,149.1337300,house,4,2,2,"$725,000",8 Sep 2015,https://www.auhouseprices.com/sold/view/ACT/341073917/42+Tarrabool+Street%2C+Amaroo+ACT/
303,2914,Amaroo,77,https://www.auhouseprices.com/sold/list/ACT/2914/Amaroo/,5 Olary Street ,-35.1684900,149.1331500,house,4,3,3,"$865,000",4 Sep 2015,https://www.auhouseprices.com/sold/view/ACT/341641917/5+Olary+Street%2C+Amaroo+ACT/
304,2914,Amaroo,77,https://www.auhouseprices.com/sold/list/ACT/2914/Amaroo/,33 Mission Street ,-35.1685830,149.1356500,house,4,2,2,"$710,000",4 Sep 2015,https://www.auhouseprices.com/sold/view/ACT/341044917/33+Mission+Street%2C+Amaroo+ACT/
305,2914,Amaroo,77,https://www.auhouseprices.com/sold/list/ACT/2914/Amaroo/,9 Augusta Place ,-35.1690640,149.1254900,house,4,2,2,"$575,000",28 Aug 2015,https://www.auhouseprices.com/sold/view/ACT/341855817/9+Augusta+Place%2C+Amaroo+ACT/
306,2914,Amaroo,77,https://www.auhouseprices.com/sold/list/ACT/2914/Amaroo/,14 Crossman Street ,-35.1647760,149.1334500,house,3,2,1,"$434,000",20 Aug 2015,https://www.auhouseprices.com/sold/view/ACT/341995717/14+Crossman+Street%2C+Amaroo+ACT/
307,2914,Amaroo,77,https://www.auhouseprices.com/sold/list/ACT/2914/Amaroo/,5/22 Lander Crescent ,-35.1750500,149.1230500,house,3,2,2,"$426,500",18 Aug 2015,https://www.auhouseprices.com/sold/view/ACT/341822717/5-22+Lander+Crescent%2C+Amaroo+ACT/
308,2914,Amaroo,77,https://www.auhouseprices.com/sold/list/ACT/2914/Amaroo/,14 Mornington Street ,-35.1656380,149.1314200,villa,2,1,1,"$429,000",29 Jul 2015,https://www.auhouseprices.com/sold/view/ACT/341360407/14+Mornington+Street%2C+Amaroo+ACT/
309,2914,Amaroo,77,https://www.auhouseprices.com/sold/list/ACT/2914/Amaroo/,30 Wanderer Court ,-35.1692000,149.1190300,house,4,2,2,"$790,000",25 Jul 2015,https://www.auhouseprices.com/sold/view/ACT/341195407/30+Wanderer+Court%2C+Amaroo+ACT/
310,2914,Amaroo,77,https://www.auhouseprices.com/sold/list/ACT/2914/Amaroo/,6 Newstead Street ,-35.1678280,149.1362900,house,4,2,2,"$590,000",15 Jul 2015,https://www.auhouseprices.com/sold/view/ACT/341260307/6+Newstead+Street%2C+Amaroo+ACT/
311,2914,Amaroo,77,https://www.auhouseprices.com/sold/list/ACT/2914/Amaroo/,10 Mornington Street ,-35.1656200,149.1313000,villa,4,2,2,"$475,000",10 Jul 2015,https://www.auhouseprices.com/sold/view/ACT/341162307/10+Mornington+Street%2C+Amaroo+ACT/
312,2914,Amaroo,77,https://www.auhouseprices.com/sold/list/ACT/2914/Amaroo/,31 Wellesley Street ,-35.1663630,149.1347700,house,3,2,2,"$510,000",10 Jul 2015,https://www.auhouseprices.com/sold/view/ACT/341025307/31+Wellesley+Street%2C+Amaroo+ACT/
313,2914,Amaroo,77,https://www.auhouseprices.com/sold/list/ACT/2914/Amaroo/,33 Buckingham Street ,-35.1670650,149.1370000,house,4,2,3,"$582,000",4 Jul 2015,https://www.auhouseprices.com/sold/view/ACT/341517207/33+Buckingham+Street%2C+Amaroo+ACT/
314,2914,Amaroo,77,https://www.auhouseprices.com/sold/list/ACT/2914/Amaroo/,11 Bizant Street ,-35.1731220,149.1332700,house,4,2,2,"$695,000",29 Jun 2015,https://www.auhouseprices.com/sold/view/ACT/341364207/11+Bizant+Street%2C+Amaroo+ACT/
315,2914,Amaroo,77,https://www.auhouseprices.com/sold/list/ACT/2914/Amaroo/,31 Lennard Street ,-35.1699200,149.1250600,house,5,4,2,"$727,000",16 Jun 2015,https://www.auhouseprices.com/sold/view/ACT/341888007/31+Lennard+Street%2C+Amaroo+ACT/
316,2914,Amaroo,77,https://www.auhouseprices.com/sold/list/ACT/2914/Amaroo/,3/39 Bywaters Street ,-35.1690600,149.1237200,townhouse,3,2,2,"$430,000",30 May 2015,https://www.auhouseprices.com/sold/view/ACT/341751907/3-39+Bywaters+Street%2C+Amaroo+ACT/
317,2914,Amaroo,77,https://www.auhouseprices.com/sold/list/ACT/2914/Amaroo/,8 Dulverton Street ,-35.1683270,149.1300400,house,4,2,2,"$557,000",28 May 2015,https://www.auhouseprices.com/sold/view/ACT/341432907/8+Dulverton+Street%2C+Amaroo+ACT/
318,2914,Amaroo,77,https://www.auhouseprices.com/sold/list/ACT/2914/Amaroo/,15 Mchenry Street ,-35.1704370,149.1329000,house,4,2,2,"$605,000",28 May 2015,https://www.auhouseprices.com/sold/view/ACT/341300907/15+Mchenry+Street%2C+Amaroo+ACT/
319,2914,Amaroo,77,https://www.auhouseprices.com/sold/list/ACT/2914/Amaroo/,8 Saxby Close ,-35.1720000,149.1274000,villa,3,2,1,"$420,000",27 May 2015,https://www.auhouseprices.com/sold/view/ACT/341125907/8+Saxby+Close%2C+Amaroo+ACT/
320,2914,Amaroo,77,https://www.auhouseprices.com/sold/list/ACT/2914/Amaroo/,18 Wanderer Court ,-35.1682800,149.1190800,house,4,2,2,"$620,000",23 May 2015,https://www.auhouseprices.com/sold/view/ACT/341804807/18+Wanderer+Court%2C+Amaroo+ACT/
321,2914,Amaroo,77,https://www.auhouseprices.com/sold/list/ACT/2914/Amaroo/,52 Buckingham Street ,-35.1663550,149.1369500,house,4,2,2,"$575,000",21 May 2015,https://www.auhouseprices.com/sold/view/ACT/341001807/52+Buckingham+Street%2C+Amaroo+ACT/
322,2914,Amaroo,77,https://www.auhouseprices.com/sold/list/ACT/2914/Amaroo/,7 Diamond Street ,-35.1705360,149.1285100,house,4,2,2,"$535,000",20 May 2015,https://www.auhouseprices.com/sold/view/ACT/341066807/7+Diamond+Street%2C+Amaroo+ACT/
323,2914,Amaroo,77,https://www.auhouseprices.com/sold/list/ACT/2914/Amaroo/,11 Diamond Street ,-35.1708530,149.1285100,house,3,2,2,"$495,000",19 May 2015,https://www.auhouseprices.com/sold/view/ACT/341409707/11+Diamond+Street%2C+Amaroo+ACT/
324,2914,Amaroo,77,https://www.auhouseprices.com/sold/list/ACT/2914/Amaroo/,57 Katherine Avenue ,-35.1698760,149.1333600,house,4,2,2,"$665,000",8 May 2015,https://www.auhouseprices.com/sold/view/ACT/341505707/57+Katherine+Avenue%2C+Amaroo+ACT/
325,2914,Amaroo,77,https://www.auhouseprices.com/sold/list/ACT/2914/Amaroo/,26 Traine Court ,-35.1696130,149.1214300,house,4,2,2,"$540,000",4 May 2015,https://www.auhouseprices.com/sold/view/ACT/341930397/26+Traine+Court%2C+Amaroo+ACT/
326,2914,Amaroo,77,https://www.auhouseprices.com/sold/list/ACT/2914/Amaroo/,4 Annan Close ,-35.1705250,149.1266200,house,3,1,1,"$399,000",30 Apr 2015,https://www.auhouseprices.com/sold/view/ACT/341402707/4+Annan+Close%2C+Amaroo+ACT/
327,2914,Amaroo,77,https://www.auhouseprices.com/sold/list/ACT/2914/Amaroo/,11 Clarendon Street ,-35.1711300,149.1349300,house,3,2,2,"$505,000",29 Apr 2015,https://www.auhouseprices.com/sold/view/ACT/341347707/11+Clarendon+Street%2C+Amaroo+ACT/
328,2914,Amaroo,77,https://www.auhouseprices.com/sold/list/ACT/2914/Amaroo/,11 Genoa Street ,-35.1697160,149.1280000,house,4,2,2,"$560,000",27 Apr 2015,https://www.auhouseprices.com/sold/view/ACT/341053397/11+Genoa+Street%2C+Amaroo+ACT/
329,2914,Amaroo,77,https://www.auhouseprices.com/sold/list/ACT/2914/Amaroo/,26 Tarrabool Street ,-35.1718800,149.1330300,house,5,2,5,"$875,000",18 Apr 2015,https://www.auhouseprices.com/sold/view/ACT/341727297/26+Tarrabool+Street%2C+Amaroo+ACT/
330,2914,Amaroo,77,https://www.auhouseprices.com/sold/list/ACT/2914/Amaroo/,15 Mission Street ,-35.1680070,149.1341100,house,4,2,2,"$705,000",14 Apr 2015,https://www.auhouseprices.com/sold/view/ACT/341442297/15+Mission+Street%2C+Amaroo+ACT/
331,2914,Amaroo,77,https://www.auhouseprices.com/sold/list/ACT/2914/Amaroo/,49 Katherine Avenue ,-35.1701550,149.1342600,house,4,2,2,"$600,000",9 Apr 2015,https://www.auhouseprices.com/sold/view/ACT/341355397/49+Katherine+Avenue%2C+Amaroo+ACT/
332,2914,Amaroo,77,https://www.auhouseprices.com/sold/list/ACT/2914/Amaroo/,27 Rollston Street ,-35.1663200,149.1305000,house,4,2,2,"$566,000",8 Apr 2015,https://www.auhouseprices.com/sold/view/ACT/341477597/27+Rollston+Street%2C+Amaroo+ACT/
333,2914,Amaroo,77,https://www.auhouseprices.com/sold/list/ACT/2914/Amaroo/,59 Burdekin Avenue ,-35.1682000,149.1221800,house,4,2,2,"$612,000",2 Apr 2015,https://www.auhouseprices.com/sold/view/ACT/341254597/59+Burdekin+Avenue%2C+Amaroo+ACT/
334,2914,Amaroo,77,https://www.auhouseprices.com/sold/list/ACT/2914/Amaroo/,18 Magenta Square ,-35.1718560,149.1200600,house,4,2,2,"$490,000",Apr 2015,https://www.auhouseprices.com/sold/view/ACT/341242597/18+Magenta+Square%2C+Amaroo+ACT/
335,2914,Amaroo,77,https://www.auhouseprices.com/sold/list/ACT/2914/Amaroo/,26 Augusta Place ,-35.1697600,149.1254400,house,4,2,2,"$640,000",Apr 2015,https://www.auhouseprices.com/sold/view/ACT/341714597/26+Augusta+Place%2C+Amaroo+ACT/
336,2914,Amaroo,77,https://www.auhouseprices.com/sold/list/ACT/2914/Amaroo/,18 Narran Street ,-35.1662500,149.1257600,house,4,2,2,"$547,500",25 Mar 2015,https://www.auhouseprices.com/sold/view/ACT/341656487/18+Narran+Street%2C+Amaroo+ACT/
337,2914,Amaroo,77,https://www.auhouseprices.com/sold/list/ACT/2914/Amaroo/,38 Magenta Square ,-35.1731640,149.1203200,house,4,2,1,"$417,500",20 Mar 2015,https://www.auhouseprices.com/sold/view/ACT/341697317/38+Magenta+Square%2C+Amaroo+ACT/
338,2914,Amaroo,77,https://www.auhouseprices.com/sold/list/ACT/2914/Amaroo/,5/18 Lander Crescent ,-35.1748430,149.1225400,townhouse,3,1,1,"$352,088",12 Mar 2015,https://www.auhouseprices.com/sold/view/ACT/341855487/5-18+Lander+Crescent%2C+Amaroo+ACT/
339,2914,Amaroo,77,https://www.auhouseprices.com/sold/list/ACT/2914/Amaroo/,1/80 Buckingham Street ,-35.1650120,149.1343700,townhouse,4,2,2,"$466,500",9 Mar 2015,https://www.auhouseprices.com/sold/view/ACT/341190287/1-80+Buckingham+Street%2C+Amaroo+ACT/
340,2914,Amaroo,77,https://www.auhouseprices.com/sold/list/ACT/2914/Amaroo/,18 Buckingham Street ,-35.1686550,149.1382800,house,4,2,2,"$520,000",21 Feb 2015,https://www.auhouseprices.com/sold/view/ACT/341174187/18+Buckingham+Street%2C+Amaroo+ACT/
341,2914,Amaroo,77,https://www.auhouseprices.com/sold/list/ACT/2914/Amaroo/,3 Vasse Place ,-35.1664300,149.1345500,house,4,2,2,"$670,000",16 Feb 2015,https://www.auhouseprices.com/sold/view/ACT/341678087/3+Vasse+Place%2C+Amaroo+ACT/
342,2914,Amaroo,77,https://www.auhouseprices.com/sold/list/ACT/2914/Amaroo/,4/34 Proserpine Circuit ,-35.1687280,149.1318800,house,3,2,2,"$465,000",12 Feb 2015,https://www.auhouseprices.com/sold/view/ACT/341821187/4-34+Proserpine+Circuit%2C+Amaroo+ACT/
343,2914,Amaroo,77,https://www.auhouseprices.com/sold/list/ACT/2914/Amaroo/,7 Ringarooma Circle ,-35.1717150,149.1296000,house,4,2,2,"$640,000",22 Jan 2015,https://www.auhouseprices.com/sold/view/ACT/341594987/7+Ringarooma+Circle%2C+Amaroo+ACT/
344,2914,Amaroo,77,https://www.auhouseprices.com/sold/list/ACT/2914/Amaroo/,26 Olary Street ,-35.1695200,149.1348000,house,3,2,2,"$497,000",23 Dec 2014,https://www.auhouseprices.com/sold/view/ACT/341163887/26+Olary+Street%2C+Amaroo+ACT/
345,2914,Amaroo,77,https://www.auhouseprices.com/sold/list/ACT/2914/Amaroo/,2 Phelp Court ,-35.1715280,149.1261400,house,3,2,1,"$450,000",23 Dec 2014,https://www.auhouseprices.com/sold/view/ACT/341577987/2+Phelp+Court%2C+Amaroo+ACT/
346,2914,Amaroo,77,https://www.auhouseprices.com/sold/list/ACT/2914/Amaroo/,15 Diamond Street ,-35.1711240,149.1285200,house,3,2,2,"$496,000",10 Dec 2014,https://www.auhouseprices.com/sold/view/ACT/341871787/15+Diamond+Street%2C+Amaroo+ACT/
347,2914,Amaroo,77,https://www.auhouseprices.com/sold/list/ACT/2914/Amaroo/,3 Conjola Close ,-35.1708450,149.1241000,house,4,3,2,"$641,500",25 Nov 2014,https://www.auhouseprices.com/sold/view/ACT/341997587/3+Conjola+Close%2C+Amaroo+ACT/
348,2914,Amaroo,77,https://www.auhouseprices.com/sold/list/ACT/2914/Amaroo/,11 Marrett Street ,-35.1708600,149.1303000,house,4,2,2,"$580,000",13 Nov 2014,https://www.auhouseprices.com/sold/view/ACT/341977477/11+Marrett+Street%2C+Amaroo+ACT/
349,2914,Amaroo,77,https://www.auhouseprices.com/sold/list/ACT/2914/Amaroo/,15 Augusta Place ,-35.1694070,149.1257200,house,4,2,2,"$620,000",20 Oct 2014,https://www.auhouseprices.com/sold/view/ACT/341053277/15+Augusta+Place%2C+Amaroo+ACT/
350,2914,Amaroo,77,https://www.auhouseprices.com/sold/list/ACT/2914/Amaroo/,17 Magenta Square ,-35.1720960,149.1209600,house,2,1,1,"$350,000",16 Oct 2014,https://www.auhouseprices.com/sold/view/ACT/341211277/17+Magenta+Square%2C+Amaroo+ACT/
351,2914,Amaroo,77,https://www.auhouseprices.com/sold/list/ACT/2914/Amaroo/,12 Bemm Place ,-35.1682200,149.1247300,house,3,2,2,"$485,000",13 Oct 2014,https://www.auhouseprices.com/sold/view/ACT/341068177/12+Bemm+Place%2C+Amaroo+ACT/
352,2914,Amaroo,77,https://www.auhouseprices.com/sold/list/ACT/2914/Amaroo/,4 Hanworth Street ,-35.1665760,149.1356000,house,4,2,2,"$498,000",27 Sep 2014,https://www.auhouseprices.com/sold/view/ACT/341975077/4+Hanworth+Street%2C+Amaroo+ACT/
353,2914,Amaroo,77,https://www.auhouseprices.com/sold/list/ACT/2914/Amaroo/,35 Proserpine Circuit ,-35.1674300,149.1322500,house,3,2,2,"$525,000",22 Sep 2014,https://www.auhouseprices.com/sold/view/ACT/341433077/35+Proserpine+Circuit%2C+Amaroo+ACT/
354,2914,Amaroo,77,https://www.auhouseprices.com/sold/list/ACT/2914/Amaroo/,14 Marrett Street ,-35.1709330,149.1297600,house,5,2,2,"$671,000",13 Sep 2014,https://www.auhouseprices.com/sold/view/ACT/341708977/14+Marrett+Street%2C+Amaroo+ACT/
355,2914,Amaroo,77,https://www.auhouseprices.com/sold/list/ACT/2914/Amaroo/,17 Lander Crescent ,-35.1746180,149.1245000,house,4,2,2,"$721,000",5 Sep 2014,https://www.auhouseprices.com/sold/view/ACT/341212977/17+Lander+Crescent%2C+Amaroo+ACT/
356,2914,Amaroo,77,https://www.auhouseprices.com/sold/list/ACT/2914/Amaroo/,4/3 Ling Place ,-35.1711580,149.1202400,townhouse,3,2,2,"$480,000",3 Sep 2014,https://www.auhouseprices.com/sold/view/ACT/341984177/4-3+Ling+Place%2C+Amaroo+ACT/
357,2914,Amaroo,77,https://www.auhouseprices.com/sold/list/ACT/2914/Amaroo/,31 Barrington Crescent ,-35.1756200,149.1274400,house,4,2,2,"$691,555",ep 2014,https://www.auhouseprices.com/sold/view/ACT/341098877/31+Barrington+Crescent%2C+Amaroo+ACT/
358,2914,Amaroo,77,https://www.auhouseprices.com/sold/list/ACT/2914/Amaroo/,32 Bywaters Street ,-35.1695370,149.1236400,house,4,2,2,"$545,000",30 Aug 2014,https://www.auhouseprices.com/sold/view/ACT/341997877/32+Bywaters+Street%2C+Amaroo+ACT/
359,2914,Amaroo,77,https://www.auhouseprices.com/sold/list/ACT/2914/Amaroo/,56 Shoalhaven Avenue ,-35.1694830,149.1266200,house,4,2,2,"$568,500",18 Aug 2014,https://www.auhouseprices.com/sold/view/ACT/341062877/56+Shoalhaven+Avenue%2C+Amaroo+ACT/
360,2914,Amaroo,77,https://www.auhouseprices.com/sold/list/ACT/2914/Amaroo/,55 Rollston Street ,-35.1668170,149.1331200,house,4,2,2,"$620,000",6 Aug 2014,https://www.auhouseprices.com/sold/view/ACT/341501777/55+Rollston+Street%2C+Amaroo+ACT/
361,2914,Amaroo,77,https://www.auhouseprices.com/sold/list/ACT/2914/Amaroo/,2/6 Edith Place ,-35.1707880,149.1352000,townhouse,2,1,2,"$366,000",30 Jul 2014,https://www.auhouseprices.com/sold/view/ACT/341598677/2-6+Edith+Place%2C+Amaroo+ACT/
362,2914,Amaroo,77,https://www.auhouseprices.com/sold/list/ACT/2914/Amaroo/,39 Diamond Street ,-35.1729930,149.1294100,house,3,2,2,"$662,500",16 Jul 2014,https://www.auhouseprices.com/sold/view/ACT/341301577/39+Diamond+Street%2C+Amaroo+ACT/
363,2914,Amaroo,77,https://www.auhouseprices.com/sold/list/ACT/2914/Amaroo/,11 Naas Close ,-35.1725120,149.1244400,house,3,1,1,"$399,000",25 Jun 2014,https://www.auhouseprices.com/sold/view/ACT/341706367/11+Naas+Close%2C+Amaroo+ACT/
364,2914,Amaroo,77,https://www.auhouseprices.com/sold/list/ACT/2914/Amaroo/,104 Katherine Avenue ,-35.1679500,149.1282800,house,4,2,2,"$650,000",24 Jun 2014,https://www.auhouseprices.com/sold/view/ACT/341946367/104+Katherine+Avenue%2C+Amaroo+ACT/
365,2914,Amaroo,77,https://www.auhouseprices.com/sold/list/ACT/2914/Amaroo/,74 Buckingham Street ,-35.1699300,149.1287000,house,3,2,2,"$475,000",24 Jun 2014,https://www.auhouseprices.com/sold/view/ACT/341366367/74+Buckingham+Street%2C+Amaroo+ACT/
366,2914,Amaroo,77,https://www.auhouseprices.com/sold/list/ACT/2914/Amaroo/,14 Alice Street ,-35.1663550,149.1325000,house,4,2,2,"$553,000",16 Jun 2014,https://www.auhouseprices.com/sold/view/ACT/341878167/14+Alice+Street%2C+Amaroo+ACT/
367,2914,Amaroo,77,https://www.auhouseprices.com/sold/list/ACT/2914/Amaroo/,10 Lett Place ,-35.1754460,149.1241800,house,4,2,2,"$510,000",16 Jun 2014,https://www.auhouseprices.com/sold/view/ACT/341940167/10+Lett++Place%2C+Amaroo+ACT/
368,2914,Amaroo,77,https://www.auhouseprices.com/sold/list/ACT/2914/Amaroo/,16 Diamond Street ,-35.1710620,149.1280200,house,4,2,2,"$537,500",10 Jun 2014,https://www.auhouseprices.com/sold/view/ACT/341046167/16+Diamond+Street%2C+Amaroo+ACT/
369,2914,Amaroo,77,https://www.auhouseprices.com/sold/list/ACT/2914/Amaroo/,63 Shoalhaven Avenue ,-35.1687620,149.1261900,house,4,1,2,"$512,500",30 May 2014,https://www.auhouseprices.com/sold/view/ACT/341556267/63+Shoalhaven+Avenue%2C+Amaroo+ACT/
370,2914,Amaroo,77,https://www.auhouseprices.com/sold/list/ACT/2914/Amaroo/,11 Tyenna Close ,-35.1707950,149.1269000,house,4,2,2,"$600,000",19 May 2014,https://www.auhouseprices.com/sold/view/ACT/341623267/11+Tyenna+Close%2C+Amaroo+ACT/
371,2914,Amaroo,77,https://www.auhouseprices.com/sold/list/ACT/2914/Amaroo/,19 Sandover Circuit ,-35.1734240,149.1271000,house,3,2,3,"$460,000",16 May 2014,https://www.auhouseprices.com/sold/view/ACT/341071067/19+Sandover+Circuit%2C+Amaroo+ACT/
372,2914,Amaroo,77,https://www.auhouseprices.com/sold/list/ACT/2914/Amaroo/,3 Cooloola Street ,-35.1699700,149.1319300,house,4,2,2,"$571,500",14 May 2014,https://www.auhouseprices.com/sold/view/ACT/341619967/3+Cooloola+Street%2C+Amaroo+ACT/
373,2914,Amaroo,77,https://www.auhouseprices.com/sold/list/ACT/2914/Amaroo/,17 Diamond Street ,-35.1712570,149.1285200,house,4,2,2,"$555,000",6 May 2014,https://www.auhouseprices.com/sold/view/ACT/341015967/17+Diamond+Street%2C+Amaroo+ACT/
374,2914,Amaroo,77,https://www.auhouseprices.com/sold/list/ACT/2914/Amaroo/,1 Fryans Place ,-35.1728060,149.1310400,house,4,2,2,"$659,950",28 Apr 2014,https://www.auhouseprices.com/sold/view/ACT/341561267/1+Fryans+Place%2C+Amaroo+ACT/
375,2914,Amaroo,77,https://www.auhouseprices.com/sold/list/ACT/2914/Amaroo/,76 Diamond Street ,-35.1746510,149.1307410,house,5,3,2,"$1,155,000",22 Apr 2014,https://www.auhouseprices.com/sold/view/ACT/341914127/76+Diamond+Street%2C+Amaroo+ACT/
376,2914,Amaroo,77,https://www.auhouseprices.com/sold/list/ACT/2914/Amaroo/,34 Diamond Street ,-35.1721420,149.1282200,house,3,2,1,"$445,000",2 Apr 2014,https://www.auhouseprices.com/sold/view/ACT/341892437/34+Diamond+Street%2C+Amaroo+ACT/
377,2914,Amaroo,77,https://www.auhouseprices.com/sold/list/ACT/2914/Amaroo/,2 Sophia Street ,-35.1662670,149.1303100,house,3,2,2,"$472,000",Apr 2014,https://www.auhouseprices.com/sold/view/ACT/341173947/2+Sophia+Street%2C+Amaroo+ACT/
378,2914,Amaroo,77,https://www.auhouseprices.com/sold/list/ACT/2914/Amaroo/,2 Burdekin Avenue ,-35.1725730,149.1231000,house,4,2,2,"$543,000",31 Mar 2014,https://www.auhouseprices.com/sold/view/ACT/341222747/2+Burdekin+Avenue%2C+Amaroo+ACT/
379,2914,Amaroo,77,https://www.auhouseprices.com/sold/list/ACT/2914/Amaroo/,19 Meerup Street ,-35.1720350,149.1346000,house,4,2,2,"$715,000",31 Mar 2014,https://www.auhouseprices.com/sold/view/ACT/341036947/19+Meerup+Street%2C+Amaroo+ACT/
380,2914,Amaroo,77,https://www.auhouseprices.com/sold/list/ACT/2914/Amaroo/,24 Corringle Close ,-35.1732480,149.1257320,house,3,2,2,"$443,000",28 Mar 2014,https://www.auhouseprices.com/sold/view/ACT/331213016/24+Corringle+Close%2C+Amaroo+ACT/
381,2914,Amaroo,77,https://www.auhouseprices.com/sold/list/ACT/2914/Amaroo/,12/12 Redwater Place ,-35.1665270,149.1335600,townhouse,4,2,2,"$490,000",21 Mar 2014,https://www.auhouseprices.com/sold/view/ACT/341978437/12-12+Redwater+Place%2C+Amaroo+ACT/
382,2914,Amaroo,77,https://www.auhouseprices.com/sold/list/ACT/2914/Amaroo/,3 Tia Close ,-35.1675070,149.1232500,house,4,2,2,"$790,000",11 Mar 2014,https://www.auhouseprices.com/sold/view/ACT/341738437/3+Tia+Close%2C+Amaroo+ACT/
383,2914,Amaroo,77,https://www.auhouseprices.com/sold/list/ACT/2914/Amaroo/,55 Diamond Street ,-35.1741640,149.1305400,house,5,4,2,"$885,000",3 Mar 2014,https://www.auhouseprices.com/sold/view/ACT/341142547/55+Diamond+Street%2C+Amaroo+ACT/
384,2914,Amaroo,77,https://www.auhouseprices.com/sold/list/ACT/2914/Amaroo/,5 Clarendon Street ,-35.1707190,149.1347720,House,3,2,2,"$475,000",1 Mar 2014,https://www.auhouseprices.com/sold/view/ACT/331694716/5+Clarendon+Street%2C+Amaroo+ACT/
385,2914,Amaroo,77,https://www.auhouseprices.com/sold/list/ACT/2914/Amaroo/,15 Narran Street ,-35.1667140,149.1262400,house,5,3,2,"$660,000",24 Feb 2014,https://www.auhouseprices.com/sold/view/ACT/341316647/15+Narran+Street%2C+Amaroo+ACT/
386,2914,Amaroo,77,https://www.auhouseprices.com/sold/list/ACT/2914/Amaroo/,28 Tarrabool Street ,-35.1720650,149.1331000,house,4,2,2,"$741,000",20 Feb 2014,https://www.auhouseprices.com/sold/view/ACT/331138406/28+Tarrabool+Street%2C+Amaroo+ACT/
387,2914,Amaroo,77,https://www.auhouseprices.com/sold/list/ACT/2914/Amaroo/,24 Magenta Square ,-35.1721680,149.1202220,house,3,2,2,"$465,000",20 Feb 2014,https://www.auhouseprices.com/sold/view/ACT/331838406/24+Magenta+Square%2C+Amaroo+ACT/
388,2914,Amaroo,77,https://www.auhouseprices.com/sold/list/ACT/2914/Amaroo/,20 Lennard Street ,-35.1705460,149.1241100,house,4,2,2,"$560,000",18 Feb 2014,https://www.auhouseprices.com/sold/view/ACT/331865916/20+Lennard+Street%2C+Amaroo+ACT/
389,2914,Amaroo,77,https://www.auhouseprices.com/sold/list/ACT/2914/Amaroo/,21 Roderick Street ,-35.1738490,149.1250960,House,4,1,2,"$750,000",1 Feb 2014,https://www.auhouseprices.com/sold/view/ACT/331575916/21+Roderick+Street%2C+Amaroo+ACT/
390,2914,Amaroo,77,https://www.auhouseprices.com/sold/list/ACT/2914/Amaroo/,47 Burdekin Avenue ,-35.1684860,149.1206100,House,4,2,2,"$675,000",Jan 2014,https://www.auhouseprices.com/sold/view/ACT/331365206/47+Burdekin+Avenue%2C+Amaroo+ACT/
391,2914,Amaroo,77,https://www.auhouseprices.com/sold/list/ACT/2914/Amaroo/,9/3 Barrington Crescent ,-35.1753910,149.1261920,Unit,3,1,2,"$435,000",Jan 2014,https://www.auhouseprices.com/sold/view/ACT/331985916/9-3+Barrington+Crescent%2C+Amaroo+ACT/
392,2914,Amaroo,77,https://www.auhouseprices.com/sold/list/ACT/2914/Amaroo/,13 Auburn Street ,-35.1694600,149.1273840,house,4,2,2,"$648,000",21 Dec 2013,https://www.auhouseprices.com/sold/view/ACT/331553906/13+Auburn+Street%2C+Amaroo+ACT/
393,2914,Amaroo,77,https://www.auhouseprices.com/sold/list/ACT/2914/Amaroo/,9 Annan Close ,-35.1699360,149.1266075,house,3,1,1,"$406,000",9 Dec 2013,https://www.auhouseprices.com/sold/view/ACT/331758706/9+Annan+Close%2C+Amaroo+ACT/
394,2914,Amaroo,77,https://www.auhouseprices.com/sold/list/ACT/2914/Amaroo/,6/6 Proserpine Circuit ,-35.1687844,149.1309026,townhouse,4,3,2,"$476,000",3 Dec 2013,https://www.auhouseprices.com/sold/view/ACT/331195206/6-6+Proserpine+Circuit%2C+Amaroo+ACT/
395,2914,Amaroo,77,https://www.auhouseprices.com/sold/list/ACT/2914/Amaroo/,118 Burdekin Avenue ,-35.1659370,149.1274200,Apartment,3,2,2,"$485,000",Dec 2013,https://www.auhouseprices.com/sold/view/ACT/331075206/118+Burdekin+Avenue%2C+Amaroo+ACT/
396,2914,Amaroo,77,https://www.auhouseprices.com/sold/list/ACT/2914/Amaroo/,24 Lennard Street ,-35.1703290,149.1244680,House,4,1,2,"$540,000",Dec 2013,https://www.auhouseprices.com/sold/view/ACT/331775206/24+Lennard+Street%2C+Amaroo+ACT/
397,2914,Amaroo,77,https://www.auhouseprices.com/sold/list/ACT/2914/Amaroo/,1 Cooloola Street ,-35.1697540,149.1318130,House,4,1,3,"$658,000",Dec 2013,https://www.auhouseprices.com/sold/view/ACT/331895206/1+Cooloola+Street%2C+Amaroo+ACT/
398,2914,Amaroo,77,https://www.auhouseprices.com/sold/list/ACT/2914/Amaroo/,44 Rollston Street ,-35.1673620,149.1332860,House,4,3,3,"$767,700",Dec 2013,https://www.auhouseprices.com/sold/view/ACT/331489306/44+Rollston+Street%2C+Amaroo+ACT/
399,2914,Amaroo,77,https://www.auhouseprices.com/sold/list/ACT/2914/Amaroo/,1 Lett Place ,-35.1750910,149.1251170,house,4,2,2,"$515,000",27 Nov 2013,https://www.auhouseprices.com/sold/view/ACT/331468706/1+Lett+Place%2C+Amaroo+ACT/
400,2914,Amaroo,77,https://www.auhouseprices.com/sold/list/ACT/2914/Amaroo/,7 Moondarra Street ,-35.1705360,149.1311690,house,4,2,2,"$642,000",22 Nov 2013,https://www.auhouseprices.com/sold/view/ACT/331332606/7+Moondarra+Street%2C+Amaroo+ACT/
401,2914,Amaroo,77,https://www.auhouseprices.com/sold/list/ACT/2914/Amaroo/,1/32 Roderick Street ,-35.1746907,149.1256053,townhouse,3,1,1,"$375,000",20 Nov 2013,https://www.auhouseprices.com/sold/view/ACT/331485206/1-32+Roderick+Street%2C+Amaroo+ACT/
402,2914,Amaroo,77,https://www.auhouseprices.com/sold/list/ACT/2914/Amaroo/,4 Cane Place ,-35.1709020,149.1218290,house,4,2,2,"$640,000",13 Nov 2013,https://www.auhouseprices.com/sold/view/ACT/331285296/4+Cane+Place%2C+Amaroo+ACT/
403,2914,Amaroo,77,https://www.auhouseprices.com/sold/list/ACT/2914/Amaroo/,23 Dulverton Street ,-35.1682410,149.1286670,house,3,2,2,"$478,000",5 Nov 2013,https://www.auhouseprices.com/sold/view/ACT/331042606/23+Dulverton+Street%2C+Amaroo+ACT/
404,2914,Amaroo,77,https://www.auhouseprices.com/sold/list/ACT/2914/Amaroo/,2/11 Clara Close ,-35.1740910,149.1217150,Townhouse,3,2,1,"$385,000",Nov 2013,https://www.auhouseprices.com/sold/view/ACT/331985296/2-11+Clara+Close%2C+Amaroo+ACT/
405,2914,Amaroo,77,https://www.auhouseprices.com/sold/list/ACT/2914/Amaroo/,8/60 Benaroon Circuit ,-35.1700100,149.1379780,townhouse,3,2,2,"$421,000",25 Oct 2013,https://www.auhouseprices.com/sold/view/ACT/331773096/8-60+Benaroon+Circuit%2C+Amaroo+ACT/
406,2914,Amaroo,77,https://www.auhouseprices.com/sold/list/ACT/2914/Amaroo/,7 Yantara Street ,-35.1680170,149.1299700,house,4,3,2,"$520,000",18 Oct 2013,https://www.auhouseprices.com/sold/view/ACT/321075855/7+Yantara+Street%2C+Amaroo+ACT/
407,2914,Amaroo,77,https://www.auhouseprices.com/sold/list/ACT/2914/Amaroo/,5 Conjola Close ,-35.1709670,149.1242825,house,3,3,2,"$540,000",9 Oct 2013,https://www.auhouseprices.com/sold/view/ACT/331049606/5+Conjola+Close%2C+Amaroo+ACT/
408,2914,Amaroo,77,https://www.auhouseprices.com/sold/list/ACT/2914/Amaroo/,11/3 Barrington Crescent ,-35.1753910,149.1261920,townhouse,3,2,2,"$405,000",4 Oct 2013,https://www.auhouseprices.com/sold/view/ACT/331982396/11-3+Barrington+Crescent%2C+Amaroo+ACT/
409,2914,Amaroo,77,https://www.auhouseprices.com/sold/list/ACT/2914/Amaroo/,15 Leven Street ,-35.1676770,149.1255860,House,4,1,2,"$495,000",Oct 2013,https://www.auhouseprices.com/sold/view/ACT/331339606/15+Leven+Street%2C+Amaroo+ACT/
410,2914,Amaroo,77,https://www.auhouseprices.com/sold/list/ACT/2914/Amaroo/,11 Leven Street ,-35.1679480,149.1255860,House,4,2,2,"$525,000",Oct 2013,https://www.auhouseprices.com/sold/view/ACT/331052906/11+Leven+Street%2C+Amaroo+ACT/
411,2914,Amaroo,77,https://www.auhouseprices.com/sold/list/ACT/2914/Amaroo/,90 Burdekin Avenue ,-35.1659660,149.1251830,house,4,2,2,"$510,000",26 Sep 2013,https://www.auhouseprices.com/sold/view/ACT/331494112/90+Burdekin+Avenue%2C+Amaroo+ACT/
