,Postcode,Suburb Name,Recent Sales,Suburb Link,Street Address,Latitude,Longitude,Property Type,Beds,Baths,Cars,Sold Price,Sold Date,Property Link
0,2605,Curtin,71,https://www.auhouseprices.com/sold/list/ACT/2605/Curtin/,74/3 Waddell Place ,-35.3252951,149.0806038,apartment,1,1,1,"$200,000",19 Mar 2021,https://www.auhouseprices.com/sold/view/ACT/341556370/74-3+Waddell+Place%2C+Curtin+ACT/
1,2605,Curtin,71,https://www.auhouseprices.com/sold/list/ACT/2605/Curtin/,6 Jenkins Street ,-35.3231215,149.0759350,house,3,1,3,"$1,270,000",7 Mar 2021,https://www.auhouseprices.com/sold/view/ACT/341400070/6+Jenkins+Street%2C+Curtin+ACT/
2,2605,Curtin,71,https://www.auhouseprices.com/sold/list/ACT/2605/Curtin/,8A Parker Street ,-35.3269253,149.0835730,house,3,1,1,"$708,000",4 Mar 2021,https://www.auhouseprices.com/sold/view/ACT/341704070/8A+Parker+Street%2C+Curtin+ACT/
3,2605,Curtin,71,https://www.auhouseprices.com/sold/list/ACT/2605/Curtin/,1/4 Walsh Place ,-35.3249821,149.0846438,apartment,2,1,1,"$298,000",2 Mar 2021,https://www.auhouseprices.com/sold/view/ACT/341217970/1-4+Walsh+Place%2C+Curtin+ACT/
4,2605,Curtin,71,https://www.auhouseprices.com/sold/list/ACT/2605/Curtin/,2/3 Blyth Place ,-35.3252428,149.0783701,townhouse,3,2,2,"$870,000",6 Feb 2021,https://www.auhouseprices.com/sold/view/ACT/341664870/2-3+Blyth+Place%2C+Curtin+ACT/
5,2605,Curtin,71,https://www.auhouseprices.com/sold/list/ACT/2605/Curtin/,8 Daglish Street ,-35.3314825,149.0751698,house,4,3,2,"$2,010,000",26 Nov 2020,https://www.auhouseprices.com/sold/view/ACT/341056660/8+Daglish+Street%2C+Curtin+ACT/
6,2605,Curtin,71,https://www.auhouseprices.com/sold/list/ACT/2605/Curtin/,75 Mccormack Street ,-35.3301582,149.0772151,house,4,2,2,"$1,315,000",14 Nov 2020,https://www.auhouseprices.com/sold/view/ACT/341193450/75+Mccormack+Street%2C+Curtin+ACT/
7,2605,Curtin,71,https://www.auhouseprices.com/sold/list/ACT/2605/Curtin/,130 Carruthers Street ,-35.3238409,149.0786594,house,4,2,2,"$1,035,000",7 Nov 2020,https://www.auhouseprices.com/sold/view/ACT/341009250/130+Carruthers+Street%2C+Curtin+ACT/
8,2605,Curtin,71,https://www.auhouseprices.com/sold/list/ACT/2605/Curtin/,4/141 Carruthers Street ,-35.3238509,149.0807098,apartment,2,1,1,"$317,000",4 Nov 2020,https://www.auhouseprices.com/sold/view/ACT/341573250/4-141+Carruthers+Street%2C+Curtin+ACT/
9,2605,Curtin,71,https://www.auhouseprices.com/sold/list/ACT/2605/Curtin/,32 Cockburn Street ,-35.3234526,149.0718736,house,5,3,2,"$1,770,000",31 Oct 2020,https://www.auhouseprices.com/sold/view/ACT/341485150/32+Cockburn+Street%2C+Curtin+ACT/
10,2605,Curtin,71,https://www.auhouseprices.com/sold/list/ACT/2605/Curtin/,38 Kidston Crescent ,-35.3202281,149.0827246,house,5,3,2,"$1,450,000",26 Oct 2020,https://www.auhouseprices.com/sold/view/ACT/341435050/38+Kidston+Crescent%2C+Curtin+ACT/
11,2605,Curtin,71,https://www.auhouseprices.com/sold/list/ACT/2605/Curtin/,7 Reynolds Street ,-35.3220855,149.0811333,house,4,2,1,"$1,080,000",20 Oct 2020,https://www.auhouseprices.com/sold/view/ACT/341835950/7+Reynolds+Street%2C+Curtin+ACT/
12,2605,Curtin,71,https://www.auhouseprices.com/sold/list/ACT/2605/Curtin/,17 Holman Street ,-35.3310205,149.0831555,house,3,1,1,"$890,000",18 Oct 2020,https://www.auhouseprices.com/sold/view/ACT/341442950/17+Holman+Street%2C+Curtin+ACT/
13,2605,Curtin,71,https://www.auhouseprices.com/sold/list/ACT/2605/Curtin/,5 Reynolds Street ,-35.3218175,149.0809944,house,4,1,1,"$1,000,000",15 Oct 2020,https://www.auhouseprices.com/sold/view/ACT/341946850/5+Reynolds+Street%2C+Curtin+ACT/
14,2605,Curtin,71,https://www.auhouseprices.com/sold/list/ACT/2605/Curtin/,8 McLean Place ,-35.3256642,149.0769570,house,4,2,2,"$1,060,000",15 Oct 2020,https://www.auhouseprices.com/sold/view/ACT/341697850/8+McLean+Place%2C+Curtin+ACT/
15,2605,Curtin,71,https://www.auhouseprices.com/sold/list/ACT/2605/Curtin/,2 McPhee Place ,-35.3306840,149.0828059,house,3,1,1,"$830,000",12 Oct 2020,https://www.auhouseprices.com/sold/view/ACT/341582850/2+McPhee+Place%2C+Curtin+ACT/
16,2605,Curtin,71,https://www.auhouseprices.com/sold/list/ACT/2605/Curtin/,4 Farnell Place ,-35.3215732,149.0731786,house,4,3,2,"$1,180,000",10 Oct 2020,https://www.auhouseprices.com/sold/view/ACT/341371850/4+Farnell+Place%2C+Curtin+ACT/
17,2605,Curtin,71,https://www.auhouseprices.com/sold/list/ACT/2605/Curtin/,1 Colebatch Place ,-35.3295429,149.0772006,house,4,2,2,"$1,155,000",6 Oct 2020,https://www.auhouseprices.com/sold/view/ACT/341333750/1+Colebatch+Place%2C+Curtin+ACT/
18,2605,Curtin,71,https://www.auhouseprices.com/sold/list/ACT/2605/Curtin/,8 Heales Place ,-35.3195030,149.0871276,house,4,1,2,"$1,065,000",2 Oct 2020,https://www.auhouseprices.com/sold/view/ACT/341031750/8+Heales+Place%2C+Curtin+ACT/
19,2605,Curtin,71,https://www.auhouseprices.com/sold/list/ACT/2605/Curtin/,13 Gillies Street ,-35.3236711,149.0843309,house,5,3,2,"$1,211,000",22 Sep 2020,https://www.auhouseprices.com/sold/view/ACT/341162550/13+Gillies+Street%2C+Curtin+ACT/
20,2605,Curtin,71,https://www.auhouseprices.com/sold/list/ACT/2605/Curtin/,30 Bavin Street ,-35.3333551,149.0742606,house,4,2,2,"$1,290,000",12 Sep 2020,https://www.auhouseprices.com/sold/view/ACT/341857340/30+Bavin+Street%2C+Curtin+ACT/
21,2605,Curtin,71,https://www.auhouseprices.com/sold/list/ACT/2605/Curtin/,2 Crowther Place ,-35.3212983,149.0786822,house,3,2,1,"$951,000",11 Sep 2020,https://www.auhouseprices.com/sold/view/ACT/341219340/2+Crowther+Place%2C+Curtin+ACT/
22,2605,Curtin,71,https://www.auhouseprices.com/sold/list/ACT/2605/Curtin/,32 Collier Street ,-35.3322817,149.0826819,house,4,2,2,"$1,095,000",7 Sep 2020,https://www.auhouseprices.com/sold/view/ACT/341481340/32+Collier+Street%2C+Curtin+ACT/
23,2605,Curtin,71,https://www.auhouseprices.com/sold/list/ACT/2605/Curtin/,23/145 Carruthers Street ,-35.3240567,149.0818481,unit,1,1,1,"$267,000",4 Sep 2020,https://www.auhouseprices.com/sold/view/ACT/341757240/23-145+Carruthers+Street%2C+Curtin+ACT/
24,2605,Curtin,71,https://www.auhouseprices.com/sold/list/ACT/2605/Curtin/,6 Waterhouse Street ,-35.3183670,149.0829200,house,4,1,1,"$990,000",29 Aug 2020,https://www.auhouseprices.com/sold/view/ACT/341595140/6+Waterhouse+Street%2C+Curtin+ACT/
25,2605,Curtin,71,https://www.auhouseprices.com/sold/list/ACT/2605/Curtin/,17 Willcock Place ,-35.3299640,149.0743300,house,5,2,2,"$945,000",22 Aug 2020,https://www.auhouseprices.com/sold/view/ACT/341744040/17+Willcock+Place%2C+Curtin+ACT/
26,2605,Curtin,71,https://www.auhouseprices.com/sold/list/ACT/2605/Curtin/,9 Propsting Street ,-35.3233536,149.0813088,house,4,2,2,"$945,000",17 Aug 2020,https://www.auhouseprices.com/sold/view/ACT/341705940/9+Propsting+Street%2C+Curtin+ACT/
27,2605,Curtin,71,https://www.auhouseprices.com/sold/list/ACT/2605/Curtin/,15 Ryan Street ,-35.3224432,149.0854873,house,4,2,2,"$1,020,000",16 Aug 2020,https://www.auhouseprices.com/sold/view/ACT/341883940/15+Ryan+Street%2C+Curtin+ACT/
28,2605,Curtin,71,https://www.auhouseprices.com/sold/list/ACT/2605/Curtin/,69 Jennings Street ,-35.3248000,149.0749400,house,4,2,3,"$1,520,000",8 Aug 2020,https://www.auhouseprices.com/sold/view/ACT/341224840/69+Jennings+Street%2C+Curtin+ACT/
29,2605,Curtin,71,https://www.auhouseprices.com/sold/list/ACT/2605/Curtin/,64 Morgan Crescent ,-35.3187100,149.0844700,house,3,1,1,"$950,000",1 Aug 2020,https://www.auhouseprices.com/sold/view/ACT/341505740/64+Morgan+Crescent%2C+Curtin+ACT/
30,2605,Curtin,71,https://www.auhouseprices.com/sold/list/ACT/2605/Curtin/,16 Prendergast Street ,-35.3207010,149.0782930,house,3,1,1,"$880,000",30 Jul 2020,https://www.auhouseprices.com/sold/view/ACT/341050740/16+Prendergast+Street%2C+Curtin+ACT/
31,2605,Curtin,71,https://www.auhouseprices.com/sold/list/ACT/2605/Curtin/,35 Macalister Crescent ,-35.3328479,149.0806942,house,3,1,1,"$815,000",11 Jul 2020,https://www.auhouseprices.com/sold/view/ACT/341525529/35+Macalister+Crescent%2C+Curtin+ACT/
32,2605,Curtin,71,https://www.auhouseprices.com/sold/list/ACT/2605/Curtin/,1 Bavin Street ,-35.3307835,149.0738758,house,5,3,2,"$1,165,000",9 Jul 2020,https://www.auhouseprices.com/sold/view/ACT/341422529/1+Bavin+Street%2C+Curtin+ACT/
33,2605,Curtin,71,https://www.auhouseprices.com/sold/list/ACT/2605/Curtin/,39 Carruthers Street ,-35.3298916,149.0769882,house,4,2,2,"$820,000",25 Jun 2020,https://www.auhouseprices.com/sold/view/ACT/341275329/39+Carruthers+Street%2C+Curtin+ACT/
34,2605,Curtin,71,https://www.auhouseprices.com/sold/list/ACT/2605/Curtin/,9A Ryan Street ,-35.3219966,149.0857771,house,3,2,2,"$1,160,000",22 Jun 2020,https://www.auhouseprices.com/sold/view/ACT/341081329/9A+Ryan+Street%2C+Curtin+ACT/
35,2605,Curtin,71,https://www.auhouseprices.com/sold/list/ACT/2605/Curtin/,51 Carruthers Street ,-35.3289255,149.0760285,house,4,2,2,"$1,255,500",20 Jun 2020,https://www.auhouseprices.com/sold/view/ACT/341460229/51+Carruthers+Street%2C+Curtin+ACT/
36,2605,Curtin,71,https://www.auhouseprices.com/sold/list/ACT/2605/Curtin/,1 Kennerley Street ,-35.3239072,149.0753281,house,2,2,2,"$798,000",18 Jun 2020,https://www.auhouseprices.com/sold/view/ACT/341067229/1+Kennerley+Street%2C+Curtin+ACT/
37,2605,Curtin,71,https://www.auhouseprices.com/sold/list/ACT/2605/Curtin/,23 Daglish Street ,-35.3312045,149.0761308,house,4,3,1,"$926,000",11 Jun 2020,https://www.auhouseprices.com/sold/view/ACT/341228129/23+Daglish+Street%2C+Curtin+ACT/
38,2605,Curtin,71,https://www.auhouseprices.com/sold/list/ACT/2605/Curtin/,29 Collier Street ,-35.3328481,149.0817283,house,3,2,1,"$910,000",29 May 2020,https://www.auhouseprices.com/sold/view/ACT/341186029/29+Collier+Street%2C+Curtin+ACT/
39,2605,Curtin,71,https://www.auhouseprices.com/sold/list/ACT/2605/Curtin/,22/15 Strangways Street ,-35.3251218,149.0812484,apartment,2,3,2,"$495,000",15 May 2020,https://www.auhouseprices.com/sold/view/ACT/341378829/22-15+Strangways+Street%2C+Curtin+ACT/
40,2605,Curtin,71,https://www.auhouseprices.com/sold/list/ACT/2605/Curtin/,15 Kennerley Street ,-35.3236501,149.0740236,house,4,2,2,"$1,597,500",14 May 2020,https://www.auhouseprices.com/sold/view/ACT/341167829/15+Kennerley+Street%2C+Curtin+ACT/
41,2605,Curtin,71,https://www.auhouseprices.com/sold/list/ACT/2605/Curtin/,97 Morgan Crescent ,-35.3194350,149.0826000,house,3,1,1,"$906,000",9 May 2020,https://www.auhouseprices.com/sold/view/ACT/341450829/97+Morgan+Crescent%2C+Curtin+ACT/
42,2605,Curtin,71,https://www.auhouseprices.com/sold/list/ACT/2605/Curtin/,60 Throssell Street ,-35.3192092,149.0780238,house,3,1,1,"$760,000",30 Mar 2020,https://www.auhouseprices.com/sold/view/ACT/341500319/60+Throssell+Street%2C+Curtin+ACT/
43,2605,Curtin,71,https://www.auhouseprices.com/sold/list/ACT/2605/Curtin/,9 Verran Place ,-35.3184970,149.0863800,house,4,2,2,"$1,006,000",21 Mar 2020,https://www.auhouseprices.com/sold/view/ACT/341028219/9+Verran+Place%2C+Curtin+ACT/
44,2605,Curtin,71,https://www.auhouseprices.com/sold/list/ACT/2605/Curtin/,10 Kidston Crescent ,-35.3200100,149.0853900,house,4,2,1,"$1,050,000",21 Mar 2020,https://www.auhouseprices.com/sold/view/ACT/341798219/10+Kidston+Crescent%2C+Curtin+ACT/
45,2605,Curtin,71,https://www.auhouseprices.com/sold/list/ACT/2605/Curtin/,25 MacAlister Crescent ,-35.3337313,149.0806949,house,4,2,2,"$1,245,000",17 Mar 2020,https://www.auhouseprices.com/sold/view/ACT/341431219/25+MacAlister+Crescent%2C+Curtin+ACT/
46,2605,Curtin,71,https://www.auhouseprices.com/sold/list/ACT/2605/Curtin/,12 Barwell Place ,-35.3205919,149.0799181,house,5,2,2,"$1,117,500",14 Mar 2020,https://www.auhouseprices.com/sold/view/ACT/341127119/12+Barwell+Place%2C+Curtin+ACT/
47,2605,Curtin,71,https://www.auhouseprices.com/sold/list/ACT/2605/Curtin/,4/10 Walsh Place ,-35.3252244,149.0852330,apartment,1,1,1,"$225,000",4 Mar 2020,https://www.auhouseprices.com/sold/view/ACT/341815119/4-10+Walsh+Place%2C+Curtin+ACT/
48,2605,Curtin,71,https://www.auhouseprices.com/sold/list/ACT/2605/Curtin/,15 Morehead Street ,-35.3197888,149.0731440,house,3,2,1,"$960,000",28 Feb 2020,https://www.auhouseprices.com/sold/view/ACT/341591019/15+Morehead+Street%2C+Curtin+ACT/
49,2605,Curtin,71,https://www.auhouseprices.com/sold/list/ACT/2605/Curtin/,19 Gillies Street ,-35.3241227,149.0837595,house,5,3,2,"$1,160,000",22 Feb 2020,https://www.auhouseprices.com/sold/view/ACT/341116819/19+Gillies+Street%2C+Curtin+ACT/
50,2605,Curtin,71,https://www.auhouseprices.com/sold/list/ACT/2605/Curtin/,42 Holman Street ,-35.3331100,149.0827623,house,4,2,5,"$1,015,000",15 Feb 2020,https://www.auhouseprices.com/sold/view/ACT/341045719/42+Holman+Street%2C+Curtin+ACT/
51,2605,Curtin,71,https://www.auhouseprices.com/sold/list/ACT/2605/Curtin/,4 Kidston Crescent ,-35.3205070,149.0857800,house,4,2,1,"$859,600",15 Feb 2020,https://www.auhouseprices.com/sold/view/ACT/341695719/4+Kidston+Crescent%2C+Curtin+ACT/
52,2605,Curtin,71,https://www.auhouseprices.com/sold/list/ACT/2605/Curtin/,120 Theodore Street ,-35.3359800,149.0812050,house,3,1,1,"$830,000",13 Feb 2020,https://www.auhouseprices.com/sold/view/ACT/341334019/120+Theodore+Street%2C+Curtin+ACT/
53,2605,Curtin,71,https://www.auhouseprices.com/sold/list/ACT/2605/Curtin/,22 Jennings Street ,-35.3223215,149.0721197,house,5,2,2,"$1,485,000",8 Feb 2020,https://www.auhouseprices.com/sold/view/ACT/341674619/22+Jennings+Street%2C+Curtin+ACT/
54,2605,Curtin,71,https://www.auhouseprices.com/sold/list/ACT/2605/Curtin/,13 Daglish Street ,-35.3321633,149.0759463,house,4,2,2,"$970,000",8 Feb 2020,https://www.auhouseprices.com/sold/view/ACT/341094619/13+Daglish+Street%2C+Curtin+ACT/
55,2605,Curtin,71,https://www.auhouseprices.com/sold/list/ACT/2605/Curtin/,4 Munro Street ,-35.3277290,149.0737637,house,5,3,2,"$1,120,000",29 Jan 2020,https://www.auhouseprices.com/sold/view/ACT/341306509/4+Munro+Street%2C+Curtin+ACT/
56,2605,Curtin,71,https://www.auhouseprices.com/sold/list/ACT/2605/Curtin/,32 Colebatch Place ,-35.3277430,149.0797180,house,4,1,2,"$1,000,000",6 Jan 2020,https://www.auhouseprices.com/sold/view/ACT/341842009/32+Colebatch+Place%2C+Curtin+ACT/
57,2605,Curtin,71,https://www.auhouseprices.com/sold/list/ACT/2605/Curtin/,5 Philp Place ,-35.3247922,149.0794317,house,3,2,2,"$900,000",27 Dec 2019,https://www.auhouseprices.com/sold/view/ACT/341233009/5+Philp+Place%2C+Curtin+ACT/
58,2605,Curtin,71,https://www.auhouseprices.com/sold/list/ACT/2605/Curtin/,72 Morgan Crescent ,-35.3187139,149.0837526,house,2,2,1,"$841,000",23 Dec 2019,https://www.auhouseprices.com/sold/view/ACT/341173409/72+Morgan+Crescent%2C+Curtin+ACT/
59,2605,Curtin,71,https://www.auhouseprices.com/sold/list/ACT/2605/Curtin/,13B McCulloch Street ,-35.3231850,149.0822900,townhouse,3,2,2,"$1,245,000",14 Dec 2019,https://www.auhouseprices.com/sold/view/ACT/341461009/13B+McCulloch+Street%2C+Curtin+ACT/
60,2605,Curtin,71,https://www.auhouseprices.com/sold/list/ACT/2605/Curtin/,13 Haines Street ,-35.3367460,149.0798600,house,4,2,1,"$916,000",7 Dec 2019,https://www.auhouseprices.com/sold/view/ACT/341032809/13+Haines+Street%2C+Curtin+ACT/
61,2605,Curtin,71,https://www.auhouseprices.com/sold/list/ACT/2605/Curtin/,4A Munro Street ,-35.3276115,149.0739347,house,2,1,2,"$770,000",27 Nov 2019,https://www.auhouseprices.com/sold/view/ACT/341325709/4A+Munro+Street%2C+Curtin+ACT/
62,2605,Curtin,71,https://www.auhouseprices.com/sold/list/ACT/2605/Curtin/,19 Parker Street ,-35.3279823,149.0842106,house,4,2,1,"$1,090,000",22 Nov 2019,https://www.auhouseprices.com/sold/view/ACT/341105609/19+Parker+Street%2C+Curtin+ACT/
63,2605,Curtin,71,https://www.auhouseprices.com/sold/list/ACT/2605/Curtin/,3 Parker Street ,-35.3264482,149.0843032,house,5,2,3,"$1,140,000",15 Nov 2019,https://www.auhouseprices.com/sold/view/ACT/341644709/3+Parker+Street%2C+Curtin+ACT/
64,2605,Curtin,71,https://www.auhouseprices.com/sold/list/ACT/2605/Curtin/,40 Holman Street ,-35.3329911,149.0828431,house,3,1,1,"$900,000",9 Nov 2019,https://www.auhouseprices.com/sold/view/ACT/341693399/40+Holman+Street%2C+Curtin+ACT/
65,2605,Curtin,71,https://www.auhouseprices.com/sold/list/ACT/2605/Curtin/,5 Gregson Place ,-35.3174220,149.0760533,house,5,3,2,"$1,275,000",8 Nov 2019,https://www.auhouseprices.com/sold/view/ACT/341321399/5+Gregson+Place%2C+Curtin+ACT/
66,2605,Curtin,71,https://www.auhouseprices.com/sold/list/ACT/2605/Curtin/,10 Propsting Street ,-35.3230300,149.0812400,house,4,2,1,"$1,110,000",26 Oct 2019,https://www.auhouseprices.com/sold/view/ACT/341622199/10+Propsting+Street%2C+Curtin+ACT/
67,2605,Curtin,71,https://www.auhouseprices.com/sold/list/ACT/2605/Curtin/,25 Daglish Street ,-35.3310360,149.0760500,house,5,2,1,"$870,000",21 Sep 2019,https://www.auhouseprices.com/sold/view/ACT/341596699/25+Daglish+Street%2C+Curtin+ACT/
68,2605,Curtin,71,https://www.auhouseprices.com/sold/list/ACT/2605/Curtin/,16 McLean Place ,-35.3261207,149.0771447,house,4,2,4,"$910,000",20 Sep 2019,https://www.auhouseprices.com/sold/view/ACT/341095699/16+McLean+Place%2C+Curtin+ACT/
69,2605,Curtin,71,https://www.auhouseprices.com/sold/list/ACT/2605/Curtin/,2/8 Parker Street ,-35.3269253,149.0835730,house,3,1,1,"$650,000",19 Sep 2019,https://www.auhouseprices.com/sold/view/ACT/341634699/2-8+Parker+Street%2C+Curtin+ACT/
70,2605,Curtin,71,https://www.auhouseprices.com/sold/list/ACT/2605/Curtin/,30/1 McCulloch Street ,-35.3237910,149.0820942,unit,2,1,1,"$300,000",19 Sep 2019,https://www.auhouseprices.com/sold/view/ACT/341098099/30-1+McCulloch+Street%2C+Curtin+ACT/
71,2605,Curtin,71,https://www.auhouseprices.com/sold/list/ACT/2605/Curtin/,6 Byrnes Place ,-35.3177590,149.0725640,house,5,2,2,"$1,310,000",17 Sep 2019,https://www.auhouseprices.com/sold/view/ACT/341651699/6+Byrnes+Place%2C+Curtin+ACT/
72,2605,Curtin,71,https://www.auhouseprices.com/sold/list/ACT/2605/Curtin/,52 Jennings street ,-35.3249200,149.0714710,house,3,2,2,"$1,575,000",14 Sep 2019,https://www.auhouseprices.com/sold/view/ACT/341393599/52+Jennings+street%2C+Curtin+ACT/
73,2605,Curtin,71,https://www.auhouseprices.com/sold/list/ACT/2605/Curtin/,26 James Street ,-35.3345463,149.0778664,house,4,3,2,"$1,565,000",14 Sep 2019,https://www.auhouseprices.com/sold/view/ACT/341165599/26+James+Street%2C+Curtin+ACT/
74,2605,Curtin,71,https://www.auhouseprices.com/sold/list/ACT/2605/Curtin/,40 James Street ,-35.3356107,149.0788728,house,5,2,3,"$1,085,000",24 Aug 2019,https://www.auhouseprices.com/sold/view/ACT/341777289/40+James+Street%2C+Curtin+ACT/
75,2605,Curtin,71,https://www.auhouseprices.com/sold/list/ACT/2605/Curtin/,10 Scaddan Place ,-35.3271262,149.0747766,house,3,1,1,"$850,000",10 Aug 2019,https://www.auhouseprices.com/sold/view/ACT/341521189/10+Scaddan+Place%2C+Curtin+ACT/
76,2605,Curtin,71,https://www.auhouseprices.com/sold/list/ACT/2605/Curtin/,3 Whyte Place ,-35.3348030,149.0839930,house,3,1,1,"$708,000",20 Jul 2019,https://www.auhouseprices.com/sold/view/ACT/341227889/3+Whyte+Place%2C+Curtin+ACT/
77,2605,Curtin,71,https://www.auhouseprices.com/sold/list/ACT/2605/Curtin/,1 Propsting Street ,-35.3233220,149.0821350,townhouse,3,2,2,"$1,200,000",18 Jul 2019,https://www.auhouseprices.com/sold/view/ACT/341393889/1+Propsting+Street%2C+Curtin+ACT/
78,2605,Curtin,71,https://www.auhouseprices.com/sold/list/ACT/2605/Curtin/,65/3 Waddell Place ,-35.3251720,149.0806130,apartment,1,1,1,"$200,000",5 Jul 2019,https://www.auhouseprices.com/sold/view/ACT/341574189/65-3+Waddell+Place%2C+Curtin+ACT/
79,2605,Curtin,71,https://www.auhouseprices.com/sold/list/ACT/2605/Curtin/,5 Daglish Street ,-35.3313280,149.0755870,house,4,2,2,"$1,370,000",20 Jun 2019,https://www.auhouseprices.com/sold/view/ACT/341160589/5+Daglish+Street%2C+Curtin+ACT/
80,2605,Curtin,71,https://www.auhouseprices.com/sold/list/ACT/2605/Curtin/,17 Willcock Place ,-35.3300900,149.0743130,house,5,2,2,"$900,000",14 Jun 2019,https://www.auhouseprices.com/sold/view/ACT/341648479/17+Willcock+Place%2C+Curtin+ACT/
81,2605,Curtin,71,https://www.auhouseprices.com/sold/list/ACT/2605/Curtin/,8 Prendergast Street ,-35.3199800,149.0781600,house,5,3,2,"$1,655,000",1 Jun 2019,https://www.auhouseprices.com/sold/view/ACT/341884379/8+Prendergast+Street%2C+Curtin+ACT/
82,2605,Curtin,71,https://www.auhouseprices.com/sold/list/ACT/2605/Curtin/,38 Kidston Crescent ,-35.3201740,149.0825980,house,3,1,2,"$830,000",24 May 2019,https://www.auhouseprices.com/sold/view/ACT/341188479/38+Kidston+Crescent%2C+Curtin+ACT/
83,2605,Curtin,71,https://www.auhouseprices.com/sold/list/ACT/2605/Curtin/,43 Allan Street ,-35.3227920,149.0867800,house,3,1,1,"$790,000",18 May 2019,https://www.auhouseprices.com/sold/view/ACT/341497179/43+Allan+Street%2C+Curtin+ACT/
84,2605,Curtin,71,https://www.auhouseprices.com/sold/list/ACT/2605/Curtin/,13 Colebatch Place ,-35.3287930,149.0781400,house,3,1,4,"$899,000",11 May 2019,https://www.auhouseprices.com/sold/view/ACT/341430079/13+Colebatch+Place%2C+Curtin+ACT/
85,2605,Curtin,71,https://www.auhouseprices.com/sold/list/ACT/2605/Curtin/,43 Theodore Street ,-35.3294210,149.0816520,house,4,2,2,"$820,000",4 May 2019,https://www.auhouseprices.com/sold/view/ACT/341979979/43+Theodore+Street%2C+Curtin+ACT/
86,2605,Curtin,71,https://www.auhouseprices.com/sold/list/ACT/2605/Curtin/,99 Morgan Crescent ,-35.3196570,149.0825400,house,5,2,2,"$940,000",May 2019,https://www.auhouseprices.com/sold/view/ACT/341085979/99+Morgan+Crescent%2C+Curtin+ACT/
87,2605,Curtin,71,https://www.auhouseprices.com/sold/list/ACT/2605/Curtin/,20 Willcock Place ,-35.3292960,149.0749500,house,4,2,2,"$1,200,000",27 Apr 2019,https://www.auhouseprices.com/sold/view/ACT/341380979/20+Willcock+Place%2C+Curtin+ACT/
88,2605,Curtin,71,https://www.auhouseprices.com/sold/list/ACT/2605/Curtin/,1/15 Strangways Street ,-35.3250900,149.0810550,apartment,1,1,1,"$332,500",16 Apr 2019,https://www.auhouseprices.com/sold/view/ACT/341383879/1-15+Strangways+Street%2C+Curtin+ACT/
89,2605,Curtin,71,https://www.auhouseprices.com/sold/list/ACT/2605/Curtin/,9 Boucaut Place ,-35.3261580,149.0735630,house,4,2,2,"$950,000",13 Apr 2019,https://www.auhouseprices.com/sold/view/ACT/341978779/9+Boucaut+Place%2C+Curtin+ACT/
90,2605,Curtin,71,https://www.auhouseprices.com/sold/list/ACT/2605/Curtin/,17 Munro Street ,-35.3291130,149.0725700,house,4,3,2,"$1,070,000",6 Apr 2019,https://www.auhouseprices.com/sold/view/ACT/341969679/17+Munro+Street%2C+Curtin+ACT/
91,2605,Curtin,71,https://www.auhouseprices.com/sold/list/ACT/2605/Curtin/,9 McPhee Place ,-35.3299730,149.0830260,house,3,1,1,"$775,000",18 Mar 2019,https://www.auhouseprices.com/sold/view/ACT/341046469/9+McPhee+Place%2C+Curtin+ACT/
92,2605,Curtin,71,https://www.auhouseprices.com/sold/list/ACT/2605/Curtin/,49 Theodore Street ,-35.3299860,149.0813650,house,3,2,2,"$825,000",18 Mar 2019,https://www.auhouseprices.com/sold/view/ACT/341307469/49+Theodore+Street%2C+Curtin+ACT/
93,2605,Curtin,71,https://www.auhouseprices.com/sold/list/ACT/2605/Curtin/,4 Peacock Place ,-35.3182900,149.0833600,house,4,2,2,"$1,300,000",16 Mar 2019,https://www.auhouseprices.com/sold/view/ACT/341204469/4+Peacock+Place%2C+Curtin+ACT/
94,2605,Curtin,71,https://www.auhouseprices.com/sold/list/ACT/2605/Curtin/,31/1 Waddell Place ,-35.3251720,149.0806630,unit,2,2,2,"$440,000",14 Mar 2019,https://www.auhouseprices.com/sold/view/ACT/341581469/31-1+Waddell+Place%2C+Curtin+ACT/
95,2605,Curtin,71,https://www.auhouseprices.com/sold/list/ACT/2605/Curtin/,28 Morgan Crescent ,-35.3215590,149.0854260,house,3,2,2,"$890,000",12 Mar 2019,https://www.auhouseprices.com/sold/view/ACT/341567369/28+Morgan+Crescent%2C+Curtin+ACT/
96,2605,Curtin,71,https://www.auhouseprices.com/sold/list/ACT/2605/Curtin/,8 Reibey Place ,-35.3261850,149.0717020,house,4,2,2,"$1,525,000",9 Mar 2019,https://www.auhouseprices.com/sold/view/ACT/341207369/8+Reibey+Place%2C+Curtin+ACT/
97,2605,Curtin,71,https://www.auhouseprices.com/sold/list/ACT/2605/Curtin/,13 Service Street ,-35.3364890,149.0838920,house,3,1,2,"$650,000",9 Mar 2019,https://www.auhouseprices.com/sold/view/ACT/341596369/13+Service+Street%2C+Curtin+ACT/
98,2605,Curtin,71,https://www.auhouseprices.com/sold/list/ACT/2605/Curtin/,9 Dry Street ,-35.3356350,149.0841370,house,4,2,2,"$1,100,000",25 Feb 2019,https://www.auhouseprices.com/sold/view/ACT/341959169/9+Dry+Street%2C+Curtin+ACT/
99,2605,Curtin,71,https://www.auhouseprices.com/sold/list/ACT/2605/Curtin/,21 James Place ,-35.3349230,149.0790100,house,3,2,2,"$885,000",23 Feb 2019,https://www.auhouseprices.com/sold/view/ACT/341986969/21+James+Place%2C+Curtin+ACT/
100,2605,Curtin,71,https://www.auhouseprices.com/sold/list/ACT/2605/Curtin/,46 Kidston Crescent ,-35.3209270,149.0824120,house,4,1,2,"$897,000",21 Feb 2019,https://www.auhouseprices.com/sold/view/ACT/341367669/46+Kidston+Crescent%2C+Curtin+ACT/
101,2605,Curtin,71,https://www.auhouseprices.com/sold/list/ACT/2605/Curtin/,13 Cosgrove Street ,-35.3311450,149.0811320,house,2,1,1,"$630,000",18 Feb 2019,https://www.auhouseprices.com/sold/view/ACT/341481369/13+Cosgrove+Street%2C+Curtin+ACT/
102,2605,Curtin,71,https://www.auhouseprices.com/sold/list/ACT/2605/Curtin/,82 Dunstan Street ,-35.3181230,149.0714900,house,5,4,4,"$2,315,000",16 Feb 2019,https://www.auhouseprices.com/sold/view/ACT/341132669/82+Dunstan+Street%2C+Curtin+ACT/
103,2605,Curtin,71,https://www.auhouseprices.com/sold/list/ACT/2605/Curtin/,2/141 Carruthers Street ,-35.3235960,149.0809350,house,2,1,1,"$305,000",13 Feb 2019,https://www.auhouseprices.com/sold/view/ACT/341027569/2-141+Carruthers+Street%2C+Curtin+ACT/
104,2605,Curtin,71,https://www.auhouseprices.com/sold/list/ACT/2605/Curtin/,38 Cockburn Street ,-35.3240110,149.0719090,house,3,2,4,"$965,000",2 Feb 2019,https://www.auhouseprices.com/sold/view/ACT/341264459/38+Cockburn+Street%2C+Curtin+ACT/
105,2605,Curtin,71,https://www.auhouseprices.com/sold/list/ACT/2605/Curtin/,12 Ayers Place ,-35.3242240,149.0782120,house,4,1,1,"$815,000",15 Jan 2019,https://www.auhouseprices.com/sold/view/ACT/341730259/12+Ayers+Place%2C+Curtin+ACT/
106,2605,Curtin,71,https://www.auhouseprices.com/sold/list/ACT/2605/Curtin/,52 Throssell Street ,-35.3196700,149.0771190,house,4,2,2,"$775,000",20 Dec 2018,https://www.auhouseprices.com/sold/view/ACT/341208159/52+Throssell+Street%2C+Curtin+ACT/
107,2605,Curtin,71,https://www.auhouseprices.com/sold/list/ACT/2605/Curtin/,54 Munro Street ,-35.3295400,149.0718210,house,4,2,3,"$1,650,000",1 Dec 2018,https://www.auhouseprices.com/sold/view/ACT/341120959/54+Munro+Street%2C+Curtin+ACT/
108,2605,Curtin,71,https://www.auhouseprices.com/sold/list/ACT/2605/Curtin/,33 Allan Street ,-35.3221870,149.0868810,house,4,2,1,"$825,000",11 Nov 2018,https://www.auhouseprices.com/sold/view/ACT/341350659/33+Allan+Street%2C+Curtin+ACT/
109,2605,Curtin,71,https://www.auhouseprices.com/sold/list/ACT/2605/Curtin/,81 Allan Street ,-35.3245220,149.0855670,house,4,2,2,"$930,000",10 Nov 2018,https://www.auhouseprices.com/sold/view/ACT/341588559/81+Allan+Street%2C+Curtin+ACT/
110,2605,Curtin,71,https://www.auhouseprices.com/sold/list/ACT/2605/Curtin/,6 Storey Street ,-35.3225220,149.0755500,house,3,1,4,"$920,000",10 Nov 2018,https://www.auhouseprices.com/sold/view/ACT/341298559/6+Storey+Street%2C+Curtin+ACT/
111,2605,Curtin,71,https://www.auhouseprices.com/sold/list/ACT/2605/Curtin/,19 Propsting Street ,-35.3232770,149.0802300,house,3,1,2,"$806,000",3 Nov 2018,https://www.auhouseprices.com/sold/view/ACT/341250559/19+Propsting+Street%2C+Curtin+ACT/
112,2605,Curtin,71,https://www.auhouseprices.com/sold/list/ACT/2605/Curtin/,3 Macalister Crescent ,-35.3352950,149.0819070,house,3,1,2,"$830,000",27 Oct 2018,https://www.auhouseprices.com/sold/view/ACT/341681449/3+Macalister+Crescent%2C+Curtin+ACT/
113,2605,Curtin,71,https://www.auhouseprices.com/sold/list/ACT/2605/Curtin/,39 Jennings Street ,-35.3242230,149.0715530,house,4,1,1,"$1,070,000",19 Oct 2018,https://www.auhouseprices.com/sold/view/ACT/341871349/39+Jennings+Street%2C+Curtin+ACT/
114,2605,Curtin,71,https://www.auhouseprices.com/sold/list/ACT/2605/Curtin/,6 Bray Place ,-35.3301360,149.0823200,house,3,2,1,"$850,000",19 Sep 2018,https://www.auhouseprices.com/sold/view/ACT/341007339/6+Bray+Place%2C+Curtin+ACT/
115,2605,Curtin,71,https://www.auhouseprices.com/sold/list/ACT/2605/Curtin/,90 Carruthers Street ,-35.3256230,149.0761400,house,4,2,2,"$1,070,000",15 Sep 2018,https://www.auhouseprices.com/sold/view/ACT/341513339/90+Carruthers+Street%2C+Curtin+ACT/
116,2605,Curtin,71,https://www.auhouseprices.com/sold/list/ACT/2605/Curtin/,49 Bavin Street ,-35.3311970,149.0740980,house,3,1,1,"$895,000",8 Sep 2018,https://www.auhouseprices.com/sold/view/ACT/341984239/49+Bavin+Street%2C+Curtin+ACT/
117,2605,Curtin,71,https://www.auhouseprices.com/sold/list/ACT/2605/Curtin/,22 O'Shanassy Street ,-35.3194950,149.0738280,house,3,1,1,"$865,000",25 Aug 2018,https://www.auhouseprices.com/sold/view/ACT/341489039/22+O%27Shanassy+Street%2C+Curtin+ACT/
118,2605,Curtin,71,https://www.auhouseprices.com/sold/list/ACT/2605/Curtin/,9/1 Waddell Place ,-35.3251720,149.0806630,apartment,2,1,1,"$372,500",23 Aug 2018,https://www.auhouseprices.com/sold/view/ACT/341117039/9-1+Waddell+Place%2C+Curtin+ACT/
119,2605,Curtin,71,https://www.auhouseprices.com/sold/list/ACT/2605/Curtin/,6 Crowther Place ,-35.3214290,149.0791600,house,3,1,2,"$815,000",20 Aug 2018,https://www.auhouseprices.com/sold/view/ACT/341084039/6+Crowther+Place%2C+Curtin+ACT/
120,2605,Curtin,71,https://www.auhouseprices.com/sold/list/ACT/2605/Curtin/,38 McCulloch Street ,-35.3208470,149.0820200,house,3,1,2,"$800,000",21 Jul 2018,https://www.auhouseprices.com/sold/view/ACT/341106739/38+McCulloch+Street%2C+Curtin+ACT/
121,2605,Curtin,71,https://www.auhouseprices.com/sold/list/ACT/2605/Curtin/,38 Allan Street ,-35.3241550,149.0845160,house,3,1,2,"$900,000",14 Jul 2018,https://www.auhouseprices.com/sold/view/ACT/341536639/38+Allan+Street%2C+Curtin+ACT/
122,2605,Curtin,71,https://www.auhouseprices.com/sold/list/ACT/2605/Curtin/,23 Gillies Street ,-35.3242340,149.0842800,house,4,1,2,"$921,000",7 Jul 2018,https://www.auhouseprices.com/sold/view/ACT/341709539/23+Gillies+Street%2C+Curtin+ACT/
123,2605,Curtin,71,https://www.auhouseprices.com/sold/list/ACT/2605/Curtin/,15 Sladen Place ,-35.3193400,149.0800140,house,3,1,1,"$898,000",7 Jul 2018,https://www.auhouseprices.com/sold/view/ACT/341419539/15+Sladen+Place%2C+Curtin+ACT/
124,2605,Curtin,71,https://www.auhouseprices.com/sold/list/ACT/2605/Curtin/,6 Elmslie Place ,-35.3175320,149.0736970,house,4,2,2,"$1,280,000",Jun 2018,https://www.auhouseprices.com/sold/view/ACT/341751328/6+Elmslie+Place%2C+Curtin+ACT/
125,2605,Curtin,71,https://www.auhouseprices.com/sold/list/ACT/2605/Curtin/,18 Prendergast Street ,-35.3208770,149.0781600,house,3,1,1,"$890,000",19 May 2018,https://www.auhouseprices.com/sold/view/ACT/341004128/18+Prendergast+Street%2C+Curtin+ACT/
126,2605,Curtin,71,https://www.auhouseprices.com/sold/list/ACT/2605/Curtin/,44 Wilson Street ,-35.3340400,149.0766880,house,3,2,2,"$1,250,000",17 May 2018,https://www.auhouseprices.com/sold/view/ACT/342000028/44+Wilson+Street%2C+Curtin+ACT/
127,2605,Curtin,71,https://www.auhouseprices.com/sold/list/ACT/2605/Curtin/,14 Reibey Place ,-35.3268580,149.0717780,house,4,3,2,"$2,130,000",20 Apr 2018,https://www.auhouseprices.com/sold/view/ACT/341816728/14+Reibey+Place%2C+Curtin+ACT/
128,2605,Curtin,71,https://www.auhouseprices.com/sold/list/ACT/2605/Curtin/,16 Storey Street ,-35.3222050,149.0765700,house,3,2,2,"$880,000",14 Apr 2018,https://www.auhouseprices.com/sold/view/ACT/341927628/16+Storey+Street%2C+Curtin+ACT/
129,2605,Curtin,71,https://www.auhouseprices.com/sold/list/ACT/2605/Curtin/,14/15 Strangways Street ,-35.3250900,149.0810550,apartment,1,1,1,"$330,000",11 Apr 2018,https://www.auhouseprices.com/sold/view/ACT/341575628/14-15+Strangways+Street%2C+Curtin+ACT/
130,2605,Curtin,71,https://www.auhouseprices.com/sold/list/ACT/2605/Curtin/,24 Munro Place ,-35.3274330,149.0723280,house,4,2,2,"$1,255,000",9 Apr 2018,https://www.auhouseprices.com/sold/view/ACT/341285628/24+Munro+Place%2C+Curtin+ACT/
131,2605,Curtin,71,https://www.auhouseprices.com/sold/list/ACT/2605/Curtin/,50 Morgan Crescent ,-35.3195100,149.0863200,house,4,3,3,"$2,050,000",24 Mar 2018,https://www.auhouseprices.com/sold/view/ACT/341671418/50+Morgan+Crescent%2C+Curtin+ACT/
132,2605,Curtin,71,https://www.auhouseprices.com/sold/list/ACT/2605/Curtin/,118 Theodore Street ,-35.3358460,149.0810500,house,4,2,2,"$851,000",24 Mar 2018,https://www.auhouseprices.com/sold/view/ACT/341472418/118+Theodore+Street%2C+Curtin+ACT/
133,2605,Curtin,71,https://www.auhouseprices.com/sold/list/ACT/2605/Curtin/,51 McCormack Street ,-35.3304900,149.0743300,house,4,2,3,"$1,285,000",3 Mar 2018,https://www.auhouseprices.com/sold/view/ACT/341752118/51+McCormack+Street%2C+Curtin+ACT/
134,2605,Curtin,71,https://www.auhouseprices.com/sold/list/ACT/2605/Curtin/,20 Haines Street ,-35.3367300,149.0793200,house,4,3,2,"$2,335,000",3 Mar 2018,https://www.auhouseprices.com/sold/view/ACT/341292118/20+Haines+Street%2C+Curtin+ACT/
135,2605,Curtin,71,https://www.auhouseprices.com/sold/list/ACT/2605/Curtin/,1 Kennerley Street ,-35.3239990,149.0753250,house,2,2,2,"$780,000",24 Feb 2018,https://www.auhouseprices.com/sold/view/ACT/341848918/1+Kennerley+Street%2C+Curtin+ACT/
136,2605,Curtin,71,https://www.auhouseprices.com/sold/list/ACT/2605/Curtin/,10 See Place ,-35.3182280,149.0858910,house,4,2,2,"$1,100,000",24 Feb 2018,https://www.auhouseprices.com/sold/view/ACT/341623018/10+See+Place%2C+Curtin+ACT/
137,2605,Curtin,71,https://www.auhouseprices.com/sold/list/ACT/2605/Curtin/,24/145 Carruthers Street ,-35.3236930,149.0814280,duplex-semi-detached,1,1,1,"$260,000",23 Feb 2018,https://www.auhouseprices.com/sold/view/ACT/341347918/24-145+Carruthers+Street%2C+Curtin+ACT/
138,2605,Curtin,71,https://www.auhouseprices.com/sold/list/ACT/2605/Curtin/,5 Carruthers Street ,-35.3322720,149.0791780,duplex-semi-detached,3,1,2,"$650,000",23 Feb 2018,https://www.auhouseprices.com/sold/view/ACT/341107918/5+Carruthers+Street%2C+Curtin+ACT/
139,2605,Curtin,71,https://www.auhouseprices.com/sold/list/ACT/2605/Curtin/,4 Ayers Street ,-35.3242210,149.0789910,house,4,2,4,"$1,035,000",17 Feb 2018,https://www.auhouseprices.com/sold/view/ACT/341800918/4+Ayers+Street%2C+Curtin+ACT/
140,2605,Curtin,71,https://www.auhouseprices.com/sold/list/ACT/2605/Curtin/,7 Cosgrove Street ,-35.3313020,149.0808190,townhouse,2,1,1,"$525,000",22 Jan 2018,https://www.auhouseprices.com/sold/view/ACT/341433618/7+Cosgrove+Street%2C+Curtin+ACT/
141,2605,Curtin,71,https://www.auhouseprices.com/sold/list/ACT/2605/Curtin/,6 Dawson Street ,-35.3284160,149.0827250,house,6,2,2,"$1,060,000",22 Dec 2017,https://www.auhouseprices.com/sold/view/ACT/341929408/6+Dawson+Street%2C+Curtin+ACT/
142,2605,Curtin,71,https://www.auhouseprices.com/sold/list/ACT/2605/Curtin/,122 Carruthers Street ,-35.3237640,149.0776650,house,3,1,1,"$705,000",18 Dec 2017,https://www.auhouseprices.com/sold/view/ACT/341489308/122+Carruthers+Street%2C+Curtin+ACT/
143,2605,Curtin,71,https://www.auhouseprices.com/sold/list/ACT/2605/Curtin/,18 Dawson Street ,-35.3293900,149.0833710,house,5,3,2,"$1,085,000",16 Dec 2017,https://www.auhouseprices.com/sold/view/ACT/341688308/18+Dawson+Street%2C+Curtin+ACT/
144,2605,Curtin,71,https://www.auhouseprices.com/sold/list/ACT/2605/Curtin/,13 Carruthers Street ,-35.3319400,149.0787330,house,3,2,1,"$728,650",15 Dec 2017,https://www.auhouseprices.com/sold/view/ACT/341011408/13+Carruthers+Street%2C+Curtin+ACT/
145,2605,Curtin,71,https://www.auhouseprices.com/sold/list/ACT/2605/Curtin/,31 Morehead Street ,-35.3203300,149.0724120,house,4,2,2,"$990,000",23 Nov 2017,https://www.auhouseprices.com/sold/view/ACT/341116108/31+Morehead+Street%2C+Curtin+ACT/
146,2605,Curtin,71,https://www.auhouseprices.com/sold/list/ACT/2605/Curtin/,71A Theodore Street ,-35.3319320,149.0805540,duplex-semi-detached,3,1,2,"$729,000",22 Nov 2017,https://www.auhouseprices.com/sold/view/ACT/341131408/71A+Theodore+Street%2C+Curtin+ACT/
147,2605,Curtin,71,https://www.auhouseprices.com/sold/list/ACT/2605/Curtin/,8 Thorn Place ,-35.3204760,149.0875420,house,5,3,1,"$1,030,000",20 Nov 2017,https://www.auhouseprices.com/sold/view/ACT/341062008/8+Thorn+Place%2C+Curtin+ACT/
148,2605,Curtin,71,https://www.auhouseprices.com/sold/list/ACT/2605/Curtin/,21 Cockburn Street ,-35.3238070,149.0724330,house,5,2,2,"$1,400,000",18 Nov 2017,https://www.auhouseprices.com/sold/view/ACT/341150869/21+Cockburn+Street%2C+Curtin+ACT/
149,2605,Curtin,71,https://www.auhouseprices.com/sold/list/ACT/2605/Curtin/,26 Jennings Street ,-35.3224240,149.0715160,house,5,2,5,"$1,000,000",14 Nov 2017,https://www.auhouseprices.com/sold/view/ACT/341102908/26+Jennings+Street%2C+Curtin+ACT/
150,2605,Curtin,71,https://www.auhouseprices.com/sold/list/ACT/2605/Curtin/,69 Dunstan Street ,-35.3184930,149.0737880,house,4,2,3,"$1,090,000",13 Nov 2017,https://www.auhouseprices.com/sold/view/ACT/341052908/69+Dunstan+Street%2C+Curtin+ACT/
151,2605,Curtin,71,https://www.auhouseprices.com/sold/list/ACT/2605/Curtin/,3 Bavin Street ,-35.3310940,149.0736930,house,4,1,4,"$950,000",13 Nov 2017,https://www.auhouseprices.com/sold/view/ACT/341093908/3+Bavin+Street%2C+Curtin+ACT/
152,2605,Curtin,71,https://www.auhouseprices.com/sold/list/ACT/2605/Curtin/,8 Cosgrove Street ,-35.3316620,149.0811140,house,2,1,1,"$502,500",11 Nov 2017,https://www.auhouseprices.com/sold/view/ACT/341568808/8+Cosgrove+Street%2C+Curtin+ACT/
153,2605,Curtin,71,https://www.auhouseprices.com/sold/list/ACT/2605/Curtin/,44 Kidston Crescent ,-35.3207340,149.0824050,house,4,2,2,"$1,076,000",11 Nov 2017,https://www.auhouseprices.com/sold/view/ACT/341158808/44+Kidston+Crescent%2C+Curtin+ACT/
154,2605,Curtin,71,https://www.auhouseprices.com/sold/list/ACT/2605/Curtin/,25 Kidston Crescent ,-35.3202020,149.0832980,house,4,3,2,"$1,040,000",11 Nov 2017,https://www.auhouseprices.com/sold/view/ACT/341477808/25+Kidston+Crescent%2C+Curtin+ACT/
155,2605,Curtin,71,https://www.auhouseprices.com/sold/list/ACT/2605/Curtin/,48 Dunstan Street ,-35.3180060,149.0759000,house,3,1,2,"$862,000",11 Nov 2017,https://www.auhouseprices.com/sold/view/ACT/341489808/48+Dunstan+Street%2C+Curtin+ACT/
156,2605,Curtin,71,https://www.auhouseprices.com/sold/list/ACT/2605/Curtin/,13 Wilson Street ,-35.3330460,149.0762630,house,3,1,3,"$930,000",3 Nov 2017,https://www.auhouseprices.com/sold/view/ACT/341787708/13+Wilson+Street%2C+Curtin+ACT/
157,2605,Curtin,71,https://www.auhouseprices.com/sold/list/ACT/2605/Curtin/,16 Haines Street ,-35.3365210,149.0791400,house,4,2,1,"$1,127,500",28 Oct 2017,https://www.auhouseprices.com/sold/view/ACT/341596608/16+Haines+Street%2C+Curtin+ACT/
158,2605,Curtin,71,https://www.auhouseprices.com/sold/list/ACT/2605/Curtin/,77 Morgan Crescent ,-35.3191800,149.0849190,house,3,1,1,"$895,000",19 Oct 2017,https://www.auhouseprices.com/sold/view/ACT/341945498/77+Morgan+Crescent%2C+Curtin+ACT/
159,2605,Curtin,71,https://www.auhouseprices.com/sold/list/ACT/2605/Curtin/,2 and 4 Blyth Place ,-35.3251830,149.0779450,house,4,2,2,"$799,000",11 Oct 2017,https://www.auhouseprices.com/sold/view/ACT/341778398/2+and+4+Blyth+Place%2C+Curtin+ACT/
160,2605,Curtin,71,https://www.auhouseprices.com/sold/list/ACT/2605/Curtin/,10 Storey Street ,-35.3223140,149.0759110,house,3,1,1,"$745,000",9 Oct 2017,https://www.auhouseprices.com/sold/view/ACT/341265398/10+Storey+Street%2C+Curtin+ACT/
161,2605,Curtin,71,https://www.auhouseprices.com/sold/list/ACT/2605/Curtin/,13 Parker Street ,-35.3274070,149.0843210,house,3,1,1,"$820,000",5 Oct 2017,https://www.auhouseprices.com/sold/view/ACT/341663398/13+Parker+Street%2C+Curtin+ACT/
162,2605,Curtin,71,https://www.auhouseprices.com/sold/list/ACT/2605/Curtin/,12 Haines Street ,-35.3364840,149.0787080,house,5,1,2,"$1,100,000",16 Sep 2017,https://www.auhouseprices.com/sold/view/ACT/341765198/12+Haines+Street%2C+Curtin+ACT/
163,2605,Curtin,71,https://www.auhouseprices.com/sold/list/ACT/2605/Curtin/,25 Macalister ,-35.3337600,149.0805550,duplex-semi-detached,3,1,3,"$727,500",10 Sep 2017,https://www.auhouseprices.com/sold/view/ACT/341900098/25+Macalister%2C+Curtin+ACT/
164,2605,Curtin,71,https://www.auhouseprices.com/sold/list/ACT/2605/Curtin/,9 Gregson Place ,-35.3176230,149.0755200,house,4,3,1,"$1,232,500",5 Aug 2017,https://www.auhouseprices.com/sold/view/ACT/341650698/9+Gregson+Place%2C+Curtin+ACT/
165,2605,Curtin,71,https://www.auhouseprices.com/sold/list/ACT/2605/Curtin/,79a Theodore Street ,-35.3327810,149.0802110,apartment,3,1,2,"$711,000",15 Jul 2017,https://www.auhouseprices.com/sold/view/ACT/341111598/79a+Theodore+Street%2C+Curtin+ACT/
166,2605,Curtin,71,https://www.auhouseprices.com/sold/list/ACT/2605/Curtin/,26 Holman Street ,-35.3319170,149.0832200,house,4,1,1,"$792,500",1 Jul 2017,https://www.auhouseprices.com/sold/view/ACT/341524288/26+Holman+Street%2C+Curtin+ACT/
167,2605,Curtin,71,https://www.auhouseprices.com/sold/list/ACT/2605/Curtin/,6/141 Carruthers Street ,-35.3235960,149.0809350,apartment,2,1,1,"$280,000",23 Jun 2017,https://www.auhouseprices.com/sold/view/ACT/341440869/6-141+Carruthers+Street%2C+Curtin+ACT/
168,2605,Curtin,71,https://www.auhouseprices.com/sold/list/ACT/2605/Curtin/,11 Dawson Street ,-35.3282950,149.0833470,house,5,2,2,"$1,200,000",21 Jun 2017,https://www.auhouseprices.com/sold/view/ACT/341043188/11+Dawson+Street%2C+Curtin+ACT/
169,2605,Curtin,71,https://www.auhouseprices.com/sold/list/ACT/2605/Curtin/,30 Macalister Crescent ,-35.3329950,149.0811080,house,6,2,1,"$845,000",21 Jun 2017,https://www.auhouseprices.com/sold/view/ACT/341659188/30+Macalister+Crescent%2C+Curtin+ACT/
170,2605,Curtin,71,https://www.auhouseprices.com/sold/list/ACT/2605/Curtin/,42 Robertson Street ,-35.3200440,149.0767500,house,5,2,2,"$1,220,000",3 Jun 2017,https://www.auhouseprices.com/sold/view/ACT/341724988/42+Robertson+Street%2C+Curtin+ACT/
171,2605,Curtin,71,https://www.auhouseprices.com/sold/list/ACT/2605/Curtin/,26 Collier Street ,-35.3327290,149.0824290,house,3,2,2,"$781,000",27 May 2017,https://www.auhouseprices.com/sold/view/ACT/341375888/26+Collier+Street%2C+Curtin+ACT/
172,2605,Curtin,71,https://www.auhouseprices.com/sold/list/ACT/2605/Curtin/,22 Collier Street ,-35.3330010,149.0821630,house,3,1,1,"$696,000",20 May 2017,https://www.auhouseprices.com/sold/view/ACT/341064788/22+Collier+Street%2C+Curtin+ACT/
173,2605,Curtin,71,https://www.auhouseprices.com/sold/list/ACT/2605/Curtin/,6 Kennerley Street ,-35.3237150,149.0745500,house,4,1,1,"$790,000",20 May 2017,https://www.auhouseprices.com/sold/view/ACT/341896788/6+Kennerley+Street%2C+Curtin+ACT/
174,2605,Curtin,71,https://www.auhouseprices.com/sold/list/ACT/2605/Curtin/,7 McCormack Place ,-35.3288270,149.0751000,house,4,3,3,"$1,425,000",13 May 2017,https://www.auhouseprices.com/sold/view/ACT/341995688/7+McCormack+Place%2C+Curtin+ACT/
175,2605,Curtin,71,https://www.auhouseprices.com/sold/list/ACT/2605/Curtin/,19 McCulloch Street ,-35.3225630,149.0820600,house,3,1,1,"$880,000",6 May 2017,https://www.auhouseprices.com/sold/view/ACT/341626588/19+McCulloch+Street%2C+Curtin+ACT/
176,2605,Curtin,71,https://www.auhouseprices.com/sold/list/ACT/2605/Curtin/,39 Kidston Crescent ,-35.3214720,149.0833000,house,4,3,1,"$1,015,000",29 Apr 2017,https://www.auhouseprices.com/sold/view/ACT/341130588/39+Kidston+Crescent%2C+Curtin+ACT/
177,2605,Curtin,71,https://www.auhouseprices.com/sold/list/ACT/2605/Curtin/,16 Robertson Street ,-35.3213470,149.0768620,house,4,2,3,"$925,000",26 Apr 2017,https://www.auhouseprices.com/sold/view/ACT/341465478/16+Robertson+Street%2C+Curtin+ACT/
178,2605,Curtin,71,https://www.auhouseprices.com/sold/list/ACT/2605/Curtin/,55 Dunstan Street ,-35.3186700,149.0753660,house,4,1,2,"$890,000",8 Apr 2017,https://www.auhouseprices.com/sold/view/ACT/341022378/55+Dunstan+Street%2C+Curtin+ACT/
179,2605,Curtin,71,https://www.auhouseprices.com/sold/list/ACT/2605/Curtin/,79 Theodore Street ,-35.3326700,149.0802570,house,3,1,2,"$667,500",4 Apr 2017,https://www.auhouseprices.com/sold/view/ACT/341162278/79+Theodore+Street%2C+Curtin+ACT/
180,2605,Curtin,71,https://www.auhouseprices.com/sold/list/ACT/2605/Curtin/,5 Collier Street ,-35.3348130,149.0826610,house,4,2,2,"$925,000",1 Apr 2017,https://www.auhouseprices.com/sold/view/ACT/341409178/5+Collier+Street%2C+Curtin+ACT/
181,2605,Curtin,71,https://www.auhouseprices.com/sold/list/ACT/2605/Curtin/,4 Rason Place ,-35.3327200,149.0790460,house,6,3,1,"$905,000",1 Apr 2017,https://www.auhouseprices.com/sold/view/ACT/341620178/4+Rason+Place%2C+Curtin+ACT/
182,2605,Curtin,71,https://www.auhouseprices.com/sold/list/ACT/2605/Curtin/,30/1 Mcculloch Street ,-35.3238110,149.0822760,apartment,2,1,1,"$296,000",1 Apr 2017,https://www.auhouseprices.com/sold/view/ACT/341560869/30-1+Mcculloch+Street%2C+Curtin+ACT/
183,2605,Curtin,71,https://www.auhouseprices.com/sold/list/ACT/2605/Curtin/,2/83 Carruthers Street ,-35.3256450,149.0749460,house,3,2,2,"$792,500",31 Mar 2017,https://www.auhouseprices.com/sold/view/ACT/341113588/2-83+Carruthers+Street%2C+Curtin+ACT/
184,2605,Curtin,71,https://www.auhouseprices.com/sold/list/ACT/2605/Curtin/,10 Gregson Place ,-35.3170350,149.0761040,house,4,2,2,"$1,165,000",25 Mar 2017,https://www.auhouseprices.com/sold/view/ACT/341789078/10+Gregson+Place%2C+Curtin+ACT/
185,2605,Curtin,71,https://www.auhouseprices.com/sold/list/ACT/2605/Curtin/,10/15 Strangways Street ,-35.3250900,149.0810550,apartment,4,3,2,"$683,000",7 Mar 2017,https://www.auhouseprices.com/sold/view/ACT/341382878/10-15+Strangways+Street%2C+Curtin+ACT/
186,2605,Curtin,71,https://www.auhouseprices.com/sold/list/ACT/2605/Curtin/,10 McLean Place ,-35.3258400,149.0768100,house,4,2,2,"$992,000",4 Mar 2017,https://www.auhouseprices.com/sold/view/ACT/341778778/10+McLean++Place%2C+Curtin+ACT/
187,2605,Curtin,71,https://www.auhouseprices.com/sold/list/ACT/2605/Curtin/,11 Argyle Place ,-35.3280640,149.0774000,house,4,3,3,"$1,010,000",4 Mar 2017,https://www.auhouseprices.com/sold/view/ACT/341300878/11+Argyle+Place%2C+Curtin+ACT/
188,2605,Curtin,71,https://www.auhouseprices.com/sold/list/ACT/2605/Curtin/,36 Macalister Crescent ,-35.3324970,149.0813800,house,4,2,1,"$1,180,000",25 Feb 2017,https://www.auhouseprices.com/sold/view/ACT/341558678/36+Macalister+Crescent%2C+Curtin+ACT/
189,2605,Curtin,71,https://www.auhouseprices.com/sold/list/ACT/2605/Curtin/,4 Reynolds Street ,-35.3212000,149.0810400,house,5,2,2,"$1,150,000",25 Feb 2017,https://www.auhouseprices.com/sold/view/ACT/341239678/4+Reynolds+Street%2C+Curtin+ACT/
190,2605,Curtin,71,https://www.auhouseprices.com/sold/list/ACT/2605/Curtin/,35 James Place ,-35.3336740,149.0785190,house,3,1,1,"$737,500",25 Feb 2017,https://www.auhouseprices.com/sold/view/ACT/341807678/35+James+Place%2C+Curtin+ACT/
191,2605,Curtin,71,https://www.auhouseprices.com/sold/list/ACT/2605/Curtin/,130 Carruthers Street ,-35.3239880,149.0786180,house,4,2,1,"$840,000",24 Feb 2017,https://www.auhouseprices.com/sold/view/ACT/341786678/130+Carruthers+Street%2C+Curtin+ACT/
192,2605,Curtin,71,https://www.auhouseprices.com/sold/list/ACT/2605/Curtin/,28B Gillies Street ,-35.3232880,149.0833100,house,3,2,2,"$842,500",18 Feb 2017,https://www.auhouseprices.com/sold/view/ACT/341367578/28B+Gillies+Street%2C+Curtin+ACT/
193,2605,Curtin,71,https://www.auhouseprices.com/sold/list/ACT/2605/Curtin/,11 Waterhouse Street ,-35.3180660,149.0822100,house,4,2,2,"$1,145,000",11 Feb 2017,https://www.auhouseprices.com/sold/view/ACT/341848468/11+Waterhouse+Street%2C+Curtin+ACT/
194,2605,Curtin,71,https://www.auhouseprices.com/sold/list/ACT/2605/Curtin/,54 James Street ,-35.3356160,149.0805330,house,4,2,2,"$950,000",4 Feb 2017,https://www.auhouseprices.com/sold/view/ACT/341030869/54+James+Street%2C+Curtin+ACT/
195,2605,Curtin,71,https://www.auhouseprices.com/sold/list/ACT/2605/Curtin/,5 Argyle Place ,-35.3285060,149.0768900,house,4,2,1,"$730,000",10 Dec 2016,https://www.auhouseprices.com/sold/view/ACT/341894968/5+Argyle+Place%2C+Curtin+ACT/
196,2605,Curtin,71,https://www.auhouseprices.com/sold/list/ACT/2605/Curtin/,8 Gregson Place ,-35.3171160,149.0763500,house,4,2,1,"$1,175,000",26 Nov 2016,https://www.auhouseprices.com/sold/view/ACT/341454768/8+Gregson+Place%2C+Curtin+ACT/
197,2605,Curtin,71,https://www.auhouseprices.com/sold/list/ACT/2605/Curtin/,34 Collier Street ,-35.3320850,149.0828000,house,3,1,1,"$725,000",19 Nov 2016,https://www.auhouseprices.com/sold/view/ACT/341855668/34+Collier++Street%2C+Curtin+ACT/
198,2605,Curtin,71,https://www.auhouseprices.com/sold/list/ACT/2605/Curtin/,6 McCormack Street ,-35.3279010,149.0749730,house,3,2,4,"$852,000",19 Nov 2016,https://www.auhouseprices.com/sold/view/ACT/341814668/6+McCormack+Street%2C+Curtin+ACT/
199,2605,Curtin,71,https://www.auhouseprices.com/sold/list/ACT/2605/Curtin/,3B Waterhouse Street ,-35.3187400,149.0825870,duplex-semi-detached,3,2,2,"$815,000",6 Nov 2016,https://www.auhouseprices.com/sold/view/ACT/341519458/3B+Waterhouse+Street%2C+Curtin+ACT/
200,2605,Curtin,71,https://www.auhouseprices.com/sold/list/ACT/2605/Curtin/,11 Douglas Place ,-35.3262500,149.0748300,house,3,2,2,"$917,500",29 Oct 2016,https://www.auhouseprices.com/sold/view/ACT/341966358/11+Douglas+Place%2C+Curtin+ACT/
201,2605,Curtin,71,https://www.auhouseprices.com/sold/list/ACT/2605/Curtin/,9 Verran Place ,-35.3184120,149.0862610,house,4,2,2,"$950,000",20 Oct 2016,https://www.auhouseprices.com/sold/view/ACT/341216258/9+Verran+Place%2C+Curtin+ACT/
202,2605,Curtin,71,https://www.auhouseprices.com/sold/list/ACT/2605/Curtin/,19 Parker Street ,-35.3279900,149.0843500,house,4,2,1,"$950,000",15 Oct 2016,https://www.auhouseprices.com/sold/view/ACT/341869158/19+Parker+Street%2C+Curtin+ACT/
203,2605,Curtin,71,https://www.auhouseprices.com/sold/list/ACT/2605/Curtin/,16 Parker Street ,-35.3277170,149.0837420,house,4,2,2,"$885,000",15 Oct 2016,https://www.auhouseprices.com/sold/view/ACT/341631258/16+Parker+Street%2C+Curtin+ACT/
204,2605,Curtin,71,https://www.auhouseprices.com/sold/list/ACT/2605/Curtin/,11 Haines Street ,-35.3365310,149.0798400,house,4,3,2,"$1,290,000",1 Oct 2016,https://www.auhouseprices.com/sold/view/ACT/341563058/11+Haines+Street%2C+Curtin+ACT/
205,2605,Curtin,71,https://www.auhouseprices.com/sold/list/ACT/2605/Curtin/,23 Dunstan Street ,-35.3188400,149.0788600,house,3,1,1,"$820,000",24 Sep 2016,https://www.auhouseprices.com/sold/view/ACT/341975958/23+Dunstan+Street%2C+Curtin+ACT/
206,2605,Curtin,71,https://www.auhouseprices.com/sold/list/ACT/2605/Curtin/,23 Ryan Street ,-35.3229310,149.0847410,house,3,2,1,"$805,000",17 Sep 2016,https://www.auhouseprices.com/sold/view/ACT/341386858/23+Ryan+Street%2C+Curtin+ACT/
207,2605,Curtin,71,https://www.auhouseprices.com/sold/list/ACT/2605/Curtin/,5 Douglas Place ,-35.3257020,149.0745350,house,3,2,2,"$975,000",3 Sep 2016,https://www.auhouseprices.com/sold/view/ACT/341722758/5+Douglas+Place%2C+Curtin+ACT/
208,2605,Curtin,71,https://www.auhouseprices.com/sold/list/ACT/2605/Curtin/,32 Holman Street ,-35.3324170,149.0833700,house,3,2,1,"$858,000",27 Aug 2016,https://www.auhouseprices.com/sold/view/ACT/341675658/32+Holman+Street%2C+Curtin+ACT/
209,2605,Curtin,71,https://www.auhouseprices.com/sold/list/ACT/2605/Curtin/,6 Jenkins Street ,-35.3232230,149.0760200,house,3,1,2,"$776,000",20 Aug 2016,https://www.auhouseprices.com/sold/view/ACT/341098558/6+Jenkins+Street%2C+Curtin+ACT/
210,2605,Curtin,71,https://www.auhouseprices.com/sold/list/ACT/2605/Curtin/,39 Bavin Street ,-35.3321340,149.0742500,house,3,1,1,"$830,000",20 Aug 2016,https://www.auhouseprices.com/sold/view/ACT/341177558/39+Bavin+Street%2C+Curtin+ACT/
211,2605,Curtin,71,https://www.auhouseprices.com/sold/list/ACT/2605/Curtin/,25 Munro Street ,-35.3298840,149.0726300,house,4,2,2,"$980,000",20 Aug 2016,https://www.auhouseprices.com/sold/view/ACT/341877558/25+Munro+Street%2C+Curtin+ACT/
212,2605,Curtin,71,https://www.auhouseprices.com/sold/list/ACT/2605/Curtin/,7 Collier Street ,-35.3346630,149.0824900,house,3,1,2,"$690,000",13 Aug 2016,https://www.auhouseprices.com/sold/view/ACT/341033558/7+Collier+Street%2C+Curtin+ACT/
213,2605,Curtin,71,https://www.auhouseprices.com/sold/list/ACT/2605/Curtin/,98 Dunstan Street ,-35.3201520,149.0708600,house,5,3,2,"$1,225,000",6 Aug 2016,https://www.auhouseprices.com/sold/view/ACT/341207448/98+Dunstan+Street%2C+Curtin+ACT/
214,2605,Curtin,71,https://www.auhouseprices.com/sold/list/ACT/2605/Curtin/,40 Robertson Street ,-35.3200070,149.0770000,house,3,2,2,"$875,000",30 Jul 2016,https://www.auhouseprices.com/sold/view/ACT/341071448/40+Robertson+Street%2C+Curtin+ACT/
215,2605,Curtin,71,https://www.auhouseprices.com/sold/list/ACT/2605/Curtin/,10 Ayers Place ,-35.3243140,149.0784000,house,3,1,3,"$815,000",30 Jul 2016,https://www.auhouseprices.com/sold/view/ACT/341771448/10+Ayers+Place%2C+Curtin+ACT/
216,2605,Curtin,71,https://www.auhouseprices.com/sold/list/ACT/2605/Curtin/,5 Carruthers Street ,-35.3322720,149.0791780,house,3,1,2,"$550,000",20 Jul 2016,https://www.auhouseprices.com/sold/view/ACT/341203348/5+Carruthers+Street%2C+Curtin+ACT/
217,2605,Curtin,71,https://www.auhouseprices.com/sold/list/ACT/2605/Curtin/,1/6 Blyth Place ,-35.3255790,149.0779250,house,3,2,1,"$712,500",4 Jun 2016,https://www.auhouseprices.com/sold/view/ACT/341241948/1-6+Blyth+Place%2C+Curtin+ACT/
218,2605,Curtin,71,https://www.auhouseprices.com/sold/list/ACT/2605/Curtin/,14A Ayers Place ,-35.3241160,149.0780200,house,3,2,1,"$760,000",21 May 2016,https://www.auhouseprices.com/sold/view/ACT/341144748/14A+Ayers+Place%2C+Curtin+ACT/
219,2605,Curtin,71,https://www.auhouseprices.com/sold/list/ACT/2605/Curtin/,9B Ryan Street ,-35.3220600,149.0859100,house,3,2,2,"$930,000",20 May 2016,https://www.auhouseprices.com/sold/view/ACT/341343748/9B+Ryan+Street%2C+Curtin+ACT/
220,2605,Curtin,71,https://www.auhouseprices.com/sold/list/ACT/2605/Curtin/,34 MacAlister Crescent ,-35.3326520,149.0812570,house,4,1,1,"$1,040,000",20 May 2016,https://www.auhouseprices.com/sold/view/ACT/341276748/34+MacAlister+Crescent%2C+Curtin+ACT/
221,2605,Curtin,71,https://www.auhouseprices.com/sold/list/ACT/2605/Curtin/,33 Cockburn Street ,-35.3248800,149.0731440,house,3,2,2,"$720,000",5 May 2016,https://www.auhouseprices.com/sold/view/ACT/341179548/33+Cockburn+Street%2C+Curtin+ACT/
222,2605,Curtin,71,https://www.auhouseprices.com/sold/list/ACT/2605/Curtin/,36 Mcculloch Street ,-35.3210490,149.0820520,house,4,2,2,"$1,150,000",3 May 2016,https://www.auhouseprices.com/sold/view/ACT/341730869/36+Mcculloch+Street%2C+Curtin+ACT/
223,2605,Curtin,71,https://www.auhouseprices.com/sold/list/ACT/2605/Curtin/,4 Jennings Street ,-35.3217300,149.0742200,house,4,2,1,"$1,050,000",30 Apr 2016,https://www.auhouseprices.com/sold/view/ACT/341603548/4+Jennings+Street%2C+Curtin+ACT/
224,2605,Curtin,71,https://www.auhouseprices.com/sold/list/ACT/2605/Curtin/,31/1 Waddell Place ,-35.3251720,149.0806630,house,2,2,2,"$405,000",19 Apr 2016,https://www.auhouseprices.com/sold/view/ACT/341123438/31-1+Waddell+Place%2C+Curtin+ACT/
225,2605,Curtin,71,https://www.auhouseprices.com/sold/list/ACT/2605/Curtin/,24 Colebatch Place ,-35.3283840,149.0793300,house,3,2,2,"$832,000",9 Apr 2016,https://www.auhouseprices.com/sold/view/ACT/341383338/24+Colebatch+Place%2C+Curtin+ACT/
226,2605,Curtin,71,https://www.auhouseprices.com/sold/list/ACT/2605/Curtin/,29 Dunstan Street ,-35.3184100,149.0782450,house,3,1,2,"$801,000",30 Mar 2016,https://www.auhouseprices.com/sold/view/ACT/341561238/29+Dunstan+Street%2C+Curtin+ACT/
227,2605,Curtin,71,https://www.auhouseprices.com/sold/list/ACT/2605/Curtin/,5 Mair Place ,-35.3278930,149.0760430,house,4,2,2,"$697,000",24 Mar 2016,https://www.auhouseprices.com/sold/view/ACT/341849138/5+Mair+Place%2C+Curtin+ACT/
228,2605,Curtin,71,https://www.auhouseprices.com/sold/list/ACT/2605/Curtin/,75A Theodore Street ,-35.3323360,149.0803800,house,3,1,2,"$620,000",19 Mar 2016,https://www.auhouseprices.com/sold/view/ACT/341552138/75A+Theodore+Street%2C+Curtin+ACT/
229,2605,Curtin,71,https://www.auhouseprices.com/sold/list/ACT/2605/Curtin/,57 Macalister Crescent ,-35.3311420,149.0818890,house,5,2,2,"$1,400,000",12 Mar 2016,https://www.auhouseprices.com/sold/view/ACT/341145038/57+Macalister+Crescent%2C+Curtin+ACT/
230,2605,Curtin,71,https://www.auhouseprices.com/sold/list/ACT/2605/Curtin/,36 Parker Street ,-35.3290900,149.0821500,house,3,1,3,"$680,000",12 Mar 2016,https://www.auhouseprices.com/sold/view/ACT/341605038/36+Parker+Street%2C+Curtin+ACT/
231,2605,Curtin,71,https://www.auhouseprices.com/sold/list/ACT/2605/Curtin/,18 Haines Street ,-35.3367000,149.0789000,house,5,2,2,"$835,000",5 Mar 2016,https://www.auhouseprices.com/sold/view/ACT/341387938/18+Haines+Street%2C+Curtin+ACT/
232,2605,Curtin,71,https://www.auhouseprices.com/sold/list/ACT/2605/Curtin/,26/1 Waddell Place ,-35.3251720,149.0806630,unit,2,1,1,"$380,000",18 Feb 2016,https://www.auhouseprices.com/sold/view/ACT/341477738/26-1+Waddell+Place%2C+Curtin+ACT/
233,2605,Curtin,71,https://www.auhouseprices.com/sold/list/ACT/2605/Curtin/,25 Morgan Place ,-35.3203700,149.0836800,house,4,1,3,"$975,000",13 Feb 2016,https://www.auhouseprices.com/sold/view/ACT/341681738/25+Morgan+Place%2C+Curtin+ACT/
234,2605,Curtin,71,https://www.auhouseprices.com/sold/list/ACT/2605/Curtin/,7 Wilson Street ,-35.3332000,149.0769800,house,4,1,1,"$880,000",13 Feb 2016,https://www.auhouseprices.com/sold/view/ACT/341002738/7+Wilson+Street%2C+Curtin+ACT/
235,2605,Curtin,71,https://www.auhouseprices.com/sold/list/ACT/2605/Curtin/,81a Theodore Street ,-35.3329960,149.0801020,townhouse,4,1,2,"$607,500",9 Feb 2016,https://www.auhouseprices.com/sold/view/ACT/341427638/81a+Theodore+Street%2C+Curtin+ACT/
236,2605,Curtin,71,https://www.auhouseprices.com/sold/list/ACT/2605/Curtin/,43 Macalister Crescent ,-35.3321600,149.0809390,house,4,1,1,"$730,000",6 Feb 2016,https://www.auhouseprices.com/sold/view/ACT/341535638/43+Macalister+Crescent%2C+Curtin+ACT/
237,2605,Curtin,71,https://www.auhouseprices.com/sold/list/ACT/2605/Curtin/,7 Sladen Place ,-35.3192630,149.0791130,house,5,2,2,"$997,000",4 Feb 2016,https://www.auhouseprices.com/sold/view/ACT/341523638/7+Sladen+Place%2C+Curtin+ACT/
238,2605,Curtin,71,https://www.auhouseprices.com/sold/list/ACT/2605/Curtin/,25 Haines Street ,-35.3362120,149.0800600,house,3,1,1,"$730,000",12 Dec 2015,https://www.auhouseprices.com/sold/view/ACT/341467327/25+Haines+Street%2C+Curtin+ACT/
239,2605,Curtin,71,https://www.auhouseprices.com/sold/list/ACT/2605/Curtin/,65 Carruthers Street ,-35.3274570,149.0753000,house,4,2,2,"$975,000",12 Dec 2015,https://www.auhouseprices.com/sold/view/ACT/341546327/65+Carruthers+Street%2C+Curtin+ACT/
240,2605,Curtin,71,https://www.auhouseprices.com/sold/list/ACT/2605/Curtin/,48 Munro Street ,-35.3289390,149.0719110,house,6,3,2,"$1,045,000",5 Dec 2015,https://www.auhouseprices.com/sold/view/ACT/341760227/48+Munro+Street%2C+Curtin+ACT/
241,2605,Curtin,71,https://www.auhouseprices.com/sold/list/ACT/2605/Curtin/,59 Morgan Street ,-35.3204930,149.0861970,house,4,1,1,"$636,000",23 Nov 2015,https://www.auhouseprices.com/sold/view/ACT/341290827/59+Morgan+Street%2C+Curtin+ACT/
242,2605,Curtin,71,https://www.auhouseprices.com/sold/list/ACT/2605/Curtin/,91 Dunstan Street ,-35.3198220,149.0715800,house,5,3,2,"$1,380,000",21 Nov 2015,https://www.auhouseprices.com/sold/view/ACT/341487727/91+Dunstan+Street%2C+Curtin+ACT/
243,2605,Curtin,71,https://www.auhouseprices.com/sold/list/ACT/2605/Curtin/,44 Robertson Street ,-35.3200670,149.0765170,house,4,2,2,"$980,000",12 Nov 2015,https://www.auhouseprices.com/sold/view/ACT/341182827/44+Robertson+Street%2C+Curtin+ACT/
244,2605,Curtin,71,https://www.auhouseprices.com/sold/list/ACT/2605/Curtin/,16 Rason Place ,-35.3321230,149.0779000,house,4,1,1,"$840,000",7 Nov 2015,https://www.auhouseprices.com/sold/view/ACT/341401627/16+Rason+Place%2C+Curtin+ACT/
245,2605,Curtin,71,https://www.auhouseprices.com/sold/list/ACT/2605/Curtin/,18 Macalister Crescent ,-35.3341030,149.0813800,house,3,2,1,"$745,000",7 Nov 2015,https://www.auhouseprices.com/sold/view/ACT/341789517/18+Macalister+Crescent%2C+Curtin+ACT/
246,2605,Curtin,71,https://www.auhouseprices.com/sold/list/ACT/2605/Curtin/,11 Storey Street ,-35.3217600,149.0761300,house,4,2,1,"$677,600",Nov 2015,https://www.auhouseprices.com/sold/view/ACT/341173517/11+Storey+Street%2C+Curtin+ACT/
247,2605,Curtin,71,https://www.auhouseprices.com/sold/list/ACT/2605/Curtin/,4 Parker Street ,-35.3265720,149.0838500,house,3,1,2,"$750,000",24 Oct 2015,https://www.auhouseprices.com/sold/view/ACT/341152417/4++Parker+Street%2C+Curtin+ACT/
248,2605,Curtin,71,https://www.auhouseprices.com/sold/list/ACT/2605/Curtin/,18 Munro Street ,-35.3273280,149.0727000,house,4,2,3,"$1,060,000",23 Oct 2015,https://www.auhouseprices.com/sold/view/ACT/341668317/18+Munro+Street%2C+Curtin+ACT/
249,2605,Curtin,71,https://www.auhouseprices.com/sold/list/ACT/2605/Curtin/,9 Scaddan Place ,-35.3271450,149.0742500,house,4,1,2,"$805,000",17 Oct 2015,https://www.auhouseprices.com/sold/view/ACT/341081317/9+Scaddan+Place%2C+Curtin+ACT/
250,2605,Curtin,71,https://www.auhouseprices.com/sold/list/ACT/2605/Curtin/,3 Champ Place ,-35.3314800,149.0840000,house,3,2,1,"$680,000",26 Sep 2015,https://www.auhouseprices.com/sold/view/ACT/341183117/3+Champ+Place%2C+Curtin+ACT/
251,2605,Curtin,71,https://www.auhouseprices.com/sold/list/ACT/2605/Curtin/,111 Carruthers Street ,-35.3232420,149.0769700,house,4,1,1,"$862,000",12 Sep 2015,https://www.auhouseprices.com/sold/view/ACT/341267917/111+Carruthers+Street%2C+Curtin+ACT/
252,2605,Curtin,71,https://www.auhouseprices.com/sold/list/ACT/2605/Curtin/,43 Bavin Street ,-35.3317380,149.0741400,house,4,3,1,"$865,000",12 Sep 2015,https://www.auhouseprices.com/sold/view/ACT/341358917/43+Bavin+Street%2C+Curtin+ACT/
253,2605,Curtin,71,https://www.auhouseprices.com/sold/list/ACT/2605/Curtin/,23 James Place ,-35.3347660,149.0787700,house,3,1,2,"$766,000",29 Aug 2015,https://www.auhouseprices.com/sold/view/ACT/341524817/23+James+Place%2C+Curtin+ACT/
254,2605,Curtin,71,https://www.auhouseprices.com/sold/list/ACT/2605/Curtin/,15 Nelson Place ,-35.3268740,149.0774400,house,4,3,2,"$825,000",29 Aug 2015,https://www.auhouseprices.com/sold/view/ACT/341723817/15++Nelson+Place%2C+Curtin+ACT/
255,2605,Curtin,71,https://www.auhouseprices.com/sold/list/ACT/2605/Curtin/,9 Morehead Street ,-35.3192560,149.0734300,house,3,1,1,"$836,000",22 Aug 2015,https://www.auhouseprices.com/sold/view/ACT/341436717/9+Morehead+Street%2C+Curtin+ACT/
256,2605,Curtin,71,https://www.auhouseprices.com/sold/list/ACT/2605/Curtin/,12 Leake Place ,-35.3315120,149.0771300,house,4,2,1,"$819,000",15 Aug 2015,https://www.auhouseprices.com/sold/view/ACT/341547617/12+Leake+Place%2C+Curtin+ACT/
257,2605,Curtin,71,https://www.auhouseprices.com/sold/list/ACT/2605/Curtin/,6 Allan Street ,-35.3214650,149.0863800,house,3,2,1,"$907,500",8 Aug 2015,https://www.auhouseprices.com/sold/view/ACT/341540617/6++Allan+Street%2C+Curtin+ACT/
258,2605,Curtin,71,https://www.auhouseprices.com/sold/list/ACT/2605/Curtin/,34 Robertson Street ,-35.3200720,149.0777600,house,3,1,1,"$636,000",1 Aug 2015,https://www.auhouseprices.com/sold/view/ACT/341714507/34+Robertson+Street%2C+Curtin+ACT/
259,2605,Curtin,71,https://www.auhouseprices.com/sold/list/ACT/2605/Curtin/,3 Cosgrove Street ,-35.3315600,149.0808700,house,2,1,1,"$452,500",18 Jul 2015,https://www.auhouseprices.com/sold/view/ACT/341629307/3+Cosgrove+Street%2C+Curtin+ACT/
260,2605,Curtin,71,https://www.auhouseprices.com/sold/list/ACT/2605/Curtin/,11 Philp Place ,-35.3253170,149.0796000,house,4,2,2,"$860,000",27 Jun 2015,https://www.auhouseprices.com/sold/view/ACT/341719107/11+Philp+Place%2C+Curtin+ACT/
261,2605,Curtin,71,https://www.auhouseprices.com/sold/list/ACT/2605/Curtin/,11 Philp Place ,-35.3253170,149.0796000,house,4,2,2,"$860,000",27 Jun 2015,https://www.auhouseprices.com/sold/view/ACT/341932207/11+Philp+Place%2C+Curtin+ACT/
262,2605,Curtin,71,https://www.auhouseprices.com/sold/list/ACT/2605/Curtin/,46 Munro Street ,-35.3287350,149.0719300,house,4,2,2,"$1,420,000",30 May 2015,https://www.auhouseprices.com/sold/view/ACT/341221907/46+Munro+Street%2C+Curtin+ACT/
263,2605,Curtin,71,https://www.auhouseprices.com/sold/list/ACT/2605/Curtin/,4 Boucaut Place ,-35.3257830,149.0726800,house,3,1,1,"$786,000",30 May 2015,https://www.auhouseprices.com/sold/view/ACT/341871907/4+Boucaut+Place%2C+Curtin+ACT/
264,2605,Curtin,71,https://www.auhouseprices.com/sold/list/ACT/2605/Curtin/,4 Boucaut Place ,-35.3257830,149.0726800,house,3,1,1,"$786,000",30 May 2015,https://www.auhouseprices.com/sold/view/ACT/341522207/4+Boucaut+Place%2C+Curtin+ACT/
265,2605,Curtin,71,https://www.auhouseprices.com/sold/list/ACT/2605/Curtin/,57 Macalister Crescent ,-35.3311420,149.0819000,house,5,2,2,"$1,342,500",23 May 2015,https://www.auhouseprices.com/sold/view/ACT/341725807/57+Macalister+Crescent%2C+Curtin+ACT/
266,2605,Curtin,71,https://www.auhouseprices.com/sold/list/ACT/2605/Curtin/,36 Martin Street ,-35.3288760,149.0842900,house,5,3,4,"$1,160,000",23 May 2015,https://www.auhouseprices.com/sold/view/ACT/341294807/36+Martin+Street%2C+Curtin+ACT/
267,2605,Curtin,71,https://www.auhouseprices.com/sold/list/ACT/2605/Curtin/,10 Propsting Street ,-35.3229370,149.0811600,house,4,3,1,"$922,500",23 May 2015,https://www.auhouseprices.com/sold/view/ACT/341344807/10+Propsting+Street%2C+Curtin+ACT/
268,2605,Curtin,71,https://www.auhouseprices.com/sold/list/ACT/2605/Curtin/,3 Storey Street ,-35.3221300,149.0753000,house,4,2,2,"$755,000",16 May 2015,https://www.auhouseprices.com/sold/view/ACT/341177707/3+Storey+Street%2C+Curtin+ACT/
269,2605,Curtin,71,https://www.auhouseprices.com/sold/list/ACT/2605/Curtin/,103 Theodore Street ,-35.3349570,149.0809600,house,3,1,1,"$588,000",9 May 2015,https://www.auhouseprices.com/sold/view/ACT/341578607/103+Theodore+Street%2C+Curtin+ACT/
270,2605,Curtin,71,https://www.auhouseprices.com/sold/list/ACT/2605/Curtin/,26A Ayers Place ,-35.3246800,149.0782200,house,3,2,2,"$845,000",7 May 2015,https://www.auhouseprices.com/sold/view/ACT/341276607/26A+Ayers+Place%2C+Curtin+ACT/
271,2605,Curtin,71,https://www.auhouseprices.com/sold/list/ACT/2605/Curtin/,51 James Street ,-35.3347740,149.0784300,house,4,1,3,"$717,500",18 Apr 2015,https://www.auhouseprices.com/sold/view/ACT/341346297/51+James+Street%2C+Curtin+ACT/
272,2605,Curtin,71,https://www.auhouseprices.com/sold/list/ACT/2605/Curtin/,17 James Place ,-35.3345400,149.0793600,house,3,2,1,"$765,000",11 Apr 2015,https://www.auhouseprices.com/sold/view/ACT/341278597/17+James+Place%2C+Curtin+ACT/
273,2605,Curtin,71,https://www.auhouseprices.com/sold/list/ACT/2605/Curtin/,12 Parker Street ,-35.3273350,149.0836600,house,3,1,1,"$785,000",14 Mar 2015,https://www.auhouseprices.com/sold/view/ACT/341146387/12+Parker+Street%2C+Curtin+ACT/
274,2605,Curtin,71,https://www.auhouseprices.com/sold/list/ACT/2605/Curtin/,4 Collier Street ,-35.3342930,149.0830400,house,3,1,2,"$722,500",10 Mar 2015,https://www.auhouseprices.com/sold/view/ACT/341890287/4+Collier+Street%2C+Curtin+ACT/
275,2605,Curtin,71,https://www.auhouseprices.com/sold/list/ACT/2605/Curtin/,14 Jenkins Street ,-35.3229600,149.0768900,house,4,1,2,"$635,000",5 Mar 2015,https://www.auhouseprices.com/sold/view/ACT/341108287/14+Jenkins+Street%2C+Curtin+ACT/
276,2605,Curtin,71,https://www.auhouseprices.com/sold/list/ACT/2605/Curtin/,5 Dooley Place ,-35.3213270,149.0736800,house,3,1,2,"$756,000",Mar 2015,https://www.auhouseprices.com/sold/view/ACT/341921287/5+Dooley+Place%2C+Curtin+ACT/
277,2605,Curtin,71,https://www.auhouseprices.com/sold/list/ACT/2605/Curtin/,9 Waterhouse Street ,-35.3182450,149.0823200,house,4,2,2,"$600,000",27 Feb 2015,https://www.auhouseprices.com/sold/view/ACT/341459187/9+Waterhouse+Street%2C+Curtin+ACT/
278,2605,Curtin,71,https://www.auhouseprices.com/sold/list/ACT/2605/Curtin/,11 James Street ,-35.3331530,149.0788300,house,4,1,1,"$620,000",26 Feb 2015,https://www.auhouseprices.com/sold/view/ACT/341204287/11+James+Street%2C+Curtin+ACT/
279,2605,Curtin,71,https://www.auhouseprices.com/sold/list/ACT/2605/Curtin/,6 Collier Street ,-35.3342630,149.0828100,house,4,2,1,"$626,000",23 Feb 2015,https://www.auhouseprices.com/sold/view/ACT/341294187/6+Collier+Street%2C+Curtin+ACT/
280,2605,Curtin,71,https://www.auhouseprices.com/sold/list/ACT/2605/Curtin/,48 Haines Street ,-35.3361430,149.0808000,house,4,1,2,"$750,000",21 Feb 2015,https://www.auhouseprices.com/sold/view/ACT/341224187/48+Haines+Street%2C+Curtin+ACT/
281,2605,Curtin,71,https://www.auhouseprices.com/sold/list/ACT/2605/Curtin/,48 Haines Street ,-35.3361430,149.0808000,house,4,1,2,"$750,000",21 Feb 2015,https://www.auhouseprices.com/sold/view/ACT/341563207/48+Haines+Street%2C+Curtin+ACT/
282,2605,Curtin,71,https://www.auhouseprices.com/sold/list/ACT/2605/Curtin/,124 Theodore Street ,-35.3362300,149.0815100,house,4,2,2,"$740,000",18 Feb 2015,https://www.auhouseprices.com/sold/view/ACT/341742187/124+Theodore+Street%2C+Curtin+ACT/
283,2605,Curtin,71,https://www.auhouseprices.com/sold/list/ACT/2605/Curtin/,34 Holman Street ,-35.3325420,149.0831900,house,3,1,1,"$680,000",5 Feb 2015,https://www.auhouseprices.com/sold/view/ACT/341762087/34+Holman+Street%2C+Curtin+ACT/
284,2605,Curtin,71,https://www.auhouseprices.com/sold/list/ACT/2605/Curtin/,18/145 Carruthers Street ,-35.3236920,149.0814200,house,2,1,1,"$330,000",17 Dec 2014,https://www.auhouseprices.com/sold/view/ACT/341638787/18-145+Carruthers+Street%2C+Curtin+ACT/
285,2605,Curtin,71,https://www.auhouseprices.com/sold/list/ACT/2605/Curtin/,27 James Place ,-35.3343730,149.0786700,house,2,1,1,"$640,000",13 Dec 2014,https://www.auhouseprices.com/sold/view/ACT/341564787/27+James+Place%2C+Curtin+ACT/
286,2605,Curtin,71,https://www.auhouseprices.com/sold/list/ACT/2605/Curtin/,12 Throssell Street ,-35.3228900,149.0751500,house,3,1,2,"$630,000",12 Nov 2014,https://www.auhouseprices.com/sold/view/ACT/341874477/12+Throssell+Street%2C+Curtin+ACT/
287,2605,Curtin,71,https://www.auhouseprices.com/sold/list/ACT/2605/Curtin/,14 Gillies Street ,-35.3231700,149.0850700,house,4,2,2,"$1,150,000",10 Nov 2014,https://www.auhouseprices.com/sold/view/ACT/341742477/14+Gillies+Street%2C+Curtin+ACT/
288,2605,Curtin,71,https://www.auhouseprices.com/sold/list/ACT/2605/Curtin/,67 Allan Street ,-35.3239560,149.0860600,house,3,1,1,"$665,000",5 Nov 2014,https://www.auhouseprices.com/sold/view/ACT/341388377/67+Allan+Street%2C+Curtin+ACT/
289,2605,Curtin,71,https://www.auhouseprices.com/sold/list/ACT/2605/Curtin/,2 Douglas Place ,-35.3252370,149.0736400,flat,5,3,2,"$1,220,000",1 Nov 2014,https://www.auhouseprices.com/sold/view/ACT/341716377/2+Douglas+Place%2C+Curtin+ACT/
290,2605,Curtin,71,https://www.auhouseprices.com/sold/list/ACT/2605/Curtin/,101 Carruthers Street ,-35.3237760,149.0759100,house,3,1,1,"$567,000",25 Oct 2014,https://www.auhouseprices.com/sold/view/ACT/341367277/101+Carruthers+Street%2C+Curtin+ACT/
291,2605,Curtin,71,https://www.auhouseprices.com/sold/list/ACT/2605/Curtin/,6 Peake Place ,-35.3189930,149.0758500,house,5,3,2,"$1,137,000",11 Oct 2014,https://www.auhouseprices.com/sold/view/ACT/341118177/6+Peake+Place%2C+Curtin+ACT/
292,2605,Curtin,71,https://www.auhouseprices.com/sold/list/ACT/2605/Curtin/,28 Cockburn Street ,-35.3231280,149.0720700,house,3,2,2,"$805,000",11 Oct 2014,https://www.auhouseprices.com/sold/view/ACT/341528177/28++Cockburn+Street%2C+Curtin+ACT/
293,2605,Curtin,71,https://www.auhouseprices.com/sold/list/ACT/2605/Curtin/,8 Allan Street ,-35.3216440,149.0863500,house,4,2,2,"$844,000",29 Sep 2014,https://www.auhouseprices.com/sold/view/ACT/341337077/8+Allan+Street%2C+Curtin+ACT/
294,2605,Curtin,71,https://www.auhouseprices.com/sold/list/ACT/2605/Curtin/,7 Cosgrove Street ,-35.3313030,149.0808300,townhouse,2,1,1,"$450,000",26 Sep 2014,https://www.auhouseprices.com/sold/view/ACT/341735077/7+Cosgrove+Street%2C+Curtin+ACT/
295,2605,Curtin,71,https://www.auhouseprices.com/sold/list/ACT/2605/Curtin/,14 Daglish Street ,-35.3319700,149.0752700,house,4,1,1,"$725,150",30 Aug 2014,https://www.auhouseprices.com/sold/view/ACT/341927877/14+Daglish+Street%2C+Curtin+ACT/
296,2605,Curtin,71,https://www.auhouseprices.com/sold/list/ACT/2605/Curtin/,74 Dunstan Street ,-35.3182100,149.0727000,house,4,2,2,"$913,000",30 Aug 2014,https://www.auhouseprices.com/sold/view/ACT/341807877/74+Dunstan+Street%2C+Curtin+ACT/
297,2605,Curtin,71,https://www.auhouseprices.com/sold/list/ACT/2605/Curtin/,34 James Street ,-35.3353700,149.0780600,house,4,2,4,"$1,000,000",26 Jul 2014,https://www.auhouseprices.com/sold/view/ACT/341653677/34+James+Street%2C+Curtin+ACT/
298,2605,Curtin,71,https://www.auhouseprices.com/sold/list/ACT/2605/Curtin/,6 Parker Street ,-35.3267500,149.0837600,house,4,1,2,"$680,000",27 Jun 2014,https://www.auhouseprices.com/sold/view/ACT/341378367/6+Parker+Street%2C+Curtin+ACT/
299,2605,Curtin,71,https://www.auhouseprices.com/sold/list/ACT/2605/Curtin/,35 Robertson Street ,-35.3204800,149.0754000,house,4,2,2,"$642,500",23 Jun 2014,https://www.auhouseprices.com/sold/view/ACT/341270367/35+Robertson+Street%2C+Curtin+ACT/
300,2605,Curtin,71,https://www.auhouseprices.com/sold/list/ACT/2605/Curtin/,6 Argyle Place ,-35.3288800,149.0770900,house,4,1,1,"$605,000",17 Jun 2014,https://www.auhouseprices.com/sold/view/ACT/341389167/6+Argyle+Place%2C+Curtin+ACT/
301,2605,Curtin,71,https://www.auhouseprices.com/sold/list/ACT/2605/Curtin/,6 Service Street ,-35.3362050,149.0829000,house,6,2,4,"$781,000",27 May 2014,https://www.auhouseprices.com/sold/view/ACT/341977067/6+Service+Street%2C+Curtin+ACT/
302,2605,Curtin,71,https://www.auhouseprices.com/sold/list/ACT/2605/Curtin/,36/1 Waddell Place ,-35.3258100,149.0810200,house,2,2,2,"$425,000",20 May 2014,https://www.auhouseprices.com/sold/view/ACT/341207067/36-1+Waddell+Place%2C+Curtin+ACT/
303,2605,Curtin,71,https://www.auhouseprices.com/sold/list/ACT/2605/Curtin/,16/15 Strangways Street ,-35.3250900,149.0810500,unit,1,1,1,"$386,500",14 Apr 2014,https://www.auhouseprices.com/sold/view/ACT/341205867/16-15+Strangways+Street%2C+Curtin+ACT/
304,2605,Curtin,71,https://www.auhouseprices.com/sold/list/ACT/2605/Curtin/,7 Robertson Street ,-35.3208960,149.0760800,house,5,3,1,"$863,000",7 Apr 2014,https://www.auhouseprices.com/sold/view/ACT/341597437/7+Robertson+Street%2C+Curtin+ACT/
305,2605,Curtin,71,https://www.auhouseprices.com/sold/list/ACT/2605/Curtin/,26 Collier Street ,-35.3327300,149.0824300,house,3,1,3,"$570,000",12 Mar 2014,https://www.auhouseprices.com/sold/view/ACT/341190947/26+Collier+Street%2C+Curtin+ACT/
306,2605,Curtin,71,https://www.auhouseprices.com/sold/list/ACT/2605/Curtin/,106 Carruthers Street ,-35.3246080,149.0759700,house,4,2,2,"$680,000",25 Feb 2014,https://www.auhouseprices.com/sold/view/ACT/341928547/106+Carruthers+Street%2C+Curtin+ACT/
307,2605,Curtin,71,https://www.auhouseprices.com/sold/list/ACT/2605/Curtin/,8 Denham Place ,-35.3218080,149.0712400,house,3,1,2,"$917,000",14 Feb 2014,https://www.auhouseprices.com/sold/view/ACT/341266647/8+Denham+Place%2C+Curtin+ACT/
308,2605,Curtin,71,https://www.auhouseprices.com/sold/list/ACT/2605/Curtin/,41 Throssell Street ,-35.3202830,149.0749850,House,3,1,1,"$641,000",6 Feb 2014,https://www.auhouseprices.com/sold/view/ACT/331694506/41+Throssell+Street%2C+Curtin+ACT/
309,2605,Curtin,71,https://www.auhouseprices.com/sold/list/ACT/2605/Curtin/,37 Ryan Street ,-35.3226600,149.0832080,House,3,1,1,"$640,000",1 Feb 2014,https://www.auhouseprices.com/sold/view/ACT/331305506/37+Ryan+Street%2C+Curtin+ACT/
310,2605,Curtin,71,https://www.auhouseprices.com/sold/list/ACT/2605/Curtin/,106 Carruthers Street ,-35.3246070,149.0759720,House,3,2,2,"$680,000",1 Feb 2014,https://www.auhouseprices.com/sold/view/ACT/331366616/106+Carruthers+Street%2C+Curtin+ACT/
311,2605,Curtin,71,https://www.auhouseprices.com/sold/list/ACT/2605/Curtin/,8 Champ Place ,-35.3321320,149.0845370,house,3,1,1,"$670,000",23 Dec 2013,https://www.auhouseprices.com/sold/view/ACT/331496006/8+Champ+Place%2C+Curtin+ACT/
312,2605,Curtin,71,https://www.auhouseprices.com/sold/list/ACT/2605/Curtin/,8 Ryan Street ,-35.3221840,149.0851940,house,3,2,2,"$745,000",10 Dec 2013,https://www.auhouseprices.com/sold/view/ACT/3239135/8+Ryan+Street%2C+Curtin+ACT/
313,2605,Curtin,71,https://www.auhouseprices.com/sold/list/ACT/2605/Curtin/,32 Macalister Crescent ,-35.3328190,149.0811690,house,3,1,2,"$635,000",7 Dec 2013,https://www.auhouseprices.com/sold/view/ACT/331315606/32+Macalister+Crescent%2C+Curtin+ACT/
314,2605,Curtin,71,https://www.auhouseprices.com/sold/list/ACT/2605/Curtin/,2/5 Walsh Place ,-35.3250430,149.0855700,unit,2,1,1,"$308,000",29 Nov 2013,https://www.auhouseprices.com/sold/view/ACT/341602047/2-5+Walsh+Place%2C+Curtin+ACT/
315,2605,Curtin,71,https://www.auhouseprices.com/sold/list/ACT/2605/Curtin/,3 Colebatch Place ,-35.3293690,149.0773080,house,4,2,2,"$600,000",15 Nov 2013,https://www.auhouseprices.com/sold/view/ACT/331743306/3+Colebatch+Place%2C+Curtin+ACT/
316,2605,Curtin,71,https://www.auhouseprices.com/sold/list/ACT/2605/Curtin/,7/2 Walsh Place ,-35.3251170,149.0847560,unit,1,1,1,"$250,000",7 Nov 2013,https://www.auhouseprices.com/sold/view/ACT/331384196/7-2+Walsh+Place%2C+Curtin+ACT/
317,2605,Curtin,71,https://www.auhouseprices.com/sold/list/ACT/2605/Curtin/,2 Barwell Place ,-35.3205760,149.0787240,house,3,1,2,"$635,000",7 Nov 2013,https://www.auhouseprices.com/sold/view/ACT/331094196/2+Barwell+Place%2C+Curtin+ACT/
318,2605,Curtin,71,https://www.auhouseprices.com/sold/list/ACT/2605/Curtin/,15 Service Street ,-35.3363600,149.0840630,House,3,1,1,"$577,500",Nov 2013,https://www.auhouseprices.com/sold/view/ACT/331405196/15+Service+Street%2C+Curtin+ACT/
319,2605,Curtin,71,https://www.auhouseprices.com/sold/list/ACT/2605/Curtin/,47 Carruthers Street ,-35.3293760,149.0762600,house,3,1,1,"$640,000",23 Oct 2013,https://www.auhouseprices.com/sold/view/ACT/341589747/47+Carruthers+Street%2C+Curtin+ACT/
320,2605,Curtin,71,https://www.auhouseprices.com/sold/list/ACT/2605/Curtin/,9 Holman Street ,-35.3305440,149.0824000,house,4,2,2,"$725,000",22 Oct 2013,https://www.auhouseprices.com/sold/view/ACT/341519747/9+Holman+Street%2C+Curtin+ACT/
321,2605,Curtin,71,https://www.auhouseprices.com/sold/list/ACT/2605/Curtin/,15 Rason Place ,-35.3324640,149.0771910,house,4,2,2,"$655,000",4 Oct 2013,https://www.auhouseprices.com/sold/view/ACT/37826471/15+Rason+Place%2C+Curtin+ACT/
322,2605,Curtin,71,https://www.auhouseprices.com/sold/list/ACT/2605/Curtin/,56/3 Waddell Place ,-35.3250120,149.0805400,apartment,2,1,1,"$175,000",2 Oct 2013,https://www.auhouseprices.com/sold/view/ACT/331795726/56-3+Waddell+Place%2C+Curtin+ACT/
323,2605,Curtin,71,https://www.auhouseprices.com/sold/list/ACT/2605/Curtin/,11 Dawson Street ,-35.3282950,149.0833470,house,3,1,1,"$557,000",24 Sep 2013,https://www.auhouseprices.com/sold/view/ACT/31829585/11+Dawson+Street%2C+Curtin+ACT/
324,2605,Curtin,71,https://www.auhouseprices.com/sold/list/ACT/2605/Curtin/,58 McCulloch Street ,-35.3186260,149.0819400,house,3,1,2,"$590,000",21 Sep 2013,https://www.auhouseprices.com/sold/view/ACT/341284847/58+McCulloch+Street%2C+Curtin+ACT/
325,2605,Curtin,71,https://www.auhouseprices.com/sold/list/ACT/2605/Curtin/,4 Argyle Place ,-35.3289870,149.0769300,house,5,3,2,"$735,000",24 Aug 2013,https://www.auhouseprices.com/sold/view/ACT/341159847/4+Argyle+Place%2C+Curtin+ACT/
326,2605,Curtin,71,https://www.auhouseprices.com/sold/list/ACT/2605/Curtin/,18 Collier Street ,-35.3333850,149.0820820,house,3,1,1,"$592,000",9 Aug 2013,https://www.auhouseprices.com/sold/view/ACT/331756625/18+Collier+Street%2C+Curtin+ACT/
327,2605,Curtin,71,https://www.auhouseprices.com/sold/list/ACT/2605/Curtin/,14 Douglas Place ,-35.3264040,149.0742330,House,3,1,1,"$907,500",Aug 2013,https://www.auhouseprices.com/sold/view/ACT/36651359/14+Douglas+Place%2C+Curtin+ACT/
328,2605,Curtin,71,https://www.auhouseprices.com/sold/list/ACT/2605/Curtin/,9 Gregson Place ,-35.3176220,149.0755170,house,3,1,1,"$655,000",20 Jul 2013,https://www.auhouseprices.com/sold/view/ACT/3235035/9+Gregson+Place%2C+Curtin+ACT/
329,2605,Curtin,71,https://www.auhouseprices.com/sold/list/ACT/2605/Curtin/,16 Mcculloch Street ,-35.3231180,149.0828990,House,4,2,2,"$830,000",Jul 2013,https://www.auhouseprices.com/sold/view/ACT/3232135/16+Mcculloch+Street%2C+Curtin+ACT/
330,2605,Curtin,71,https://www.auhouseprices.com/sold/list/ACT/2605/Curtin/,35 Storey Street ,-35.3217430,149.0789600,house,4,2,1,"$740,000",25 Jun 2013,https://www.auhouseprices.com/sold/view/ACT/331816726/35+Storey+Street%2C+Curtin+ACT/
331,2605,Curtin,71,https://www.auhouseprices.com/sold/list/ACT/2605/Curtin/,16 Storey Street ,-35.3220900,149.0765500,house,3,2,2,"$785,000",25 Jun 2013,https://www.auhouseprices.com/sold/view/ACT/331339726/16+Storey+Street%2C+Curtin+ACT/
332,2605,Curtin,71,https://www.auhouseprices.com/sold/list/ACT/2605/Curtin/,44 Holman Street ,-35.3333820,149.0825490,house,6,1,2,"$700,000",7 Jun 2013,https://www.auhouseprices.com/sold/view/ACT/3236235/44+Holman+Street%2C+Curtin+ACT/
333,2605,Curtin,71,https://www.auhouseprices.com/sold/list/ACT/2605/Curtin/,4 Byrnes Place ,-35.3179650,149.0726350,house,4,3,2,"$910,000",27 May 2013,https://www.auhouseprices.com/sold/view/ACT/3237435/4+Byrnes+Place%2C+Curtin+ACT/
334,2605,Curtin,71,https://www.auhouseprices.com/sold/list/ACT/2605/Curtin/,61 Holman Street ,-35.3353480,149.0832790,House,2,2,4,"$1,102,000",11 May 2013,https://www.auhouseprices.com/sold/view/ACT/321951510/61+Holman+Street%2C+Curtin+ACT/
335,2605,Curtin,71,https://www.auhouseprices.com/sold/list/ACT/2605/Curtin/,62 Bavin Street ,-35.3313910,149.0746680,house,4,2,2,"$795,000",9 May 2013,https://www.auhouseprices.com/sold/view/ACT/3233335/62+Bavin+Street%2C+Curtin+ACT/
336,2605,Curtin,71,https://www.auhouseprices.com/sold/list/ACT/2605/Curtin/,29 Jennings Street ,-35.3232500,149.0712690,House,4,2,2,"$930,000",4 May 2013,https://www.auhouseprices.com/sold/view/ACT/321781510/29+Jennings+Street%2C+Curtin+ACT/
337,2605,Curtin,71,https://www.auhouseprices.com/sold/list/ACT/2605/Curtin/,4/141 Carruthers Street ,-35.3238050,149.0814800,Apartment,2,1,1,"$300,000",May 2013,https://www.auhouseprices.com/sold/view/ACT/321831510/4-141+Carruthers+Street%2C+Curtin+ACT/
338,2605,Curtin,71,https://www.auhouseprices.com/sold/list/ACT/2605/Curtin/,13 Jenkins Street ,-35.3225280,149.0764870,house,4,2,1,"$690,000",18 Apr 2013,https://www.auhouseprices.com/sold/view/ACT/321222510/13+Jenkins+Street%2C+Curtin+ACT/
339,2605,Curtin,71,https://www.auhouseprices.com/sold/list/ACT/2605/Curtin/,3/4 Walsh Place ,-35.3248250,149.0851400,unit,2,1,1,"$275,000",17 Apr 2013,https://www.auhouseprices.com/sold/view/ACT/341673247/3-4+Walsh+Place%2C+Curtin+ACT/
340,2605,Curtin,71,https://www.auhouseprices.com/sold/list/ACT/2605/Curtin/,3/6 Walsh Place ,-35.3251170,149.0847560,Unit,1,1,1,"$275,000",Apr 2013,https://www.auhouseprices.com/sold/view/ACT/321632510/3-6+Walsh+Place%2C+Curtin+ACT/
341,2605,Curtin,71,https://www.auhouseprices.com/sold/list/ACT/2605/Curtin/,25 Morehead Street ,-35.3202370,149.0726730,House,3,2,2,"$953,000",Apr 2013,https://www.auhouseprices.com/sold/view/ACT/321023510/25+Morehead+Street%2C+Curtin+ACT/
342,2605,Curtin,71,https://www.auhouseprices.com/sold/list/ACT/2605/Curtin/,5 Parker Street ,-35.3266016,149.0843952,House,4,2,2,"$760,000",23 Mar 2013,https://www.auhouseprices.com/sold/view/ACT/321922510/5+Parker+Street%2C+Curtin+ACT/
343,2605,Curtin,71,https://www.auhouseprices.com/sold/list/ACT/2605/Curtin/,19 Kidston Crescent ,-35.3199010,149.0839330,House,4,2,2,"$1,030,000",6 Mar 2013,https://www.auhouseprices.com/sold/view/ACT/321553510/19+Kidston+Crescent%2C+Curtin+ACT/
344,2605,Curtin,71,https://www.auhouseprices.com/sold/list/ACT/2605/Curtin/,32 Kidston Crescent ,-35.3197170,149.0830230,House,4,2,2,"$910,000",Mar 2013,https://www.auhouseprices.com/sold/view/ACT/321644510/32+Kidston+Crescent%2C+Curtin+ACT/
345,2605,Curtin,71,https://www.auhouseprices.com/sold/list/ACT/2605/Curtin/,13 Throssell Street ,-35.3231420,149.0746100,house,4,1,2,"$870,000",8 Feb 2013,https://www.auhouseprices.com/sold/view/ACT/321172510/13+Throssell+Street%2C+Curtin+ACT/
346,2605,Curtin,71,https://www.auhouseprices.com/sold/list/ACT/2605/Curtin/,3 Barwell Place ,-35.3201390,149.0790030,House,3,1,1,"$645,000",Feb 2013,https://www.auhouseprices.com/sold/view/ACT/321843510/3+Barwell+Place%2C+Curtin+ACT/
347,2605,Curtin,71,https://www.auhouseprices.com/sold/list/ACT/2605/Curtin/,19 Carruthers Street ,-35.3316320,149.0785450,house,3,2,2,"$633,500",18 Jan 2013,https://www.auhouseprices.com/sold/view/ACT/321723510/19+Carruthers+Street%2C+Curtin+ACT/
348,2605,Curtin,71,https://www.auhouseprices.com/sold/list/ACT/2605/Curtin/,16 Daglish Street ,-35.3321190,149.0753940,house,3,1,3,"$667,000",9 Jan 2013,https://www.auhouseprices.com/sold/view/ACT/331943535/16+Daglish+Street%2C+Curtin+ACT/
349,2605,Curtin,71,https://www.auhouseprices.com/sold/list/ACT/2605/Curtin/,4 Gillies Street ,-35.3226740,149.0860190,house,3,1,3,"$580,000",21 Dec 2012,https://www.auhouseprices.com/sold/view/ACT/331984535/4+Gillies+Street%2C+Curtin+ACT/
350,2605,Curtin,71,https://www.auhouseprices.com/sold/list/ACT/2605/Curtin/,4 See Place ,-35.3187060,149.0855560,house,5,2,1,"$591,000",3 Dec 2012,https://www.auhouseprices.com/sold/view/ACT/331334535/4+See+Place%2C+Curtin+ACT/
351,2605,Curtin,71,https://www.auhouseprices.com/sold/list/ACT/2605/Curtin/,35 Storey Street ,-35.3217420,149.0789680,House,4,2,1,"$740,000",1 Dec 2012,https://www.auhouseprices.com/sold/view/ACT/331893535/35+Storey+Street%2C+Curtin+ACT/
352,2605,Curtin,71,https://www.auhouseprices.com/sold/list/ACT/2605/Curtin/,47 Carruthers Street ,-35.3293760,149.0762600,house,3,1,1,"$619,000",28 Nov 2012,https://www.auhouseprices.com/sold/view/ACT/331406726/47+Carruthers+Street%2C+Curtin+ACT/
353,2605,Curtin,71,https://www.auhouseprices.com/sold/list/ACT/2605/Curtin/,42 Kidston Crescent ,-35.3205380,149.0824340,house,4,1,2,"$705,000",16 Nov 2012,https://www.auhouseprices.com/sold/view/ACT/321404510/42+Kidston+Crescent%2C+Curtin+ACT/
354,2605,Curtin,71,https://www.auhouseprices.com/sold/list/ACT/2605/Curtin/,9 Allan Place ,-35.3208800,149.0875460,house,4,2,1,"$675,000",8 Nov 2012,https://www.auhouseprices.com/sold/view/ACT/321354510/9+Allan+Place%2C+Curtin+ACT/
355,2605,Curtin,71,https://www.auhouseprices.com/sold/list/ACT/2605/Curtin/,4 Collier Street ,-35.3342930,149.0830310,house,3,1,2,"$652,500",3 Nov 2012,https://www.auhouseprices.com/sold/view/ACT/321673510/4+Collier+Street%2C+Curtin+ACT/
356,2605,Curtin,71,https://www.auhouseprices.com/sold/list/ACT/2605/Curtin/,13 Reynolds Street ,-35.3225940,149.0814430,House,5,3,2,"$1,220,000",Nov 2012,https://www.auhouseprices.com/sold/view/ACT/321814510/13+Reynolds+Street%2C+Curtin+ACT/
357,2605,Curtin,71,https://www.auhouseprices.com/sold/list/ACT/2605/Curtin/,36 Munro Place ,-35.3278330,149.0719880,house,3,2,2,"$826,000",30 Oct 2012,https://www.auhouseprices.com/sold/view/ACT/321383510/36+Munro+Place%2C+Curtin+ACT/
358,2605,Curtin,71,https://www.auhouseprices.com/sold/list/ACT/2605/Curtin/,3 Dry Street ,-35.3354880,149.0834640,house,3,1,2,"$625,000",26 Oct 2012,https://www.auhouseprices.com/sold/view/ACT/321234510/3+Dry+Street%2C+Curtin+ACT/
359,2605,Curtin,71,https://www.auhouseprices.com/sold/list/ACT/2605/Curtin/,1 Elmslie Place ,-35.3181060,149.0730360,house,3,2,1,"$725,000",17 Oct 2012,https://www.auhouseprices.com/sold/view/ACT/321474510/1+Elmslie+Place%2C+Curtin+ACT/
360,2605,Curtin,71,https://www.auhouseprices.com/sold/list/ACT/2605/Curtin/,38 Robertson Street ,-35.3198440,149.0773470,house,3,1,1,"$510,000",7 Sep 2012,https://www.auhouseprices.com/sold/view/ACT/331569535/38+Robertson+Street%2C+Curtin+ACT/
361,2605,Curtin,71,https://www.auhouseprices.com/sold/list/ACT/2605/Curtin/,21/15 Strangways Street ,-35.3250900,149.0810550,apartment,2,2,1,"$520,000",7 Sep 2012,https://www.auhouseprices.com/sold/view/ACT/331102546/21-15+Strangways+Street%2C+Curtin+ACT/
362,2605,Curtin,71,https://www.auhouseprices.com/sold/list/ACT/2605/Curtin/,17/141-145 Carruthers Street ,-35.3238050,149.0814800,unit,2,1,1,"$310,000",28 Aug 2012,https://www.auhouseprices.com/sold/view/ACT/331697546/17-141-145+Carruthers+Street%2C+Curtin+ACT/
363,2605,Curtin,71,https://www.auhouseprices.com/sold/list/ACT/2605/Curtin/,28 Collier Street ,-35.3326030,149.0825800,house,4,2,1,"$625,000",18 Aug 2012,https://www.auhouseprices.com/sold/view/ACT/331214535/28+Collier+Street%2C+Curtin+ACT/
364,2605,Curtin,71,https://www.auhouseprices.com/sold/list/ACT/2605/Curtin/,5/15 Strangways Street ,-35.3250900,149.0810550,apartment,3,2,2,"$600,000",28 Jul 2012,https://www.auhouseprices.com/sold/view/ACT/331305535/5-15+Strangways+Street%2C+Curtin+ACT/
365,2605,Curtin,71,https://www.auhouseprices.com/sold/list/ACT/2605/Curtin/,23 Morgan Place ,-35.3205550,149.0835040,House,3,2,2,"$860,000",Jun 2012,https://www.auhouseprices.com/sold/view/ACT/331495535/23+Morgan+Place%2C+Curtin+ACT/
366,2605,Curtin,71,https://www.auhouseprices.com/sold/list/ACT/2605/Curtin/,23 Wilson Street ,-35.3334260,149.0765230,House,3,1,1,"$705,000",26 May 2012,https://www.auhouseprices.com/sold/view/ACT/321884510/23+Wilson+Street%2C+Curtin+ACT/
367,2605,Curtin,71,https://www.auhouseprices.com/sold/list/ACT/2605/Curtin/,5 Service Street ,-35.3364330,149.0835400,house,3,1,1,"$535,000",24 May 2012,https://www.auhouseprices.com/sold/view/ACT/331526726/5+Service+Street%2C+Curtin+ACT/
368,2605,Curtin,71,https://www.auhouseprices.com/sold/list/ACT/2605/Curtin/,21 Cockburn Street ,-35.3238070,149.0724330,House,4,2,2,"$1,000,000",19 May 2012,https://www.auhouseprices.com/sold/view/ACT/321205510/21+Cockburn+Street%2C+Curtin+ACT/
369,2605,Curtin,71,https://www.auhouseprices.com/sold/list/ACT/2605/Curtin/,36 Daglish Street ,-35.3315640,149.0767670,House,4,1,1,"$920,000",May 2012,https://www.auhouseprices.com/sold/view/ACT/321615510/36+Daglish+Street%2C+Curtin+ACT/
370,2605,Curtin,71,https://www.auhouseprices.com/sold/list/ACT/2605/Curtin/,11 Douglas Place ,-35.3262500,149.0748300,House,3,1,2,"$630,000",May 2012,https://www.auhouseprices.com/sold/view/ACT/321155510/11+Douglas+Place%2C+Curtin+ACT/
371,2605,Curtin,71,https://www.auhouseprices.com/sold/list/ACT/2605/Curtin/,72/3 Waddell Place ,-35.3250130,149.0805420,Unit,1,1,1,"$290,000",May 2012,https://www.auhouseprices.com/sold/view/ACT/321975510/72-3+Waddell+Place%2C+Curtin+ACT/
372,2605,Curtin,71,https://www.auhouseprices.com/sold/list/ACT/2605/Curtin/,2 Mclean Place ,-35.3251130,149.0768660,House,4,1,2,"$825,000",Apr 2012,https://www.auhouseprices.com/sold/view/ACT/321826510/2+Mclean+Place%2C+Curtin+ACT/
373,2605,Curtin,71,https://www.auhouseprices.com/sold/list/ACT/2605/Curtin/,14 Philp Place ,-35.3259330,149.0792580,house,5,2,2,"$910,000",24 Mar 2012,https://www.auhouseprices.com/sold/view/ACT/321035510/14+Philp+Place%2C+Curtin+ACT/
374,2605,Curtin,71,https://www.auhouseprices.com/sold/list/ACT/2605/Curtin/,4 Bavin Street ,-35.3307660,149.0732710,house,4,2,2,"$905,000",17 Mar 2012,https://www.auhouseprices.com/sold/view/ACT/321395510/4+Bavin+Street%2C+Curtin+ACT/
375,2605,Curtin,71,https://www.auhouseprices.com/sold/list/ACT/2605/Curtin/,16 Dawson Street ,-35.3292645,149.0836101,house,3,2,2,"$629,000",14 Mar 2012,https://www.auhouseprices.com/sold/view/ACT/321776510/16+Dawson+Street%2C+Curtin+ACT/
376,2605,Curtin,71,https://www.auhouseprices.com/sold/list/ACT/2605/Curtin/,17/1 Waddell Place ,-35.3258110,149.0810210,apartment,2,1,2,"$387,500",8 Mar 2012,https://www.auhouseprices.com/sold/view/ACT/321507510/17-1+Waddell+Place%2C+Curtin+ACT/
377,2605,Curtin,71,https://www.auhouseprices.com/sold/list/ACT/2605/Curtin/,14/143 Carruthers Street ,-35.3241803,149.0814609,apartment,2,1,1,"$335,000",7 Mar 2012,https://www.auhouseprices.com/sold/view/ACT/321457510/14-143+Carruthers+Street%2C+Curtin+ACT/
378,2605,Curtin,71,https://www.auhouseprices.com/sold/list/ACT/2605/Curtin/,77 Theodore Street ,-35.3324480,149.0803430,House,3,2,2,"$530,000",Mar 2012,https://www.auhouseprices.com/sold/view/ACT/321445510/77+Theodore+Street%2C+Curtin+ACT/
379,2605,Curtin,71,https://www.auhouseprices.com/sold/list/ACT/2605/Curtin/,1 Cosgrove Street ,-35.3314980,149.0807480,House,2,1,1,"$427,000",Mar 2012,https://www.auhouseprices.com/sold/view/ACT/321486510/1+Cosgrove+Street%2C+Curtin+ACT/
380,2605,Curtin,71,https://www.auhouseprices.com/sold/list/ACT/2605/Curtin/,75 Theodore Street ,-35.3322240,149.0804360,house,3,1,2,"$572,500",28 Feb 2012,https://www.auhouseprices.com/sold/view/ACT/321706510/75+Theodore+Street%2C+Curtin+ACT/
381,2605,Curtin,71,https://www.auhouseprices.com/sold/list/ACT/2605/Curtin/,54 Munro Street ,-35.3295410,149.0718210,House,5,2,3,"$1,215,000",18 Feb 2012,https://www.auhouseprices.com/sold/view/ACT/321896510/54+Munro+Street%2C+Curtin+ACT/
382,2605,Curtin,71,https://www.auhouseprices.com/sold/list/ACT/2605/Curtin/,20 Throssell Street ,-35.3220470,149.0750560,House,3,1,2,"$635,000",11 Feb 2012,https://www.auhouseprices.com/sold/view/ACT/321076510/20+Throssell+Street%2C+Curtin+ACT/
383,2605,Curtin,71,https://www.auhouseprices.com/sold/list/ACT/2605/Curtin/,14 Douglas Place ,-35.3264050,149.0742300,house,4,1,1,"$670,000",9 Feb 2012,https://www.auhouseprices.com/sold/view/ACT/331356726/14+Douglas+Place%2C+Curtin+ACT/
384,2605,Curtin,71,https://www.auhouseprices.com/sold/list/ACT/2605/Curtin/,23 Throssell Street ,-35.3221350,149.0745020,house,4,2,2,"$630,000",30 Jan 2012,https://www.auhouseprices.com/sold/view/ACT/321627510/23+Throssell+Street%2C+Curtin+ACT/
385,2605,Curtin,71,https://www.auhouseprices.com/sold/list/ACT/2605/Curtin/,38 Cockburn Street ,-35.3240110,149.0719090,house,3,2,2,"$638,000",30 Nov 2011,https://www.auhouseprices.com/sold/view/ACT/321867510/38+Cockburn+Street%2C+Curtin+ACT/
386,2605,Curtin,71,https://www.auhouseprices.com/sold/list/ACT/2605/Curtin/,31 Cockburn Street ,-35.3246690,149.0730230,house,3,1,1,"$602,500",28 Nov 2011,https://www.auhouseprices.com/sold/view/ACT/321258510/31+Cockburn+Street%2C+Curtin+ACT/
387,2605,Curtin,71,https://www.auhouseprices.com/sold/list/ACT/2605/Curtin/,37 Parker Street ,-35.3291610,149.0830180,House,3,1,2,"$670,000",26 Nov 2011,https://www.auhouseprices.com/sold/view/ACT/321366510/37+Parker+Street%2C+Curtin+ACT/
388,2605,Curtin,71,https://www.auhouseprices.com/sold/list/ACT/2605/Curtin/,120 Carruthers Street ,-35.3237370,149.0774680,house,3,1,1,"$550,000",24 Nov 2011,https://www.auhouseprices.com/sold/view/ACT/321196510/120+Carruthers+Street%2C+Curtin+ACT/
389,2605,Curtin,71,https://www.auhouseprices.com/sold/list/ACT/2605/Curtin/,78 Dunstan Street ,-35.3184420,149.0721790,House,4,1,2,"$970,000",Nov 2011,https://www.auhouseprices.com/sold/view/ACT/321428510/78+Dunstan+Street%2C+Curtin+ACT/
390,2605,Curtin,71,https://www.auhouseprices.com/sold/list/ACT/2605/Curtin/,35/3 Waddell Place ,-35.3250130,149.0805420,Unit,1,1,1,"$215,000",Nov 2011,https://www.auhouseprices.com/sold/view/ACT/321138510/35-3+Waddell+Place%2C+Curtin+ACT/
391,2605,Curtin,71,https://www.auhouseprices.com/sold/list/ACT/2605/Curtin/,10 Peacock Place ,-35.3182520,149.0840100,house,3,1,1,"$550,000",31 Oct 2011,https://www.auhouseprices.com/sold/view/ACT/321639510/10+Peacock+Place%2C+Curtin+ACT/
392,2605,Curtin,71,https://www.auhouseprices.com/sold/list/ACT/2605/Curtin/,93 Morgan Crescent ,-35.3193130,149.0830460,house,3,2,2,"$795,000",15 Oct 2011,https://www.auhouseprices.com/sold/view/ACT/321718510/93+Morgan+Crescent%2C+Curtin+ACT/
393,2605,Curtin,71,https://www.auhouseprices.com/sold/list/ACT/2605/Curtin/,18 Ayers Place ,-35.3240890,149.0774640,house,3,1,1,"$680,000",29 Sep 2011,https://www.auhouseprices.com/sold/view/ACT/321838510/18+Ayers+Place%2C+Curtin+ACT/
394,2605,Curtin,71,https://www.auhouseprices.com/sold/list/ACT/2605/Curtin/,35 James Place ,-35.3336740,149.0785190,house,3,1,1,"$595,000",15 Sep 2011,https://www.auhouseprices.com/sold/view/ACT/321349510/35+James+Place%2C+Curtin+ACT/
395,2605,Curtin,71,https://www.auhouseprices.com/sold/list/ACT/2605/Curtin/,15/15 Strangways Street ,-35.3251752,149.0814223,Unit,1,1,1,"$372,000",ep 2011,https://www.auhouseprices.com/sold/view/ACT/321299510/15-15+Strangways+Street%2C+Curtin+ACT/
396,2605,Curtin,71,https://www.auhouseprices.com/sold/list/ACT/2605/Curtin/,39/3 Waddell Place ,-35.3250130,149.0805420,unit,2,1,1,"$265,000",3 Aug 2011,https://www.auhouseprices.com/sold/view/ACT/321759510/39-3+Waddell+Place%2C+Curtin+ACT/
397,2605,Curtin,71,https://www.auhouseprices.com/sold/list/ACT/2605/Curtin/,69 James Street ,-35.3351800,149.0801090,house,3,1,1,"$635,000",3 Aug 2011,https://www.auhouseprices.com/sold/view/ACT/321850510/69+James+Street%2C+Curtin+ACT/
398,2605,Curtin,71,https://www.auhouseprices.com/sold/list/ACT/2605/Curtin/,2/19 Theodore Street ,-35.3270140,149.0831130,Duplex,3,2,2,"$630,000",Aug 2011,https://www.auhouseprices.com/sold/view/ACT/321469510/2-19+Theodore+Street%2C+Curtin+ACT/
399,2605,Curtin,71,https://www.auhouseprices.com/sold/list/ACT/2605/Curtin/,32 Kidston Crescent ,-35.3197170,149.0830200,house,4,2,2,"$975,000",23 Jul 2011,https://www.auhouseprices.com/sold/view/ACT/331207726/32+Kidston+Crescent%2C+Curtin+ACT/
400,2605,Curtin,71,https://www.auhouseprices.com/sold/list/ACT/2605/Curtin/,49 Theodore Street ,-35.3299860,149.0813650,house,3,2,2,"$590,000",20 Jul 2011,https://www.auhouseprices.com/sold/view/ACT/321230620/49+Theodore+Street%2C+Curtin+ACT/
401,2605,Curtin,71,https://www.auhouseprices.com/sold/list/ACT/2605/Curtin/,50 Throssell Street ,-35.3197110,149.0768990,house,3,1,1,"$595,000",16 Jul 2011,https://www.auhouseprices.com/sold/view/ACT/321470620/50+Throssell+Street%2C+Curtin+ACT/
402,2605,Curtin,71,https://www.auhouseprices.com/sold/list/ACT/2605/Curtin/,14 Barwell Place ,-35.3207210,149.0801770,House,4,1,2,"$690,000",Jul 2011,https://www.auhouseprices.com/sold/view/ACT/321100510/14+Barwell+Place%2C+Curtin+ACT/
403,2605,Curtin,71,https://www.auhouseprices.com/sold/list/ACT/2605/Curtin/,5 Blyth Place ,-35.3253960,149.0785230,house,3,1,2,"$590,000",29 Jun 2011,https://www.auhouseprices.com/sold/view/ACT/321031620/5+Blyth+Place%2C+Curtin+ACT/
404,2605,Curtin,71,https://www.auhouseprices.com/sold/list/ACT/2605/Curtin/,20 Prendergast Street ,-35.3210530,149.0781700,house,4,2,2,"$622,500",18 Jun 2011,https://www.auhouseprices.com/sold/view/ACT/331617726/20+Prendergast+Street%2C+Curtin+ACT/
405,2605,Curtin,71,https://www.auhouseprices.com/sold/list/ACT/2605/Curtin/,27 Haines Street ,-35.3360680,149.0799100,House,3,1,2,"$632,000",4 Jun 2011,https://www.auhouseprices.com/sold/view/ACT/321109510/27+Haines+Street%2C+Curtin+ACT/
406,2605,Curtin,71,https://www.auhouseprices.com/sold/list/ACT/2605/Curtin/,65 Dunstan Street ,-35.3185180,149.0742170,House,4,2,2,"$753,000",Jun 2011,https://www.auhouseprices.com/sold/view/ACT/321378510/65+Dunstan+Street%2C+Curtin+ACT/
407,2605,Curtin,71,https://www.auhouseprices.com/sold/list/ACT/2605/Curtin/,2/6 Blyth Place ,-35.3255790,149.0779260,Unit,3,2,1,"$580,000",Jun 2011,https://www.auhouseprices.com/sold/view/ACT/321731620/2-6+Blyth+Place%2C+Curtin+ACT/
408,2605,Curtin,71,https://www.auhouseprices.com/sold/list/ACT/2605/Curtin/,14 Dawson Street ,-35.3290890,149.0832270,house,4,2,2,"$690,000",18 May 2011,https://www.auhouseprices.com/sold/view/ACT/321350620/14+Dawson+Street%2C+Curtin+ACT/
409,2605,Curtin,71,https://www.auhouseprices.com/sold/list/ACT/2605/Curtin/,16 Bavin Street ,-35.3322200,149.0732500,House,7,3,2,"$1,182,000",May 2011,https://www.auhouseprices.com/sold/view/ACT/321800510/16+Bavin+Street%2C+Curtin+ACT/
410,2605,Curtin,71,https://www.auhouseprices.com/sold/list/ACT/2605/Curtin/,86 Morgan Crescent ,-35.3194100,149.0820780,House,5,3,2,"$900,000",Apr 2011,https://www.auhouseprices.com/sold/view/ACT/321999510/86+Morgan+Crescent%2C+Curtin+ACT/
411,2605,Curtin,71,https://www.auhouseprices.com/sold/list/ACT/2605/Curtin/,30 1 McCulloch Street ,-35.3238050,149.0814800,apartment,2,1,1,"$320,000",21 Mar 2011,https://www.auhouseprices.com/sold/view/ACT/321880620/30+1+McCulloch+Street%2C+Curtin+ACT/
412,2605,Curtin,71,https://www.auhouseprices.com/sold/list/ACT/2605/Curtin/,20 Willcock Place ,-35.3294539,149.0750407,house,4,2,2,"$880,000",17 Mar 2011,https://www.auhouseprices.com/sold/view/ACT/321970510/20+Willcock+Place%2C+Curtin+ACT/
413,2605,Curtin,71,https://www.auhouseprices.com/sold/list/ACT/2605/Curtin/,4 McPhee Place ,-35.3305530,149.0831370,house,2,1,2,"$568,000",5 Mar 2011,https://www.auhouseprices.com/sold/view/ACT/321270510/4+McPhee+Place%2C+Curtin+ACT/
