,Postcode,Suburb Name,Recent Sales,Suburb Link,Street Address,Latitude,Longitude,Property Type,Beds,Baths,Cars,Sold Price,Property Link
0,2913,Casey,116,https://www.auhouseprices.com/sold/list/ACT/2913/Casey/,6 Loveday Crescent ,-35.1775648,149.0900510,house,3,2,1,,https://www.auhouseprices.com/sold/view/ACT/341187370/6+Loveday+Crescent%2C+Casey+ACT/
1,2913,Casey,116,https://www.auhouseprices.com/sold/list/ACT/2913/Casey/,16/68 Dalkin Crescent ,-35.1733634,149.0958064,apartment,2,2,1,"$465,000",https://www.auhouseprices.com/sold/view/ACT/341515370/16-68+Dalkin+Crescent%2C+Casey+ACT/
2,2913,Casey,116,https://www.auhouseprices.com/sold/list/ACT/2913/Casey/,4/29 Bott Crescent ,-35.1634979,149.0959767,townhouse,3,2,2,"$630,000",https://www.auhouseprices.com/sold/view/ACT/341799270/4-29++Bott+Crescent%2C+Casey+ACT/
3,2913,Casey,116,https://www.auhouseprices.com/sold/list/ACT/2913/Casey/,17 Borthwick Avenue ,-35.1698769,149.0915010,house,4,2,2,,https://www.auhouseprices.com/sold/view/ACT/341928270/17+Borthwick+Avenue%2C+Casey+ACT/
4,2913,Casey,116,https://www.auhouseprices.com/sold/list/ACT/2913/Casey/,11 Edna Thompson Crescent ,-35.1580419,149.0971257,house,4,2,2,"$760,000",https://www.auhouseprices.com/sold/view/ACT/341332170/11+Edna+Thompson+Crescent%2C+Casey+ACT/
5,2913,Casey,116,https://www.auhouseprices.com/sold/list/ACT/2913/Casey/,13/146 Plimsoll Drive ,-35.1620493,149.0983306,townhouse,3,2,2,"$597,000",https://www.auhouseprices.com/sold/view/ACT/341982170/13-146+Plimsoll+Drive%2C+Casey+ACT/
6,2913,Casey,116,https://www.auhouseprices.com/sold/list/ACT/2913/Casey/,1 Housley Street ,-35.1704505,149.0885623,house,6,3,2,"$1,073,000",https://www.auhouseprices.com/sold/view/ACT/341479070/1+Housley+Street%2C+Casey+ACT/
7,2913,Casey,116,https://www.auhouseprices.com/sold/list/ACT/2913/Casey/,2/14 Andersch Street ,-35.1606941,149.1003647,townhouse,3,2,2,,https://www.auhouseprices.com/sold/view/ACT/341910070/2-14+Andersch+Street%2C+Casey+ACT/
8,2913,Casey,116,https://www.auhouseprices.com/sold/list/ACT/2913/Casey/,1/12 Maris King Street ,-35.1701886,149.0953736,townhouse,3,2,2,"$602,000",https://www.auhouseprices.com/sold/view/ACT/341874170/1-12+Maris+King+Street%2C+Casey+ACT/
9,2913,Casey,116,https://www.auhouseprices.com/sold/list/ACT/2913/Casey/,8 Pender Street ,-35.1622612,149.1002310,house,4,2,2,"$792,500",https://www.auhouseprices.com/sold/view/ACT/341311070/8+Pender+Street%2C+Casey+ACT/
10,2913,Casey,116,https://www.auhouseprices.com/sold/list/ACT/2913/Casey/,6/4 Annie Douglas Street ,-35.1594276,149.1015244,townhouse,3,1,2,"$500,000",https://www.auhouseprices.com/sold/view/ACT/341258970/6-4+Annie+Douglas+Street%2C+Casey+ACT/
11,2913,Casey,116,https://www.auhouseprices.com/sold/list/ACT/2913/Casey/,18 Dunk Street ,-35.1693098,149.0935395,house,4,2,3,"$998,000",https://www.auhouseprices.com/sold/view/ACT/341802970/18+Dunk+Street%2C+Casey+ACT/
12,2913,Casey,116,https://www.auhouseprices.com/sold/list/ACT/2913/Casey/,24 Loveday Crescent ,-35.1777403,149.0887598,house,4,2,1,"$600,000",https://www.auhouseprices.com/sold/view/ACT/341249870/24+Loveday+Crescent%2C+Casey+ACT/
13,2913,Casey,116,https://www.auhouseprices.com/sold/list/ACT/2913/Casey/,13/4 Annie Douglas Street ,-35.1594276,149.1015244,house,3,1,2,"$496,000",https://www.auhouseprices.com/sold/view/ACT/341047970/13-4+Annie+Douglas+Street%2C+Casey+ACT/
14,2913,Casey,116,https://www.auhouseprices.com/sold/list/ACT/2913/Casey/,16 Mick Shann Terrace ,-35.1770212,149.0870725,townhouse,3,1,1,,https://www.auhouseprices.com/sold/view/ACT/341814970/16+Mick+Shann+Terrace%2C+Casey+ACT/
15,2913,Casey,116,https://www.auhouseprices.com/sold/list/ACT/2913/Casey/,2 Quealy Street ,-35.1589323,149.0988061,townhouse,3,3,2,"$590,000",https://www.auhouseprices.com/sold/view/ACT/341448870/2+Quealy+Street%2C+Casey+ACT/
16,2913,Casey,116,https://www.auhouseprices.com/sold/list/ACT/2913/Casey/,33 Liz O'Neill Street ,-35.1636217,149.0997610,house,4,2,2,"$741,888",https://www.auhouseprices.com/sold/view/ACT/341464670/33+Liz+O%27Neill+Street%2C+Casey+ACT/
17,2913,Casey,116,https://www.auhouseprices.com/sold/list/ACT/2913/Casey/,82 Rockwood Street ,-35.1714221,149.0949441,duplex-semi-detached,3,2,1,"$600,000",https://www.auhouseprices.com/sold/view/ACT/341270670/82+Rockwood+Street%2C+Casey+ACT/
18,2913,Casey,116,https://www.auhouseprices.com/sold/list/ACT/2913/Casey/,40 Dalkin Crescent ,-35.1742005,149.0948407,townhouse,3,2,1,"$491,000",https://www.auhouseprices.com/sold/view/ACT/341057570/40+Dalkin+Crescent%2C+Casey+ACT/
19,2913,Casey,116,https://www.auhouseprices.com/sold/list/ACT/2913/Casey/,4 Loveday Crescent ,-35.1774662,149.0900155,house,3,2,1,"$611,000",https://www.auhouseprices.com/sold/view/ACT/341990570/4+Loveday+Crescent%2C+Casey+ACT/
20,2913,Casey,116,https://www.auhouseprices.com/sold/list/ACT/2913/Casey/,34 Dalkin Crescent ,-35.1743056,149.0947767,townhouse,2,2,1,,https://www.auhouseprices.com/sold/view/ACT/341646460/34+Dalkin+Crescent%2C+Casey+ACT/
21,2913,Casey,116,https://www.auhouseprices.com/sold/list/ACT/2913/Casey/,14/12 Maris King Street ,-35.1701886,149.0953736,townhouse,3,2,2,,https://www.auhouseprices.com/sold/view/ACT/341869460/14-12+Maris+King+Street%2C+Casey+ACT/
22,2913,Casey,116,https://www.auhouseprices.com/sold/list/ACT/2913/Casey/,11 Nordeck Street ,-35.1581032,149.0993117,house,2,1,1,"$525,000",https://www.auhouseprices.com/sold/view/ACT/341555460/11+Nordeck+Street%2C+Casey+ACT/
23,2913,Casey,116,https://www.auhouseprices.com/sold/list/ACT/2913/Casey/,2 Ted Richards Street ,-35.1701835,149.0940999,townhouse,4,2,1,,https://www.auhouseprices.com/sold/view/ACT/341526670/2+Ted+Richards+Street%2C+Casey+ACT/
24,2913,Casey,116,https://www.auhouseprices.com/sold/list/ACT/2913/Casey/,18 Mick Shann Terrace ,-35.1769870,149.0869618,townhouse,3,1,1,,https://www.auhouseprices.com/sold/view/ACT/341608360/18+Mick+Shann+Terrace%2C+Casey+ACT/
25,2913,Casey,116,https://www.auhouseprices.com/sold/list/ACT/2913/Casey/,40 Scholtens Street ,-35.1563060,149.1010548,house,3,2,2,"$663,000",https://www.auhouseprices.com/sold/view/ACT/341215360/40++Scholtens+Street%2C+Casey+ACT/
26,2913,Casey,116,https://www.auhouseprices.com/sold/list/ACT/2913/Casey/,16 John Crawford Cres ,-35.1748588,149.0922215,house,4,2,2,"$792,000",https://www.auhouseprices.com/sold/view/ACT/341625360/16+John+Crawford+Cres%2C+Casey+ACT/
27,2913,Casey,116,https://www.auhouseprices.com/sold/list/ACT/2913/Casey/,9/1 Ronald Walker Street ,-35.1620348,149.0985724,townhouse,4,3,2,"$615,000",https://www.auhouseprices.com/sold/view/ACT/341422260/9-1+Ronald+Walker+Street%2C+Casey+ACT/
28,2913,Casey,116,https://www.auhouseprices.com/sold/list/ACT/2913/Casey/,17 Lansdown Crescent ,-35.1769414,149.0927361,townhouse,3,2,2,,https://www.auhouseprices.com/sold/view/ACT/341211260/17+Lansdown+Crescent%2C+Casey+ACT/
29,2913,Casey,116,https://www.auhouseprices.com/sold/list/ACT/2913/Casey/,7/2 McGovern Street ,-35.1612345,149.0988375,townhouse,3,2,2,,https://www.auhouseprices.com/sold/view/ACT/341918260/7-2+McGovern+Street%2C+Casey+ACT/
30,2913,Casey,116,https://www.auhouseprices.com/sold/list/ACT/2913/Casey/,55 Cooley Crescent ,-35.1606708,149.0973249,house,4,2,2,"$870,000",https://www.auhouseprices.com/sold/view/ACT/341164160/55+Cooley+Crescent%2C+Casey+ACT/
31,2913,Casey,116,https://www.auhouseprices.com/sold/list/ACT/2913/Casey/,30 Mick Shann Terrace ,-35.1767990,149.0863641,house,3,1,1,,https://www.auhouseprices.com/sold/view/ACT/341059060/30+Mick+Shann+Terrace%2C+Casey+ACT/
32,2913,Casey,116,https://www.auhouseprices.com/sold/list/ACT/2913/Casey/,104 Plimsoll Drive ,-35.1646232,149.0990474,townhouse,3,2,2,"$560,000",https://www.auhouseprices.com/sold/view/ACT/341368960/104+Plimsoll+Drive%2C+Casey+ACT/
33,2913,Casey,116,https://www.auhouseprices.com/sold/list/ACT/2913/Casey/,24 Whitrod Avenue ,-35.1592819,149.1004837,townhouse,3,2,2,,https://www.auhouseprices.com/sold/view/ACT/341469060/24+Whitrod+Avenue%2C+Casey+ACT/
34,2913,Casey,116,https://www.auhouseprices.com/sold/list/ACT/2913/Casey/,99 Rockwood Street ,-35.1716536,149.0945877,house,3,2,1,"$580,000",https://www.auhouseprices.com/sold/view/ACT/341104960/99+Rockwood+Street%2C+Casey+ACT/
35,2913,Casey,116,https://www.auhouseprices.com/sold/list/ACT/2913/Casey/,41 McGovern Street ,-35.1610104,149.1001000,townhouse,3,2,2,,https://www.auhouseprices.com/sold/view/ACT/341848860/41+McGovern+Street%2C+Casey+ACT/
36,2913,Casey,116,https://www.auhouseprices.com/sold/list/ACT/2913/Casey/,54 Alan Watt Crescent ,-35.1587349,149.0966714,house,4,2,2,"$905,000",https://www.auhouseprices.com/sold/view/ACT/341733860/54+Alan+Watt+Crescent%2C+Casey+ACT/
37,2913,Casey,116,https://www.auhouseprices.com/sold/list/ACT/2913/Casey/,6 Plimsoll Drive ,-35.1705053,149.0963478,unit,2,1,1,"$405,000",https://www.auhouseprices.com/sold/view/ACT/341048760/6+Plimsoll+Drive%2C+Casey+ACT/
38,2913,Casey,116,https://www.auhouseprices.com/sold/list/ACT/2913/Casey/,1/155 Plimsoll Drive ,-35.1612226,149.0977816,townhouse,4,2,2,"$665,000",https://www.auhouseprices.com/sold/view/ACT/341387160/1-155+Plimsoll+Drive%2C+Casey+ACT/
39,2913,Casey,116,https://www.auhouseprices.com/sold/list/ACT/2913/Casey/,49 McGovern Street ,-35.1610055,149.1003853,house,2,1,2,"$530,000",https://www.auhouseprices.com/sold/view/ACT/341815760/49+McGovern+Street%2C+Casey+ACT/
40,2913,Casey,116,https://www.auhouseprices.com/sold/list/ACT/2913/Casey/,48 John Crawford Crescent ,-35.1735944,149.0933968,house,2,2,1,"$542,000",https://www.auhouseprices.com/sold/view/ACT/341041760/48+John+Crawford+Crescent%2C+Casey+ACT/
41,2913,Casey,116,https://www.auhouseprices.com/sold/list/ACT/2913/Casey/,18 Hyslop Crescent ,-35.1555458,149.0996631,house,4,2,2,"$912,000",https://www.auhouseprices.com/sold/view/ACT/341006560/18+Hyslop+Crescent%2C+Casey+ACT/
42,2913,Casey,116,https://www.auhouseprices.com/sold/list/ACT/2913/Casey/,5/108 Plimsoll Drive ,-35.1644939,149.0990346,townhouse,3,2,2,,https://www.auhouseprices.com/sold/view/ACT/341474560/5-108+Plimsoll+Drive%2C+Casey+ACT/
43,2913,Casey,116,https://www.auhouseprices.com/sold/list/ACT/2913/Casey/,69 Overall Avenue ,-35.1723162,149.0917172,house,4,2,2,"$760,000",https://www.auhouseprices.com/sold/view/ACT/341064560/69+Overall+Avenue%2C+Casey+ACT/
44,2913,Casey,116,https://www.auhouseprices.com/sold/list/ACT/2913/Casey/,14 Skermer Street ,-35.1667629,149.0948465,house,4,2,2,"$700,005",https://www.auhouseprices.com/sold/view/ACT/341553560/14+Skermer+Street%2C+Casey+ACT/
45,2913,Casey,116,https://www.auhouseprices.com/sold/list/ACT/2913/Casey/,9/2 Neil Currie Street ,-35.1768376,149.0916999,unit,2,1,1,"$434,000",https://www.auhouseprices.com/sold/view/ACT/341999350/9-2+Neil+Currie+Street%2C+Casey+ACT/
46,2913,Casey,116,https://www.auhouseprices.com/sold/list/ACT/2913/Casey/,45 Neil Currie Street ,-35.1756705,149.0937685,house,3,2,1,"$615,000",https://www.auhouseprices.com/sold/view/ACT/341788350/45+Neil+Currie+Street%2C+Casey+ACT/
47,2913,Casey,116,https://www.auhouseprices.com/sold/list/ACT/2913/Casey/,12 Salisbury Street ,-35.1700295,149.0967528,house,3,1,2,"$535,000",https://www.auhouseprices.com/sold/view/ACT/341747350/12+Salisbury+Street%2C+Casey+ACT/
48,2913,Casey,116,https://www.auhouseprices.com/sold/list/ACT/2913/Casey/,14 Hugh Gilchrist Street ,-35.1724703,149.0953223,house,3,2,1,"$555,000",https://www.auhouseprices.com/sold/view/ACT/341498350/14+Hugh+Gilchrist+Street%2C+Casey+ACT/
49,2913,Casey,116,https://www.auhouseprices.com/sold/list/ACT/2913/Casey/,43 David Miller Crescent ,-35.1694943,149.0990227,house,3,1,1,"$522,000",https://www.auhouseprices.com/sold/view/ACT/341491350/43+David+Miller+Crescent%2C+Casey+ACT/
50,2913,Casey,116,https://www.auhouseprices.com/sold/list/ACT/2913/Casey/,14 Lambrick Lane ,-35.1761770,149.0947148,house,3,2,2,"$555,000",https://www.auhouseprices.com/sold/view/ACT/341477250/14+Lambrick+Lane%2C+Casey+ACT/
51,2913,Casey,116,https://www.auhouseprices.com/sold/list/ACT/2913/Casey/,21 Maris King Street ,-35.1698614,149.0950029,house,3,2,1,"$635,000",https://www.auhouseprices.com/sold/view/ACT/341014250/21+Maris+King+Street%2C+Casey+ACT/
52,2913,Casey,116,https://www.auhouseprices.com/sold/list/ACT/2913/Casey/,4 Meroula Street ,-35.1623620,149.0959741,house,4,2,2,"$750,000",https://www.auhouseprices.com/sold/view/ACT/341183150/4+Meroula+Street%2C+Casey+ACT/
53,2913,Casey,116,https://www.auhouseprices.com/sold/list/ACT/2913/Casey/,114 Plimsoll Drive ,-35.1643153,149.0989744,villa,3,2,2,"$562,000",https://www.auhouseprices.com/sold/view/ACT/341933150/114+Plimsoll+Drive%2C+Casey+ACT/
54,2913,Casey,116,https://www.auhouseprices.com/sold/list/ACT/2913/Casey/,21 McGovern Street ,-35.1609079,149.0992706,townhouse,2,1,2,"$416,000",https://www.auhouseprices.com/sold/view/ACT/341329660/21+McGovern+Street%2C+Casey+ACT/
55,2913,Casey,116,https://www.auhouseprices.com/sold/list/ACT/2913/Casey/,3 Skewes Street ,-35.1596678,149.0974638,house,4,2,2,"$950,000",https://www.auhouseprices.com/sold/view/ACT/341368050/3+Skewes+Street%2C+Casey+ACT/
56,2913,Casey,116,https://www.auhouseprices.com/sold/list/ACT/2913/Casey/,32/16 David Miller Crescent ,-35.1708165,149.0971134,apartment,2,1,2,"$325,000",https://www.auhouseprices.com/sold/view/ACT/341687050/32-16+David+Miller+Crescent%2C+Casey+ACT/
57,2913,Casey,116,https://www.auhouseprices.com/sold/list/ACT/2913/Casey/,18 Chilton Street ,-35.1708450,149.0892092,house,5,4,2,"$1,280,000",https://www.auhouseprices.com/sold/view/ACT/341526050/18+Chilton+Street%2C+Casey+ACT/
58,2913,Casey,116,https://www.auhouseprices.com/sold/list/ACT/2913/Casey/,1 Fricker Place ,-35.1559577,149.0987846,house,4,3,2,"$1,250,000",https://www.auhouseprices.com/sold/view/ACT/341891050/1+Fricker+Place%2C+Casey+ACT/
59,2913,Casey,116,https://www.auhouseprices.com/sold/list/ACT/2913/Casey/,69 Kingsland Parade ,-35.1717084,149.0960594,villa,3,2,2,"$575,000",https://www.auhouseprices.com/sold/view/ACT/341454950/69+Kingsland+Parade%2C+Casey+ACT/
60,2913,Casey,116,https://www.auhouseprices.com/sold/list/ACT/2913/Casey/,6 Liz O'Neill Street ,-35.1654784,149.1003027,house,4,2,2,"$900,000",https://www.auhouseprices.com/sold/view/ACT/341093560/6+Liz+O%27Neill+Street%2C+Casey+ACT/
61,2913,Casey,116,https://www.auhouseprices.com/sold/list/ACT/2913/Casey/,16 Kowalski Street ,-35.1585957,149.1010588,house,4,2,2,,https://www.auhouseprices.com/sold/view/ACT/341978750/16+Kowalski+Street%2C+Casey+ACT/
62,2913,Casey,116,https://www.auhouseprices.com/sold/list/ACT/2913/Casey/,49 John Crawford Crescent ,-35.1726488,149.0933397,house,3,2,1,"$578,000",https://www.auhouseprices.com/sold/view/ACT/341081850/49+John+Crawford+Crescent%2C+Casey+ACT/
63,2913,Casey,116,https://www.auhouseprices.com/sold/list/ACT/2913/Casey/,20/68 Dalkin Crescent ,-35.1733634,149.0958064,townhouse,2,2,1,"$465,000",https://www.auhouseprices.com/sold/view/ACT/341713050/20-68+Dalkin+Crescent%2C+Casey+ACT/
64,2913,Casey,116,https://www.auhouseprices.com/sold/list/ACT/2913/Casey/,6 Quealy Street ,-35.1589659,149.0989497,townhouse,2,2,2,"$435,000",https://www.auhouseprices.com/sold/view/ACT/341055750/6+Quealy+Street%2C+Casey+ACT/
65,2913,Casey,116,https://www.auhouseprices.com/sold/list/ACT/2913/Casey/,114 Overall Avenue ,-35.1713611,149.0953378,house,3,2,1,"$610,000",https://www.auhouseprices.com/sold/view/ACT/341090950/114+Overall+Avenue%2C+Casey+ACT/
66,2913,Casey,116,https://www.auhouseprices.com/sold/list/ACT/2913/Casey/,58 Rockwood Street ,-35.1727961,149.0947268,house,3,2,1,"$552,500",https://www.auhouseprices.com/sold/view/ACT/341476550/58+Rockwood+Street%2C+Casey+ACT/
67,2913,Casey,116,https://www.auhouseprices.com/sold/list/ACT/2913/Casey/,17 Hugh Gilchrist Street ,-35.1727205,149.0954495,house,3,2,1,"$555,000",https://www.auhouseprices.com/sold/view/ACT/341953550/17+Hugh+Gilchrist+Street%2C+Casey+ACT/
68,2913,Casey,116,https://www.auhouseprices.com/sold/list/ACT/2913/Casey/,23 David Miller Crescent ,-35.1705142,149.0973911,house,3,2,2,"$540,000",https://www.auhouseprices.com/sold/view/ACT/341017440/23+David+Miller+Crescent%2C+Casey+ACT/
69,2913,Casey,116,https://www.auhouseprices.com/sold/list/ACT/2913/Casey/,26 Hyslop Crescent ,-35.1550544,149.0999249,house,4,2,2,"$838,000",https://www.auhouseprices.com/sold/view/ACT/341717440/26+Hyslop+Crescent%2C+Casey+ACT/
70,2913,Casey,116,https://www.auhouseprices.com/sold/list/ACT/2913/Casey/,15 Spratt Court ,-35.1569113,149.1030572,townhouse,2,1,1,"$445,000",https://www.auhouseprices.com/sold/view/ACT/341150550/15+Spratt+Court%2C+Casey+ACT/
71,2913,Casey,116,https://www.auhouseprices.com/sold/list/ACT/2913/Casey/,1 Gourgaud Street ,-35.1617137,149.0974944,house,3,2,2,"$731,000",https://www.auhouseprices.com/sold/view/ACT/341945440/1+Gourgaud+Street%2C+Casey+ACT/
72,2913,Casey,116,https://www.auhouseprices.com/sold/list/ACT/2913/Casey/,42 Plimsoll Drive ,-35.1661179,149.0972123,townhouse,3,2,2,"$555,000",https://www.auhouseprices.com/sold/view/ACT/341655440/42+Plimsoll+Drive%2C+Casey+ACT/
73,2913,Casey,116,https://www.auhouseprices.com/sold/list/ACT/2913/Casey/,48 Lansdown Crescent ,-35.1762057,149.0935736,townhouse,2,1,2,"$486,000",https://www.auhouseprices.com/sold/view/ACT/341801440/48+Lansdown+Crescent%2C+Casey+ACT/
74,2913,Casey,116,https://www.auhouseprices.com/sold/list/ACT/2913/Casey/,32/15 Andersch Street ,-35.1603440,149.0994879,terrace,2,1,2,,https://www.auhouseprices.com/sold/view/ACT/341792440/32-15+Andersch+Street%2C+Casey+ACT/
75,2913,Casey,116,https://www.auhouseprices.com/sold/list/ACT/2913/Casey/,72 Plimsoll Drive ,-35.1656526,149.0981229,townhouse,3,2,2,"$625,000",https://www.auhouseprices.com/sold/view/ACT/341690240/72+Plimsoll+Drive%2C+Casey+ACT/
76,2913,Casey,116,https://www.auhouseprices.com/sold/list/ACT/2913/Casey/,22 Gourgaud Street ,-35.1612870,149.0961002,house,4,2,2,,https://www.auhouseprices.com/sold/view/ACT/341268240/22+Gourgaud+Street%2C+Casey+ACT/
77,2913,Casey,116,https://www.auhouseprices.com/sold/list/ACT/2913/Casey/,10 Yandell Way ,-35.1732668,149.0946181,house,2,2,1,"$510,000",https://www.auhouseprices.com/sold/view/ACT/341057240/10+Yandell+Way%2C+Casey+ACT/
78,2913,Casey,116,https://www.auhouseprices.com/sold/list/ACT/2913/Casey/,43 Patrick Shaw Street ,-35.1578605,149.1013473,house,2,1,1,"$486,000",https://www.auhouseprices.com/sold/view/ACT/341004240/43+Patrick+Shaw+Street%2C+Casey+ACT/
79,2913,Casey,116,https://www.auhouseprices.com/sold/list/ACT/2913/Casey/,8/16 David Miller Crescent ,-35.1708165,149.0971134,apartment,2,1,2,"$320,000",https://www.auhouseprices.com/sold/view/ACT/341332550/8-16+David+Miller+Crescent%2C+Casey+ACT/
80,2913,Casey,116,https://www.auhouseprices.com/sold/list/ACT/2913/Casey/,15 Quealy Street ,-35.1588473,149.0995504,house,3,1,1,"$541,500",https://www.auhouseprices.com/sold/view/ACT/341698140/15+Quealy+Street%2C+Casey+ACT/
81,2913,Casey,116,https://www.auhouseprices.com/sold/list/ACT/2913/Casey/,48 Dalkin Crescent ,-35.1740603,149.0949259,townhouse,2,2,2,,https://www.auhouseprices.com/sold/view/ACT/341810140/48+Dalkin+Crescent%2C+Casey+ACT/
82,2913,Casey,116,https://www.auhouseprices.com/sold/list/ACT/2913/Casey/,8 Jule Knight Street ,-35.1567453,149.1017138,house,4,3,2,"$880,000",https://www.auhouseprices.com/sold/view/ACT/341583140/8+Jule+Knight+Street%2C+Casey+ACT/
83,2913,Casey,116,https://www.auhouseprices.com/sold/list/ACT/2913/Casey/,8/17 Pickup Close ,-35.1657829,149.0950368,townhouse,3,2,2,"$575,000",https://www.auhouseprices.com/sold/view/ACT/341070440/8-17+Pickup+Close%2C+Casey+ACT/
84,2913,Casey,116,https://www.auhouseprices.com/sold/list/ACT/2913/Casey/,3 Meroula Street ,-35.1621860,149.0957281,house,4,2,2,"$800,000",https://www.auhouseprices.com/sold/view/ACT/341739040/3+Meroula+Street%2C+Casey+ACT/
85,2913,Casey,116,https://www.auhouseprices.com/sold/list/ACT/2913/Casey/,6/3 Deasey Close ,-35.1647911,149.0982437,townhouse,3,2,2,"$595,000",https://www.auhouseprices.com/sold/view/ACT/341612040/6-3+Deasey+Close%2C+Casey+ACT/
86,2913,Casey,116,https://www.auhouseprices.com/sold/list/ACT/2913/Casey/,9 Scholtens Street ,-35.1587348,149.0998000,house,3,2,2,"$665,000",https://www.auhouseprices.com/sold/view/ACT/341111040/9+Scholtens+Street%2C+Casey+ACT/
87,2913,Casey,116,https://www.auhouseprices.com/sold/list/ACT/2913/Casey/,1/5 Keith Waller Rise ,-35.1595737,149.0981432,townhouse,2,2,2,"$481,000",https://www.auhouseprices.com/sold/view/ACT/341729940/1-5+Keith+Waller+Rise%2C+Casey+ACT/
88,2913,Casey,116,https://www.auhouseprices.com/sold/list/ACT/2913/Casey/,47 Victoria Owen Circuit ,-35.1634689,149.0950474,house,4,2,2,"$742,500",https://www.auhouseprices.com/sold/view/ACT/341777140/47+Victoria+Owen+Circuit%2C+Casey+ACT/
89,2913,Casey,116,https://www.auhouseprices.com/sold/list/ACT/2913/Casey/,5 Plimsoll Drive ,-35.1706737,149.0959899,house,4,2,2,,https://www.auhouseprices.com/sold/view/ACT/341989550/5+Plimsoll+Drive%2C+Casey+ACT/
90,2913,Casey,116,https://www.auhouseprices.com/sold/list/ACT/2913/Casey/,10 Salisbury Street ,-35.1700400,149.0966653,house,2,1,2,"$490,000",https://www.auhouseprices.com/sold/view/ACT/341602940/10+Salisbury+Street%2C+Casey+ACT/
91,2913,Casey,116,https://www.auhouseprices.com/sold/list/ACT/2913/Casey/,8 Ted Richards Street ,-35.1702160,149.0937500,house,4,2,1,"$560,000",https://www.auhouseprices.com/sold/view/ACT/341924840/8+Ted+Richards+Street%2C+Casey+ACT/
92,2913,Casey,116,https://www.auhouseprices.com/sold/list/ACT/2913/Casey/,9 Walter Crocker Crescent ,-35.1739981,149.0919469,house,4,3,2,"$840,000",https://www.auhouseprices.com/sold/view/ACT/341874840/9+Walter+Crocker+Crescent%2C+Casey+ACT/
93,2913,Casey,116,https://www.auhouseprices.com/sold/list/ACT/2913/Casey/,7/3 Pickup Close ,-35.1653411,149.0949107,townhouse,3,2,2,,https://www.auhouseprices.com/sold/view/ACT/341909540/7-3+Pickup+Close%2C+Casey+ACT/
94,2913,Casey,116,https://www.auhouseprices.com/sold/list/ACT/2913/Casey/,78 Plimsoll Drive ,-35.1655252,149.0983441,house,4,2,2,,https://www.auhouseprices.com/sold/view/ACT/341189740/78+Plimsoll+Drive%2C+Casey+ACT/
95,2913,Casey,116,https://www.auhouseprices.com/sold/list/ACT/2913/Casey/,2/4 Annie Douglas Street ,-35.1594276,149.1015244,townhouse,3,1,1,"$468,200",https://www.auhouseprices.com/sold/view/ACT/341724640/2-4+Annie+Douglas+Street%2C+Casey+ACT/
96,2913,Casey,116,https://www.auhouseprices.com/sold/list/ACT/2913/Casey/,2/2 Keith Waller Rise ,-35.1592608,149.0980571,townhouse,2,1,1,"$385,000",https://www.auhouseprices.com/sold/view/ACT/341073540/2-2+Keith+Waller++Rise%2C+Casey+ACT/
97,2913,Casey,116,https://www.auhouseprices.com/sold/list/ACT/2913/Casey/,44 Lansdown Crescent ,-35.1762951,149.0936198,house,2,1,1,"$455,000",https://www.auhouseprices.com/sold/view/ACT/341311740/44+Lansdown+Crescent%2C+Casey+ACT/
98,2913,Casey,116,https://www.auhouseprices.com/sold/list/ACT/2913/Casey/,23 Jule Knight Street ,-35.1555238,149.1019677,house,4,2,2,"$763,000",https://www.auhouseprices.com/sold/view/ACT/341434529/23+Jule+Knight+Street%2C+Casey+ACT/
99,2913,Casey,116,https://www.auhouseprices.com/sold/list/ACT/2913/Casey/,102 Wighton Terrace ,-35.1687181,149.0907357,house,4,2,2,"$955,000",https://www.auhouseprices.com/sold/view/ACT/341094529/102+Wighton+Terrace%2C+Casey+ACT/
100,2913,Casey,116,https://www.auhouseprices.com/sold/list/ACT/2913/Casey/,51 Carmody Street ,-35.1765312,149.0867305,townhouse,3,1,1,"$500,000",https://www.auhouseprices.com/sold/view/ACT/341533540/51+Carmody+Street%2C+Casey+ACT/
101,2913,Casey,116,https://www.auhouseprices.com/sold/list/ACT/2913/Casey/,14 Walter Crocker Crescent ,-35.1735753,149.0924192,house,4,2,2,"$720,000",https://www.auhouseprices.com/sold/view/ACT/341235529/14+Walter+Crocker+Crescent%2C+Casey+ACT/
102,2913,Casey,116,https://www.auhouseprices.com/sold/list/ACT/2913/Casey/,24 Alan Watt Crescent ,-35.1599223,149.0968226,house,3,2,2,"$695,000",https://www.auhouseprices.com/sold/view/ACT/341542529/24+Alan+Watt+Crescent%2C+Casey+ACT/
103,2913,Casey,116,https://www.auhouseprices.com/sold/list/ACT/2913/Casey/,77 Rockwood Street ,-35.1724661,149.0945207,house,3,2,1,"$565,600",https://www.auhouseprices.com/sold/view/ACT/341741529/77+Rockwood+Street%2C+Casey+ACT/
104,2913,Casey,116,https://www.auhouseprices.com/sold/list/ACT/2913/Casey/,26 Quealy Street ,-35.1591247,149.0996673,townhouse,3,2,2,,https://www.auhouseprices.com/sold/view/ACT/341739540/26+Quealy+Street%2C+Casey+ACT/
105,2913,Casey,116,https://www.auhouseprices.com/sold/list/ACT/2913/Casey/,3 Yandell Way ,-35.1736443,149.0946827,house,3,2,1,"$540,000",https://www.auhouseprices.com/sold/view/ACT/341881429/3+Yandell+Way%2C+Casey+ACT/
106,2913,Casey,116,https://www.auhouseprices.com/sold/list/ACT/2913/Casey/,8 Ashton Calvert Street ,-35.1764941,149.0888816,house,3,2,1,,https://www.auhouseprices.com/sold/view/ACT/341212840/8+Ashton+Calvert+Street%2C+Casey+ACT/
107,2913,Casey,116,https://www.auhouseprices.com/sold/list/ACT/2913/Casey/,55 Dalkin Crescent ,-35.1732396,149.0951445,house,3,2,3,"$790,000",https://www.auhouseprices.com/sold/view/ACT/341776329/55+Dalkin+Crescent%2C+Casey+ACT/
108,2913,Casey,116,https://www.auhouseprices.com/sold/list/ACT/2913/Casey/,16 Gourgaud Street ,-35.1613500,149.0966288,house,3,2,2,"$661,000",https://www.auhouseprices.com/sold/view/ACT/341379529/16+Gourgaud+Street%2C+Casey+ACT/
109,2913,Casey,116,https://www.auhouseprices.com/sold/list/ACT/2913/Casey/,5/1 Alan Watt Crescent ,-35.1603410,149.0980213,townhouse,4,2,2,"$590,000",https://www.auhouseprices.com/sold/view/ACT/341325329/5-1+Alan+Watt+Crescent%2C+Casey+ACT/
110,2913,Casey,116,https://www.auhouseprices.com/sold/list/ACT/2913/Casey/,61 Hyslop Crescent ,-35.1557075,149.0976146,house,4,2,2,,https://www.auhouseprices.com/sold/view/ACT/341093329/61+Hyslop+Crescent%2C+Casey+ACT/
111,2913,Casey,116,https://www.auhouseprices.com/sold/list/ACT/2913/Casey/,30 Edna Thompson Crescent ,-35.1566031,149.0969131,house,6,3,4,"$1,300,000",https://www.auhouseprices.com/sold/view/ACT/341730329/30+Edna+Thompson+Crescent%2C+Casey+ACT/
112,2913,Casey,116,https://www.auhouseprices.com/sold/list/ACT/2913/Casey/,32 Overall Avenue ,-35.1752004,149.0907151,house,4,2,2,"$745,000",https://www.auhouseprices.com/sold/view/ACT/341102329/32+Overall+Avenue%2C+Casey+ACT/
113,2913,Casey,116,https://www.auhouseprices.com/sold/list/ACT/2913/Casey/,27 Plimsoll Drive ,-35.1692983,149.0957679,house,3,2,2,"$660,000",https://www.auhouseprices.com/sold/view/ACT/341316229/27+Plimsoll+Drive%2C+Casey+ACT/
114,2913,Casey,116,https://www.auhouseprices.com/sold/list/ACT/2913/Casey/,8 Selleck Street ,-35.1621229,149.0993711,house,5,2,2,"$775,000",https://www.auhouseprices.com/sold/view/ACT/341482229/8+Selleck+Street%2C+Casey+ACT/
115,2913,Casey,116,https://www.auhouseprices.com/sold/list/ACT/2913/Casey/,43 Annie Douglas Street ,-35.1564528,149.1024637,house,3,2,2,"$730,500",https://www.auhouseprices.com/sold/view/ACT/341581129/43+Annie+Douglas+Street%2C+Casey+ACT/
116,2913,Casey,116,https://www.auhouseprices.com/sold/list/ACT/2913/Casey/,20 John Crawford Crescent ,-35.1747454,149.0925260,house,4,2,2,"$760,000",https://www.auhouseprices.com/sold/view/ACT/341564129/20+John+Crawford+Crescent%2C+Casey+ACT/
117,2913,Casey,116,https://www.auhouseprices.com/sold/list/ACT/2913/Casey/,36/13 Andersch Street ,-35.1605182,149.0995983,villa,3,2,2,"$492,500",https://www.auhouseprices.com/sold/view/ACT/341157029/36-13+Andersch+Street%2C+Casey+ACT/
118,2913,Casey,116,https://www.auhouseprices.com/sold/list/ACT/2913/Casey/,1 Salisbury Street ,-35.1697934,149.0963296,house,3,2,2,"$650,000",https://www.auhouseprices.com/sold/view/ACT/341543029/1+Salisbury+Street%2C+Casey+ACT/
119,2913,Casey,116,https://www.auhouseprices.com/sold/list/ACT/2913/Casey/,10 Timbs Street ,-35.1755546,149.0858601,house,5,3,3,"$840,000",https://www.auhouseprices.com/sold/view/ACT/341692029/10+Timbs+Street%2C+Casey+ACT/
120,2913,Casey,116,https://www.auhouseprices.com/sold/list/ACT/2913/Casey/,56 Alan Watt Crescent ,-35.1587416,149.0968033,house,4,2,2,"$728,000",https://www.auhouseprices.com/sold/view/ACT/341514029/56+Alan+Watt+Crescent%2C+Casey+ACT/
121,2913,Casey,116,https://www.auhouseprices.com/sold/list/ACT/2913/Casey/,48 Liz O'Neill Street ,-35.1632820,149.0990716,house,3,2,2,"$645,500",https://www.auhouseprices.com/sold/view/ACT/341926929/48+Liz+O%27Neill+Street%2C+Casey+ACT/
122,2913,Casey,116,https://www.auhouseprices.com/sold/list/ACT/2913/Casey/,97 Overall Ave ,-35.1709480,149.0937300,house,5,2,2,"$787,000",https://www.auhouseprices.com/sold/view/ACT/341498829/97+Overall+Ave%2C+Casey+ACT/
123,2913,Casey,116,https://www.auhouseprices.com/sold/list/ACT/2913/Casey/,25 Chilton Street ,-35.1712722,149.0884845,house,4,2,2,"$739,000",https://www.auhouseprices.com/sold/view/ACT/341600929/25+Chilton+Street%2C+Casey+ACT/
124,2913,Casey,116,https://www.auhouseprices.com/sold/list/ACT/2913/Casey/,4/2 Neil Currie Street ,-35.1768376,149.0916999,townhouse,2,2,1,"$420,000",https://www.auhouseprices.com/sold/view/ACT/341263829/4-2+Neil+Currie+Street%2C+Casey+ACT/
125,2913,Casey,116,https://www.auhouseprices.com/sold/list/ACT/2913/Casey/,229 Plimsoll Drive ,-35.1567230,149.0983212,house,5,2,2,"$900,100",https://www.auhouseprices.com/sold/view/ACT/341462829/229+Plimsoll+Drive%2C+Casey+ACT/
126,2913,Casey,116,https://www.auhouseprices.com/sold/list/ACT/2913/Casey/,12 Rattigan St ,-35.1674204,149.0943584,house,4,2,2,"$849,500",https://www.auhouseprices.com/sold/view/ACT/341160829/12+Rattigan+St%2C+Casey+ACT/
127,2913,Casey,116,https://www.auhouseprices.com/sold/list/ACT/2913/Casey/,4/50 Victoria Owen Circuit ,-35.1631853,149.0947640,house,3,2,2,"$602,500",https://www.auhouseprices.com/sold/view/ACT/341523629/4-50+Victoria+Owen+Circuit%2C+Casey+ACT/
128,2913,Casey,116,https://www.auhouseprices.com/sold/list/ACT/2913/Casey/,50 Lansdown Crescent ,-35.1761699,149.0935617,townhouse,2,1,1,"$447,000",https://www.auhouseprices.com/sold/view/ACT/341101629/50+Lansdown+Crescent%2C+Casey+ACT/
129,2913,Casey,116,https://www.auhouseprices.com/sold/list/ACT/2913/Casey/,2 Timbs Street ,-35.1756607,149.0864997,house,4,2,4,"$990,000",https://www.auhouseprices.com/sold/view/ACT/341340519/2+Timbs+Street%2C+Casey+ACT/
130,2913,Casey,116,https://www.auhouseprices.com/sold/list/ACT/2913/Casey/,34 Overall Avenue ,-35.1750370,149.0907768,house,4,2,2,"$733,000",https://www.auhouseprices.com/sold/view/ACT/341539519/34+Overall+Avenue%2C+Casey+ACT/
131,2913,Casey,116,https://www.auhouseprices.com/sold/list/ACT/2913/Casey/,28 John Crawford Crescent ,-35.1744010,149.0931540,house,3,2,2,"$600,000",https://www.auhouseprices.com/sold/view/ACT/341659519/28+John+Crawford+Crescent%2C+Casey+ACT/
132,2913,Casey,116,https://www.auhouseprices.com/sold/list/ACT/2913/Casey/,7/46 Whitrod Avenue ,-35.1593737,149.0993444,townhouse,2,2,2,,https://www.auhouseprices.com/sold/view/ACT/341047829/7-46+Whitrod+Avenue%2C+Casey+ACT/
133,2913,Casey,116,https://www.auhouseprices.com/sold/list/ACT/2913/Casey/,1/3 Deasey Close ,-35.1647911,149.0982437,townhouse,2,1,1,"$410,000",https://www.auhouseprices.com/sold/view/ACT/341178419/1-3+Deasey+Close%2C+Casey+ACT/
134,2913,Casey,116,https://www.auhouseprices.com/sold/list/ACT/2913/Casey/,12 Macandie Street ,-35.1639346,149.0977495,house,3,2,2,"$560,500",https://www.auhouseprices.com/sold/view/ACT/341353419/12+Macandie+Street%2C+Casey+ACT/
135,2913,Casey,116,https://www.auhouseprices.com/sold/list/ACT/2913/Casey/,87 David Miller Crescent ,-35.1693323,149.0964056,house,3,2,2,"$670,000",https://www.auhouseprices.com/sold/view/ACT/341183419/87+David+Miller+Crescent%2C+Casey+ACT/
136,2913,Casey,116,https://www.auhouseprices.com/sold/list/ACT/2913/Casey/,1 Ted Richards Street ,-35.1704535,149.0941288,house,4,2,2,"$800,000",https://www.auhouseprices.com/sold/view/ACT/341265319/1+Ted+Richards+Street%2C+Casey+ACT/
137,2913,Casey,116,https://www.auhouseprices.com/sold/list/ACT/2913/Casey/,3 Forace Street ,-35.1698096,149.0985148,house,4,2,2,"$730,000",https://www.auhouseprices.com/sold/view/ACT/341965319/3+Forace+Street%2C+Casey+ACT/
138,2913,Casey,116,https://www.auhouseprices.com/sold/list/ACT/2913/Casey/,70 Rockwood Street ,-35.1721711,149.0948974,house,3,2,1,"$540,000",https://www.auhouseprices.com/sold/view/ACT/341651319/70+Rockwood+Street%2C+Casey+ACT/
139,2913,Casey,116,https://www.auhouseprices.com/sold/list/ACT/2913/Casey/,25 Bott Crescent ,-35.1640926,149.0965126,house,3,2,2,"$675,000",https://www.auhouseprices.com/sold/view/ACT/341865219/25+Bott+Crescent%2C+Casey+ACT/
140,2913,Casey,116,https://www.auhouseprices.com/sold/list/ACT/2913/Casey/,86 Overall Avenue ,-35.1716013,149.0929175,house,4,2,2,"$836,000",https://www.auhouseprices.com/sold/view/ACT/341165219/86+Overall+Avenue%2C+Casey+ACT/
141,2913,Casey,116,https://www.auhouseprices.com/sold/list/ACT/2913/Casey/,13 Dunk Street ,-35.1694418,149.0932025,house,4,2,2,"$748,000",https://www.auhouseprices.com/sold/view/ACT/341932219/13+Dunk+Street%2C+Casey+ACT/
142,2913,Casey,116,https://www.auhouseprices.com/sold/list/ACT/2913/Casey/,176 Plimsoll Drive ,-35.1605087,149.0989533,house,3,2,2,"$500,000",https://www.auhouseprices.com/sold/view/ACT/341422119/176+Plimsoll+Drive%2C+Casey+ACT/
143,2913,Casey,116,https://www.auhouseprices.com/sold/list/ACT/2913/Casey/,24 Keith Waller Rise ,-35.1591908,149.0963757,house,4,2,2,"$790,000",https://www.auhouseprices.com/sold/view/ACT/341390819/24+Keith+Waller+Rise%2C+Casey+ACT/
144,2913,Casey,116,https://www.auhouseprices.com/sold/list/ACT/2913/Casey/,30 Bym Porter Lane ,-35.1703116,149.0976384,apartment,2,1,1,"$365,000",https://www.auhouseprices.com/sold/view/ACT/341270819/30+Bym+Porter+Lane%2C+Casey+ACT/
145,2913,Casey,116,https://www.auhouseprices.com/sold/list/ACT/2913/Casey/,9 MacAndie Street ,-35.1644972,149.0976208,house,4,2,2,"$840,000",https://www.auhouseprices.com/sold/view/ACT/341739019/9+MacAndie+Street%2C+Casey+ACT/
146,2913,Casey,116,https://www.auhouseprices.com/sold/list/ACT/2913/Casey/,6 Carmody Street ,-35.1769005,149.0904073,house,3,2,1,"$595,000",https://www.auhouseprices.com/sold/view/ACT/341654719/6+Carmody+Street%2C+Casey+ACT/
147,2913,Casey,116,https://www.auhouseprices.com/sold/list/ACT/2913/Casey/,14 Borthwick Avenue ,-35.1702430,149.0919700,house,5,3,2,,https://www.auhouseprices.com/sold/view/ACT/341020319/14+Borthwick+Avenue%2C+Casey+ACT/
148,2913,Casey,116,https://www.auhouseprices.com/sold/list/ACT/2913/Casey/,25 John Crawford Crescent ,-35.1739994,149.0929132,house,3,2,2,"$680,000",https://www.auhouseprices.com/sold/view/ACT/341413019/25+John+Crawford+Crescent%2C+Casey+ACT/
149,2913,Casey,116,https://www.auhouseprices.com/sold/list/ACT/2913/Casey/,31/15 Andersch Street ,-35.1603440,149.0994879,house,2,1,2,"$387,500",https://www.auhouseprices.com/sold/view/ACT/341021719/31-15+Andersch+Street%2C+Casey+ACT/
150,2913,Casey,116,https://www.auhouseprices.com/sold/list/ACT/2913/Casey/,8 Westerman Street ,-35.1756524,149.0922089,house,3,2,2,"$546,000",https://www.auhouseprices.com/sold/view/ACT/341170719/8+Westerman+Street%2C+Casey+ACT/
151,2913,Casey,116,https://www.auhouseprices.com/sold/list/ACT/2913/Casey/,22 John Crawford Crescent ,-35.1746980,149.0926566,house,4,2,2,"$735,000",https://www.auhouseprices.com/sold/view/ACT/341741619/22+John+Crawford+Crescent%2C+Casey+ACT/
152,2913,Casey,116,https://www.auhouseprices.com/sold/list/ACT/2913/Casey/,46 John Crawford Crescent ,-35.1736669,149.0933767,house,2,2,1,"$491,000",https://www.auhouseprices.com/sold/view/ACT/341861619/46+John+Crawford+Crescent%2C+Casey+ACT/
153,2913,Casey,116,https://www.auhouseprices.com/sold/list/ACT/2913/Casey/,8 Chilton Street ,-35.1706569,149.0901815,house,4,2,2,"$748,000",https://www.auhouseprices.com/sold/view/ACT/341571619/8+Chilton+Street%2C+Casey+ACT/
154,2913,Casey,116,https://www.auhouseprices.com/sold/list/ACT/2913/Casey/,11 Hugh Gilchrist Street ,-35.1726979,149.0957125,house,3,2,1,"$580,000",https://www.auhouseprices.com/sold/view/ACT/341361819/11+Hugh+Gilchrist+Street%2C+Casey+ACT/
155,2913,Casey,116,https://www.auhouseprices.com/sold/list/ACT/2913/Casey/,39 Dalkin Crescent ,-35.1741525,149.0944872,house,3,2,1,"$533,000",https://www.auhouseprices.com/sold/view/ACT/341053619/39+Dalkin+Crescent%2C+Casey+ACT/
156,2913,Casey,116,https://www.auhouseprices.com/sold/list/ACT/2913/Casey/,22 Quealy Street ,-35.1590912,149.0995237,house,2,1,1,"$385,000",https://www.auhouseprices.com/sold/view/ACT/341608719/22+Quealy+Street%2C+Casey+ACT/
157,2913,Casey,116,https://www.auhouseprices.com/sold/list/ACT/2913/Casey/,12 Fricker Place ,-35.1553880,149.0984920,house,5,4,2,,https://www.auhouseprices.com/sold/view/ACT/341021509/12+Fricker+Place%2C+Casey+ACT/
158,2913,Casey,116,https://www.auhouseprices.com/sold/list/ACT/2913/Casey/,2 Wilenski Street ,-35.1762298,149.0921798,house,3,2,2,"$610,000",https://www.auhouseprices.com/sold/view/ACT/341393509/2+Wilenski+Street%2C+Casey+ACT/
159,2913,Casey,116,https://www.auhouseprices.com/sold/list/ACT/2913/Casey/,1 Powley Street ,-35.1763473,149.0906017,house,4,2,2,"$815,000",https://www.auhouseprices.com/sold/view/ACT/341156409/1+Powley+Street%2C+Casey+ACT/
160,2913,Casey,116,https://www.auhouseprices.com/sold/list/ACT/2913/Casey/,16 Lambrick Lane ,-35.1761145,149.0946802,townhouse,3,2,2,"$570,000",https://www.auhouseprices.com/sold/view/ACT/341993409/16+Lambrick+Lane%2C+Casey+ACT/
161,2913,Casey,116,https://www.auhouseprices.com/sold/list/ACT/2913/Casey/,38 Whitrod Avenue ,-35.1593701,149.0995529,townhouse,2,1,1,"$418,000",https://www.auhouseprices.com/sold/view/ACT/341672009/38+Whitrod+Avenue%2C+Casey+ACT/
162,2913,Casey,116,https://www.auhouseprices.com/sold/list/ACT/2913/Casey/,14/68 Dalkin Crescent ,-35.1733634,149.0958064,apartment,2,2,1,"$400,000",https://www.auhouseprices.com/sold/view/ACT/341513409/14-68+Dalkin+Crescent%2C+Casey+ACT/
163,2913,Casey,116,https://www.auhouseprices.com/sold/list/ACT/2913/Casey/,3 Dunk Street ,-35.1701065,149.0933403,house,4,2,2,"$778,000",https://www.auhouseprices.com/sold/view/ACT/341576009/3+Dunk+Street%2C+Casey+ACT/
164,2913,Casey,116,https://www.auhouseprices.com/sold/list/ACT/2913/Casey/,71 Kingsland Parade ,-35.1716347,149.0960498,villa,3,2,2,"$535,000",https://www.auhouseprices.com/sold/view/ACT/341087009/71+Kingsland+Parade%2C+Casey+ACT/
165,2913,Casey,116,https://www.auhouseprices.com/sold/list/ACT/2913/Casey/,57 Cooley Crescent ,-35.1606862,149.0974790,house,4,2,2,"$880,000",https://www.auhouseprices.com/sold/view/ACT/341131209/57+Cooley+Crescent%2C+Casey+ACT/
166,2913,Casey,116,https://www.auhouseprices.com/sold/list/ACT/2913/Casey/,27 Macandie Street ,-35.1634951,149.0971779,house,4,2,2,"$772,000",https://www.auhouseprices.com/sold/view/ACT/341770909/27+Macandie+Street%2C+Casey+ACT/
167,2913,Casey,116,https://www.auhouseprices.com/sold/list/ACT/2913/Casey/,79 David Miller Crescent ,-35.1692664,149.0970846,house,4,2,2,"$815,000",https://www.auhouseprices.com/sold/view/ACT/341070909/79+David+Miller+Crescent%2C+Casey+ACT/
168,2913,Casey,116,https://www.auhouseprices.com/sold/list/ACT/2913/Casey/,21 Spratt Court ,-35.1570206,149.1029942,townhouse,2,1,1,"$386,000",https://www.auhouseprices.com/sold/view/ACT/341802209/21+Spratt+Court%2C+Casey+ACT/
169,2913,Casey,116,https://www.auhouseprices.com/sold/list/ACT/2913/Casey/,6 Sudradjat Street ,-35.1733146,149.0908095,house,4,2,2,"$730,000",https://www.auhouseprices.com/sold/view/ACT/341909809/6+Sudradjat+Street%2C+Casey+ACT/
170,2913,Casey,116,https://www.auhouseprices.com/sold/list/ACT/2913/Casey/,6 Victoria Owen Circuit ,-35.1656240,149.0965848,house,3,2,2,"$680,000",https://www.auhouseprices.com/sold/view/ACT/341809709/6+Victoria+Owen+Circuit%2C+Casey+ACT/
171,2913,Casey,116,https://www.auhouseprices.com/sold/list/ACT/2913/Casey/,30 Cooley Crescent ,-35.1618703,149.0952150,house,4,3,3,"$1,230,000",https://www.auhouseprices.com/sold/view/ACT/341047709/30+Cooley+Crescent%2C+Casey+ACT/
172,2913,Casey,116,https://www.auhouseprices.com/sold/list/ACT/2913/Casey/,47 Hyslop Crescent ,-35.1541676,149.0980361,house,4,2,4,,https://www.auhouseprices.com/sold/view/ACT/341097309/47+Hyslop+Crescent%2C+Casey+ACT/
173,2913,Casey,116,https://www.auhouseprices.com/sold/list/ACT/2913/Casey/,11/29 Bott Crescent ,-35.1634979,149.0959767,townhouse,4,2,2,"$607,000",https://www.auhouseprices.com/sold/view/ACT/341632209/11-29+Bott+Crescent%2C+Casey+ACT/
174,2913,Casey,116,https://www.auhouseprices.com/sold/list/ACT/2913/Casey/,16 Overall Avenue ,-35.1762939,149.0910835,house,3,2,1,"$650,000",https://www.auhouseprices.com/sold/view/ACT/341975709/16+Overall+Avenue%2C+Casey+ACT/
175,2913,Casey,116,https://www.auhouseprices.com/sold/list/ACT/2913/Casey/,4/12 Maris King Street ,-35.1701070,149.0955270,townhouse,3,2,2,"$495,000",https://www.auhouseprices.com/sold/view/ACT/341342209/4-12+Maris+King+Street%2C+Casey+ACT/
176,2913,Casey,116,https://www.auhouseprices.com/sold/list/ACT/2913/Casey/,28 Carmody Street ,-35.1769353,149.0889149,house,3,2,1,"$572,000",https://www.auhouseprices.com/sold/view/ACT/341627709/28+Carmody+Street%2C+Casey+ACT/
177,2913,Casey,116,https://www.auhouseprices.com/sold/list/ACT/2913/Casey/,41/15 Andersch Street ,-35.1604420,149.0990800,townhouse,1,1,1,"$310,000",https://www.auhouseprices.com/sold/view/ACT/341884709/41-15+Andersch+Street%2C+Casey+ACT/
178,2913,Casey,116,https://www.auhouseprices.com/sold/list/ACT/2913/Casey/,5 Borthwick Avenue ,-35.1708500,149.0917000,house,1,"$420,000",0,"$420,000",https://www.auhouseprices.com/sold/view/ACT/341009609/5+Borthwick+Avenue%2C+Casey+ACT/
179,2913,Casey,116,https://www.auhouseprices.com/sold/list/ACT/2913/Casey/,12 Keith Waller Rise ,-35.1592296,149.0972549,house,3,2,2,"$665,000",https://www.auhouseprices.com/sold/view/ACT/341489609/12+Keith+Waller+Rise%2C+Casey+ACT/
180,2913,Casey,116,https://www.auhouseprices.com/sold/list/ACT/2913/Casey/,3/6 Renouf Street ,-35.1658474,149.1002600,townhouse,3,2,2,"$595,000",https://www.auhouseprices.com/sold/view/ACT/341573609/3-6+Renouf+Street%2C+Casey+ACT/
181,2913,Casey,116,https://www.auhouseprices.com/sold/list/ACT/2913/Casey/,73 Overall Avenue ,-35.1720695,149.0919085,house,4,2,2,"$860,000",https://www.auhouseprices.com/sold/view/ACT/341743609/73+Overall+Avenue%2C+Casey+ACT/
182,2913,Casey,116,https://www.auhouseprices.com/sold/list/ACT/2913/Casey/,14 Bessell Lane ,-35.1610140,149.1004930,duplex-semi-detached,1,1,1,,https://www.auhouseprices.com/sold/view/ACT/341325499/14+Bessell+Lane%2C+Casey+ACT/
183,2913,Casey,116,https://www.auhouseprices.com/sold/list/ACT/2913/Casey/,41 Walter Crocker Crescent ,-35.1721324,149.0929641,house,3,2,1,"$603,100",https://www.auhouseprices.com/sold/view/ACT/341983399/41+Walter+Crocker+Crescent%2C+Casey+ACT/
184,2913,Casey,116,https://www.auhouseprices.com/sold/list/ACT/2913/Casey/,16 Loveday Crescent ,-35.1777560,149.0894190,house,3,2,1,"$520,000",https://www.auhouseprices.com/sold/view/ACT/341679299/16+Loveday+Crescent%2C+Casey+ACT/
185,2913,Casey,116,https://www.auhouseprices.com/sold/list/ACT/2913/Casey/,10 Winchester Street ,-35.1723440,149.0910500,house,4,2,2,"$778,500",https://www.auhouseprices.com/sold/view/ACT/341722299/10+Winchester+Street%2C+Casey+ACT/
186,2913,Casey,116,https://www.auhouseprices.com/sold/list/ACT/2913/Casey/,3/50 Victoria Owen Circuit ,-35.1631853,149.0947640,house,3,2,2,"$626,500",https://www.auhouseprices.com/sold/view/ACT/341459199/3-50+Victoria+Owen+Circuit%2C+Casey+ACT/
187,2913,Casey,116,https://www.auhouseprices.com/sold/list/ACT/2913/Casey/,22 Edna Thompson Crescent ,-35.1577200,149.0964750,house,6,4,2,"$1,200,000",https://www.auhouseprices.com/sold/view/ACT/341514199/22+Edna+Thompson+Crescent%2C+Casey+ACT/
188,2913,Casey,116,https://www.auhouseprices.com/sold/list/ACT/2913/Casey/,2 Yandell Way ,-35.1732350,149.0948870,house,3,2,2,,https://www.auhouseprices.com/sold/view/ACT/341797309/2+Yandell+Way%2C+Casey+ACT/
189,2913,Casey,116,https://www.auhouseprices.com/sold/list/ACT/2913/Casey/,10/12 Maris King Street ,-35.1701886,149.0953736,townhouse,3,2,2,"$518,000",https://www.auhouseprices.com/sold/view/ACT/341402099/10-12+Maris+King+Street%2C+Casey+ACT/
190,2913,Casey,116,https://www.auhouseprices.com/sold/list/ACT/2913/Casey/,174 Plimsoll Drive ,-35.1605685,149.0989293,house,3,2,2,,https://www.auhouseprices.com/sold/view/ACT/341246999/174+Plimsoll+Drive%2C+Casey+ACT/
191,2913,Casey,116,https://www.auhouseprices.com/sold/list/ACT/2913/Casey/,7 Tarling Street ,-35.1720090,149.0954093,house,3,2,1,,https://www.auhouseprices.com/sold/view/ACT/341702609/7+Tarling+Street%2C+Casey+ACT/
192,2913,Casey,116,https://www.auhouseprices.com/sold/list/ACT/2913/Casey/,13 Renfree Street ,-35.1695918,149.0923500,house,3,2,2,"$600,000",https://www.auhouseprices.com/sold/view/ACT/341520899/13+Renfree+Street%2C+Casey+ACT/
193,2913,Casey,116,https://www.auhouseprices.com/sold/list/ACT/2913/Casey/,12 Loveday Crescent ,-35.1777424,149.0896822,house,3,2,1,"$520,000",https://www.auhouseprices.com/sold/view/ACT/341456799/12+Loveday+Crescent%2C+Casey+ACT/
194,2913,Casey,116,https://www.auhouseprices.com/sold/list/ACT/2913/Casey/,32 Lansdown Crescent ,-35.1765363,149.0937468,house,2,1,2,"$450,000",https://www.auhouseprices.com/sold/view/ACT/341672799/32+Lansdown+Crescent%2C+Casey+ACT/
195,2913,Casey,116,https://www.auhouseprices.com/sold/list/ACT/2913/Casey/,2 Loveday Crescent ,-35.1773497,149.0899796,house,2,1,1,"$432,000",https://www.auhouseprices.com/sold/view/ACT/341891699/2+Loveday+Crescent%2C+Casey+ACT/
196,2913,Casey,116,https://www.auhouseprices.com/sold/list/ACT/2913/Casey/,5 Westerman Street ,-35.1754020,149.0920927,house,3,2,1,"$560,000",https://www.auhouseprices.com/sold/view/ACT/341920599/5+Westerman+Street%2C+Casey+ACT/
197,2913,Casey,116,https://www.auhouseprices.com/sold/list/ACT/2913/Casey/,18 Keith Waller Rise ,-35.1592104,149.0968044,house,4,2,2,"$760,000",https://www.auhouseprices.com/sold/view/ACT/341580599/18+Keith+Waller+Rise%2C+Casey+ACT/
198,2913,Casey,116,https://www.auhouseprices.com/sold/list/ACT/2913/Casey/,22 Renfree Street ,-35.1687380,149.0925410,house,4,2,2,"$735,000",https://www.auhouseprices.com/sold/view/ACT/341716599/22+Renfree+Street%2C+Casey+ACT/
199,2913,Casey,116,https://www.auhouseprices.com/sold/list/ACT/2913/Casey/,68 Greg Urwin Circuit ,-35.1559642,149.1036037,house,3,2,2,"$680,000",https://www.auhouseprices.com/sold/view/ACT/341836389/68+Greg+Urwin+Circuit%2C+Casey+ACT/
200,2913,Casey,116,https://www.auhouseprices.com/sold/list/ACT/2913/Casey/,11 Maris King Street ,-35.1704011,149.0950716,house,3,2,1,"$550,000",https://www.auhouseprices.com/sold/view/ACT/341625389/11+Maris+King++Street%2C+Casey+ACT/
201,2913,Casey,116,https://www.auhouseprices.com/sold/list/ACT/2913/Casey/,7 Meroula Street ,-35.1618750,149.0958450,house,4,2,2,"$730,000",https://www.auhouseprices.com/sold/view/ACT/341988289/7+Meroula+Street%2C+Casey+ACT/
202,2913,Casey,116,https://www.auhouseprices.com/sold/list/ACT/2913/Casey/,10 Carmody Street ,-35.1769768,149.0901677,house,3,2,2,"$675,000",https://www.auhouseprices.com/sold/view/ACT/341815289/10+Carmody+Street%2C+Casey+ACT/
203,2913,Casey,116,https://www.auhouseprices.com/sold/list/ACT/2913/Casey/,15/23 Renouf Street ,-35.1647230,149.0991570,townhouse,3,2,2,"$510,000",https://www.auhouseprices.com/sold/view/ACT/341082289/15-23+Renouf+Street%2C+Casey+ACT/
204,2913,Casey,116,https://www.auhouseprices.com/sold/list/ACT/2913/Casey/,85 Rockwood Street ,-35.1720790,149.0943820,house,3,2,1,"$525,000",https://www.auhouseprices.com/sold/view/ACT/341177599/85+Rockwood+Street%2C+Casey+ACT/
205,2913,Casey,116,https://www.auhouseprices.com/sold/list/ACT/2913/Casey/,4/155 Plimsoll Drive ,-35.1612226,149.0977816,house,3,2,2,,https://www.auhouseprices.com/sold/view/ACT/341431599/4-155+Plimsoll+Drive%2C+Casey+ACT/
206,2913,Casey,116,https://www.auhouseprices.com/sold/list/ACT/2913/Casey/,31 Loomes Lane ,-35.1658350,149.0968460,apartment,2,1,1,"$365,000",https://www.auhouseprices.com/sold/view/ACT/341835189/31+Loomes+Lane%2C+Casey+ACT/
207,2913,Casey,116,https://www.auhouseprices.com/sold/list/ACT/2913/Casey/,9/16 David Miller Crescent ,-35.1708460,149.0970760,apartment,2,1,2,"$317,000",https://www.auhouseprices.com/sold/view/ACT/341587599/9-16+David+Miller+Crescent%2C+Casey+ACT/
208,2913,Casey,116,https://www.auhouseprices.com/sold/list/ACT/2913/Casey/,11 Meroula Street ,-35.1616460,149.0958890,house,2,2,2,"$532,000",https://www.auhouseprices.com/sold/view/ACT/341826089/11+Meroula+Street%2C+Casey+ACT/
209,2913,Casey,116,https://www.auhouseprices.com/sold/list/ACT/2913/Casey/,7 Maris King Street ,-35.1705990,149.0950986,house,4,2,1,"$635,000",https://www.auhouseprices.com/sold/view/ACT/341857989/7+Maris+King+Street%2C+Casey+ACT/
210,2913,Casey,116,https://www.auhouseprices.com/sold/list/ACT/2913/Casey/,6 Greg Urwin Circuit ,-35.1566950,149.1005500,house,2,1,1,"$435,000",https://www.auhouseprices.com/sold/view/ACT/341030989/6+Greg+Urwin+Circuit%2C+Casey+ACT/
211,2913,Casey,116,https://www.auhouseprices.com/sold/list/ACT/2913/Casey/,9 Borthwick Avenue ,-35.1704770,149.0914680,house,4,2,2,"$700,000",https://www.auhouseprices.com/sold/view/ACT/341203889/9+Borthwick+Avenue%2C+Casey+ACT/
212,2913,Casey,116,https://www.auhouseprices.com/sold/list/ACT/2913/Casey/,59 John Crawford Crescent ,-35.1718970,149.0932820,house,3,2,1,"$600,000",https://www.auhouseprices.com/sold/view/ACT/341592889/59+John+Crawford+Crescent%2C+Casey+ACT/
213,2913,Casey,116,https://www.auhouseprices.com/sold/list/ACT/2913/Casey/,5 Ronald Walker ,-35.1625440,149.0990600,house,2,1,1,,https://www.auhouseprices.com/sold/view/ACT/341836889/5+Ronald+Walker%2C+Casey+ACT/
214,2913,Casey,116,https://www.auhouseprices.com/sold/list/ACT/2913/Casey/,5 Ronald Walker Street ,-35.1625460,149.0990540,house,2,1,1,,https://www.auhouseprices.com/sold/view/ACT/341499789/5+Ronald+Walker+Street%2C+Casey+ACT/
215,2913,Casey,116,https://www.auhouseprices.com/sold/list/ACT/2913/Casey/,21 Edna Thompson Crescent ,-35.1581390,149.0965170,house,4,2,2,"$1,000,000",https://www.auhouseprices.com/sold/view/ACT/341343789/21+Edna+Thompson+Crescent%2C+Casey+ACT/
216,2913,Casey,116,https://www.auhouseprices.com/sold/list/ACT/2913/Casey/,7 Arthur Tange Street ,-35.1753610,149.0928270,villa,2,1,1,,https://www.auhouseprices.com/sold/view/ACT/341979689/7+Arthur+Tange+Street%2C+Casey+ACT/
217,2913,Casey,116,https://www.auhouseprices.com/sold/list/ACT/2913/Casey/,28 Mick Shann Terrace ,-35.1766130,149.0865060,townhouse,3,1,1,"$465,000",https://www.auhouseprices.com/sold/view/ACT/341392689/28+Mick+Shann+Terrace%2C+Casey+ACT/
218,2913,Casey,116,https://www.auhouseprices.com/sold/list/ACT/2913/Casey/,24 Neil Currie Street ,-35.1762950,149.0926140,house,4,2,2,"$625,000",https://www.auhouseprices.com/sold/view/ACT/341764589/24+Neil+Currie+Street%2C+Casey+ACT/
219,2913,Casey,116,https://www.auhouseprices.com/sold/list/ACT/2913/Casey/,3 Westerman Street ,-35.1752290,149.0918670,house,3,2,1,"$585,000",https://www.auhouseprices.com/sold/view/ACT/341299589/3+Westerman+Street%2C+Casey+ACT/
220,2913,Casey,116,https://www.auhouseprices.com/sold/list/ACT/2913/Casey/,4 Ted Richards Street ,-35.1701070,149.0938780,house,4,2,1,"$520,000",https://www.auhouseprices.com/sold/view/ACT/341859479/4+Ted+Richards+Street%2C+Casey+ACT/
221,2913,Casey,116,https://www.auhouseprices.com/sold/list/ACT/2913/Casey/,27 Renouf Street ,-35.1646870,149.0994450,house,4,2,2,"$720,000",https://www.auhouseprices.com/sold/view/ACT/341631799/27+Renouf+Street%2C+Casey+ACT/
222,2913,Casey,116,https://www.auhouseprices.com/sold/list/ACT/2913/Casey/,10 Shedden Street ,-35.1703610,149.0945250,house,4,2,2,"$673,500",https://www.auhouseprices.com/sold/view/ACT/341914479/10+Shedden+Street%2C+Casey+ACT/
223,2913,Casey,116,https://www.auhouseprices.com/sold/list/ACT/2913/Casey/,2/155 Plimsoll Drive ,-35.1611480,149.0979320,townhouse,3,2,2,"$520,000",https://www.auhouseprices.com/sold/view/ACT/341999379/2-155+Plimsoll+Drive%2C+Casey+ACT/
224,2913,Casey,116,https://www.auhouseprices.com/sold/list/ACT/2913/Casey/,22 Ashton Calvert Street ,-35.1750530,149.0890400,house,4,2,2,"$929,200",https://www.auhouseprices.com/sold/view/ACT/341591479/22+Ashton+Calvert+Street%2C+Casey+ACT/
225,2913,Casey,116,https://www.auhouseprices.com/sold/list/ACT/2913/Casey/,22 Ashton Calvert Street ,-35.1750520,149.0890360,house,4,2,2,"$929,200",https://www.auhouseprices.com/sold/view/ACT/341378379/22+Ashton+Calvert+Street%2C+Casey+ACT/
226,2913,Casey,116,https://www.auhouseprices.com/sold/list/ACT/2913/Casey/,39 Walter Crocker Crescent ,-35.1720800,149.0927110,house,3,2,1,"$555,000",https://www.auhouseprices.com/sold/view/ACT/341217379/39+Walter+Crocker+Crescent%2C+Casey+ACT/
227,2913,Casey,116,https://www.auhouseprices.com/sold/list/ACT/2913/Casey/,1/87 Plimsoll Drive ,-35.1655090,149.0973760,house,4,2,2,"$580,000",https://www.auhouseprices.com/sold/view/ACT/341263379/1-87+Plimsoll+Drive%2C+Casey+ACT/
228,2913,Casey,116,https://www.auhouseprices.com/sold/list/ACT/2913/Casey/,49 Rockwood Street ,-35.1734550,149.0937650,house,2,2,1,"$502,000",https://www.auhouseprices.com/sold/view/ACT/341541379/49+Rockwood+Street%2C+Casey+ACT/
229,2913,Casey,116,https://www.auhouseprices.com/sold/list/ACT/2913/Casey/,46/15 Andersch Street ,-35.1604420,149.0990800,house,1,1,1,"$312,500",https://www.auhouseprices.com/sold/view/ACT/341101179/46-15+Andersch+Street%2C+Casey+ACT/
230,2913,Casey,116,https://www.auhouseprices.com/sold/list/ACT/2913/Casey/,45 Patrick Shaw Street ,-35.1579430,149.1016510,house,3,2,2,"$585,000",https://www.auhouseprices.com/sold/view/ACT/341277079/45+Patrick+Shaw+Street%2C+Casey+ACT/
231,2913,Casey,116,https://www.auhouseprices.com/sold/list/ACT/2913/Casey/,7 Alan Watt Crescent ,-35.1604020,149.0980550,house,4,2,2,"$860,000",https://www.auhouseprices.com/sold/view/ACT/341476079/7+Alan+Watt+Crescent%2C+Casey+ACT/
232,2913,Casey,116,https://www.auhouseprices.com/sold/list/ACT/2913/Casey/,7 Wighton Terrace ,-35.1714960,149.0914680,house,4,2,2,"$760,000",https://www.auhouseprices.com/sold/view/ACT/341835979/7+Wighton+Terrace%2C+Casey+ACT/
233,2913,Casey,116,https://www.auhouseprices.com/sold/list/ACT/2913/Casey/,9 Lansdown Crescent ,-35.1768250,149.0922930,townhouse,3,2,2,"$535,000",https://www.auhouseprices.com/sold/view/ACT/341425979/9+Lansdown+Crescent%2C+Casey+ACT/
234,2913,Casey,116,https://www.auhouseprices.com/sold/list/ACT/2913/Casey/,3 Chuter Street ,-35.1773040,149.0893720,house,3,2,1,"$523,500",https://www.auhouseprices.com/sold/view/ACT/341193979/3+Chuter+Street%2C+Casey+ACT/
235,2913,Casey,116,https://www.auhouseprices.com/sold/list/ACT/2913/Casey/,3/6 Renouf Street ,-35.1659900,149.1001060,townhouse,3,2,2,"$550,000",https://www.auhouseprices.com/sold/view/ACT/341902979/3-6+Renouf+Street%2C+Casey+ACT/
236,2913,Casey,116,https://www.auhouseprices.com/sold/list/ACT/2913/Casey/,58 Dalkin Crescent ,-35.1736330,149.0950120,townhouse,3,2,1,,https://www.auhouseprices.com/sold/view/ACT/341967309/58+Dalkin+Crescent%2C+Casey+ACT/
237,2913,Casey,116,https://www.auhouseprices.com/sold/list/ACT/2913/Casey/,3 Bev Lawson Street ,-35.1712400,149.0888960,house,4,3,2,,https://www.auhouseprices.com/sold/view/ACT/341147309/3+Bev+Lawson+Street%2C+Casey+ACT/
238,2913,Casey,116,https://www.auhouseprices.com/sold/list/ACT/2913/Casey/,4/29 Bott Crescent ,-35.1635990,149.0962260,house,4,2,2,"$534,000",https://www.auhouseprices.com/sold/view/ACT/341122779/4-29+Bott+Crescent%2C+Casey+ACT/
239,2913,Casey,116,https://www.auhouseprices.com/sold/list/ACT/2913/Casey/,50 Lansdown Crescent ,-35.1760020,149.0935710,townhouse,2,1,1,"$415,000",https://www.auhouseprices.com/sold/view/ACT/341271779/50+Lansdown+Crescent%2C+Casey+ACT/
240,2913,Casey,116,https://www.auhouseprices.com/sold/list/ACT/2913/Casey/,31 Overall Avenue ,-35.1748520,149.0902360,house,2,2,1,,https://www.auhouseprices.com/sold/view/ACT/341307679/31+Overall++Avenue%2C+Casey+ACT/
241,2913,Casey,116,https://www.auhouseprices.com/sold/list/ACT/2913/Casey/,73 Greg Urwin Circuit ,-35.1567550,149.1032240,house,4,3,2,"$591,000",https://www.auhouseprices.com/sold/view/ACT/341336679/73+Greg+Urwin+Circuit%2C+Casey+ACT/
242,2913,Casey,116,https://www.auhouseprices.com/sold/list/ACT/2913/Casey/,19 Edna Thompson Crescent ,-35.1581510,149.0967270,house,5,3,2,"$960,000",https://www.auhouseprices.com/sold/view/ACT/341847309/19+Edna+Thompson+Crescent%2C+Casey+ACT/
243,2913,Casey,116,https://www.auhouseprices.com/sold/list/ACT/2913/Casey/,41 Annie Douglas Street ,-35.1566820,149.1025200,house,4,2,2,"$691,000",https://www.auhouseprices.com/sold/view/ACT/341108679/41+Annie+Douglas+Street%2C+Casey+ACT/
244,2913,Casey,116,https://www.auhouseprices.com/sold/list/ACT/2913/Casey/,43 Neil Currie Street ,-35.1754930,149.0935530,house,3,2,1,"$505,000",https://www.auhouseprices.com/sold/view/ACT/341042579/43+Neil+Currie+Street%2C+Casey+ACT/
245,2913,Casey,116,https://www.auhouseprices.com/sold/list/ACT/2913/Casey/,32 Loveday Crescent ,-35.1774180,149.0883710,house,4,2,1,"$530,000",https://www.auhouseprices.com/sold/view/ACT/341842469/32+Loveday+Crescent%2C+Casey+ACT/
246,2913,Casey,116,https://www.auhouseprices.com/sold/list/ACT/2913/Casey/,37 Neil Currie Street ,-35.1755850,149.0932660,house,3,2,2,"$600,000",https://www.auhouseprices.com/sold/view/ACT/341389469/37+Neil+Currie+Street%2C+Casey+ACT/
247,2913,Casey,116,https://www.auhouseprices.com/sold/list/ACT/2913/Casey/,54 Dalkin Crescent ,-35.1736680,149.0950910,townhouse,2,2,2,,https://www.auhouseprices.com/sold/view/ACT/341677309/54+Dalkin+Crescent%2C+Casey+ACT/
248,2913,Casey,116,https://www.auhouseprices.com/sold/list/ACT/2913/Casey/,6 Westerman Street ,-35.1756330,149.0920920,house,4,2,2,"$573,000",https://www.auhouseprices.com/sold/view/ACT/341282369/6+Westerman+Street%2C+Casey+ACT/
249,2913,Casey,116,https://www.auhouseprices.com/sold/list/ACT/2913/Casey/,21 Bott Crescent ,-35.1643330,149.0966120,house,3,2,2,"$660,000",https://www.auhouseprices.com/sold/view/ACT/341690269/21+Bott+Crescent%2C+Casey+ACT/
250,2913,Casey,116,https://www.auhouseprices.com/sold/list/ACT/2913/Casey/,22 Wighton Terrace ,-35.1712300,149.0901000,house,4,2,2,"$780,000",https://www.auhouseprices.com/sold/view/ACT/341728269/22+Wighton+Terrace%2C+Casey+ACT/
251,2913,Casey,116,https://www.auhouseprices.com/sold/list/ACT/2913/Casey/,6 Macandie Street ,-35.1641060,149.0982700,townhouse,3,2,2,"$522,500",https://www.auhouseprices.com/sold/view/ACT/341177269/6+Macandie+Street%2C+Casey+ACT/
252,2913,Casey,116,https://www.auhouseprices.com/sold/list/ACT/2913/Casey/,62 Alan Watt Crescent ,-35.1589020,149.0974670,house,4,2,2,"$740,000",https://www.auhouseprices.com/sold/view/ACT/341426269/62+Alan+Watt+Crescent%2C+Casey+ACT/
253,2913,Casey,116,https://www.auhouseprices.com/sold/list/ACT/2913/Casey/,22 Kevin Curtis Crescent ,-35.1647390,149.0957600,house,4,2,2,"$750,000",https://www.auhouseprices.com/sold/view/ACT/341070469/22+Kevin+Curtis+Crescent%2C+Casey+ACT/
254,2913,Casey,116,https://www.auhouseprices.com/sold/list/ACT/2913/Casey/,10 Patrick Shaw Street ,-35.1578870,149.0996640,house,4,2,2,"$675,000",https://www.auhouseprices.com/sold/view/ACT/341824269/10+Patrick+Shaw+Street%2C+Casey+ACT/
255,2913,Casey,116,https://www.auhouseprices.com/sold/list/ACT/2913/Casey/,9 Liz O'Neill Street ,-35.1649460,149.1002960,house,4,2,2,"$815,000",https://www.auhouseprices.com/sold/view/ACT/341091269/9+Liz+O%27Neill+Street%2C+Casey+ACT/
256,2913,Casey,116,https://www.auhouseprices.com/sold/list/ACT/2913/Casey/,27 Hyslop Crescent ,-35.1549130,149.0999030,house,3,2,2,"$635,100",https://www.auhouseprices.com/sold/view/ACT/341839169/27+Hyslop+Crescent%2C+Casey+ACT/
257,2913,Casey,116,https://www.auhouseprices.com/sold/list/ACT/2913/Casey/,9 Pickup Close ,-35.1658170,149.0949960,townhouse,3,2,2,"$490,000",https://www.auhouseprices.com/sold/view/ACT/341551269/9+Pickup+Close%2C+Casey+ACT/
258,2913,Casey,116,https://www.auhouseprices.com/sold/list/ACT/2913/Casey/,37 Dalkin Crescent ,-35.1740700,149.0942700,house,3,2,1,"$510,000",https://www.auhouseprices.com/sold/view/ACT/341492669/37+Dalkin+Crescent%2C+Casey+ACT/
259,2913,Casey,116,https://www.auhouseprices.com/sold/list/ACT/2913/Casey/,53 Rockwood Street ,-35.1732970,149.0939270,house,3,2,1,"$547,000",https://www.auhouseprices.com/sold/view/ACT/341159569/53+Rockwood+Street%2C+Casey+ACT/
260,2913,Casey,116,https://www.auhouseprices.com/sold/list/ACT/2913/Casey/,18 Mick Shann Terrace ,-35.1767770,149.0870060,villa,3,1,1,"$475,000",https://www.auhouseprices.com/sold/view/ACT/341466569/18+Mick+Shann+Terrace%2C+Casey+ACT/
261,2913,Casey,116,https://www.auhouseprices.com/sold/list/ACT/2913/Casey/,46 Hanley Street ,-35.1663340,149.0948470,house,4,2,2,"$850,000",https://www.auhouseprices.com/sold/view/ACT/341454569/46+Hanley+Street%2C+Casey+ACT/
262,2913,Casey,116,https://www.auhouseprices.com/sold/list/ACT/2913/Casey/,17 Ted Richards Street ,-35.1707800,149.0926490,house,3,2,2,"$583,000",https://www.auhouseprices.com/sold/view/ACT/341346569/17+Ted+Richards+Street%2C+Casey+ACT/
263,2913,Casey,116,https://www.auhouseprices.com/sold/list/ACT/2913/Casey/,20 Rattigan Street ,-35.1671220,149.0937360,house,4,2,2,"$955,000",https://www.auhouseprices.com/sold/view/ACT/341031779/20+Rattigan+Street%2C+Casey+ACT/
264,2913,Casey,116,https://www.auhouseprices.com/sold/list/ACT/2913/Casey/,72 Rockwood Street ,-35.1719770,149.0948620,house,3,2,1,"$525,000",https://www.auhouseprices.com/sold/view/ACT/341600569/72+Rockwood+Street%2C+Casey+ACT/
265,2913,Casey,116,https://www.auhouseprices.com/sold/list/ACT/2913/Casey/,7 Chilton Street ,-35.1709450,149.0902730,house,4,2,2,"$755,000",https://www.auhouseprices.com/sold/view/ACT/341902569/7+Chilton+Street%2C+Casey+ACT/
266,2913,Casey,116,https://www.auhouseprices.com/sold/list/ACT/2913/Casey/,52 Ashton Calvert Street ,-35.1729270,149.0905150,house,4,3,2,"$940,000",https://www.auhouseprices.com/sold/view/ACT/341790569/52+Ashton+Calvert+Street%2C+Casey+ACT/
267,2913,Casey,116,https://www.auhouseprices.com/sold/list/ACT/2913/Casey/,166 Plimsoll Drive ,-35.1613410,149.0990400,townhouse,4,3,2,"$610,000",https://www.auhouseprices.com/sold/view/ACT/341852569/166+Plimsoll+Drive%2C+Casey+ACT/
268,2913,Casey,116,https://www.auhouseprices.com/sold/list/ACT/2913/Casey/,34 Overall Avenue ,-35.1749560,149.0908230,house,4,2,2,"$712,000",https://www.auhouseprices.com/sold/view/ACT/341873459/34+Overall+Avenue%2C+Casey+ACT/
269,2913,Casey,116,https://www.auhouseprices.com/sold/list/ACT/2913/Casey/,4 Macandie Street ,-35.1641870,149.0982800,house,3,2,2,,https://www.auhouseprices.com/sold/view/ACT/341724459/4+Macandie+Street%2C+Casey+ACT/
270,2913,Casey,116,https://www.auhouseprices.com/sold/list/ACT/2913/Casey/,23 Ted Richards Street ,-35.1707330,149.0920690,house,3,2,2,"$580,000",https://www.auhouseprices.com/sold/view/ACT/341753459/23+Ted+Richards+Street%2C+Casey+ACT/
271,2913,Casey,116,https://www.auhouseprices.com/sold/list/ACT/2913/Casey/,46 Liz O'Neill Street ,-35.1632610,149.0993170,house,3,2,2,"$601,000",https://www.auhouseprices.com/sold/view/ACT/341370359/46+Liz+O%27Neill+Street%2C+Casey+ACT/
272,2913,Casey,116,https://www.auhouseprices.com/sold/list/ACT/2913/Casey/,80 Overall Avenue ,-35.1719190,149.0925240,house,3,2,2,"$637,000",https://www.auhouseprices.com/sold/view/ACT/341039359/80+Overall+Avenue%2C+Casey+ACT/
273,2913,Casey,116,https://www.auhouseprices.com/sold/list/ACT/2913/Casey/,22 Alan Watt Crescent ,-35.1598700,149.0971710,house,4,2,2,"$825,000",https://www.auhouseprices.com/sold/view/ACT/341694359/22+Alan+Watt+Crescent%2C+Casey+ACT/
274,2913,Casey,116,https://www.auhouseprices.com/sold/list/ACT/2913/Casey/,11/17 Pickup Close ,-35.1657710,149.0946600,townhouse,3,2,2,"$525,000",https://www.auhouseprices.com/sold/view/ACT/341533359/11-17+Pickup+Close%2C+Casey+ACT/
275,2913,Casey,116,https://www.auhouseprices.com/sold/list/ACT/2913/Casey/,16 Dunk Street ,-35.1694280,149.0935290,house,3,2,1,"$542,000",https://www.auhouseprices.com/sold/view/ACT/341610259/16+Dunk+Street%2C+Casey+ACT/
276,2913,Casey,116,https://www.auhouseprices.com/sold/list/ACT/2913/Casey/,12 Breen Street ,-35.1639810,149.0996670,house,3,2,2,"$596,000",https://www.auhouseprices.com/sold/view/ACT/341340159/12+Breen+Street%2C+Casey+ACT/
277,2913,Casey,116,https://www.auhouseprices.com/sold/list/ACT/2913/Casey/,12 Neil Currie Street ,-35.1765040,149.0921150,house,4,2,2,"$602,000",https://www.auhouseprices.com/sold/view/ACT/341630159/12+Neil+Currie+Street%2C+Casey+ACT/
278,2913,Casey,116,https://www.auhouseprices.com/sold/list/ACT/2913/Casey/,5 Wilenski Street ,-35.1760090,149.0915720,house,4,2,1,,https://www.auhouseprices.com/sold/view/ACT/341807769/5+Wilenski+Street%2C+Casey+ACT/
279,2913,Casey,116,https://www.auhouseprices.com/sold/list/ACT/2913/Casey/,25/15 Andersch Street ,-35.1604420,149.0990800,townhouse,2,1,0,"$385,000",https://www.auhouseprices.com/sold/view/ACT/341366259/25-15+Andersch+Street%2C+Casey+ACT/
280,2913,Casey,116,https://www.auhouseprices.com/sold/list/ACT/2913/Casey/,66 Mick Shann Terrace ,-35.1745000,149.0868570,house,4,2,2,"$930,000",https://www.auhouseprices.com/sold/view/ACT/341655059/66+Mick+Shann+Terrace%2C+Casey+ACT/
281,2913,Casey,116,https://www.auhouseprices.com/sold/list/ACT/2913/Casey/,4 Winchester Street ,-35.1727790,149.0907510,house,4,2,2,"$1,030,000",https://www.auhouseprices.com/sold/view/ACT/341336059/4+Winchester+Street%2C+Casey+ACT/
282,2913,Casey,116,https://www.auhouseprices.com/sold/list/ACT/2913/Casey/,22 Hanley Street ,-35.1677780,149.0933390,house,5,3,2,,https://www.auhouseprices.com/sold/view/ACT/341086769/22+Hanley+Street%2C+Casey+ACT/
283,2913,Casey,116,https://www.auhouseprices.com/sold/list/ACT/2913/Casey/,16 Westerman Street ,-35.1754670,149.0925350,house,3,2,2,"$565,000",https://www.auhouseprices.com/sold/view/ACT/341171059/16+Westerman+Street%2C+Casey+ACT/
284,2913,Casey,116,https://www.auhouseprices.com/sold/list/ACT/2913/Casey/,15/62 Whitrod Avenue ,-35.1589920,149.0990790,townhouse,2,2,2,"$410,000",https://www.auhouseprices.com/sold/view/ACT/341497059/15-62+Whitrod+Avenue%2C+Casey+ACT/
285,2913,Casey,116,https://www.auhouseprices.com/sold/list/ACT/2913/Casey/,14 Rattigan Street ,-35.1672060,149.0943030,house,4,2,2,"$790,000",https://www.auhouseprices.com/sold/view/ACT/341387309/14+Rattigan+Street%2C+Casey+ACT/
286,2913,Casey,116,https://www.auhouseprices.com/sold/list/ACT/2913/Casey/,17/138 Plimsoll Drive ,-35.1623610,149.0988320,house,3,2,2,"$520,000",https://www.auhouseprices.com/sold/view/ACT/341360959/17-138+Plimsoll+Drive%2C+Casey+ACT/
287,2913,Casey,116,https://www.auhouseprices.com/sold/list/ACT/2913/Casey/,26 Wighton Terrace ,-35.1712800,149.0897190,house,4,3,2,"$770,000",https://www.auhouseprices.com/sold/view/ACT/341317859/26+Wighton+Terrace%2C+Casey+ACT/
288,2913,Casey,116,https://www.auhouseprices.com/sold/list/ACT/2913/Casey/,8 Dunk Street ,-35.1698090,149.0936550,house,3,2,1,"$587,000",https://www.auhouseprices.com/sold/view/ACT/341085859/8+Dunk+Street%2C+Casey+ACT/
289,2913,Casey,116,https://www.auhouseprices.com/sold/list/ACT/2913/Casey/,13 McGovern Street ,-35.1603490,149.0993640,house,2,1,2,,https://www.auhouseprices.com/sold/view/ACT/341430859/13+McGovern+Street%2C+Casey+ACT/
290,2913,Casey,116,https://www.auhouseprices.com/sold/list/ACT/2913/Casey/,50 Whitrod Avenue ,-35.1590760,149.0994340,townhouse,2,2,2,,https://www.auhouseprices.com/sold/view/ACT/341190959/50+Whitrod+Avenue%2C+Casey+ACT/
291,2913,Casey,116,https://www.auhouseprices.com/sold/list/ACT/2913/Casey/,15 Forace Street ,-35.1690380,149.0981310,house,3,2,2,,https://www.auhouseprices.com/sold/view/ACT/341685759/15+Forace++Street%2C+Casey+ACT/
292,2913,Casey,116,https://www.auhouseprices.com/sold/list/ACT/2913/Casey/,35 Patrick Shaw Street ,-35.1578160,149.1011260,townhouse,2,1,1,"$442,000",https://www.auhouseprices.com/sold/view/ACT/341734059/35+Patrick+Shaw+Street%2C+Casey+ACT/
293,2913,Casey,116,https://www.auhouseprices.com/sold/list/ACT/2913/Casey/,50 Overall Avenue ,-35.1738030,149.0914550,house,4,2,2,"$768,000",https://www.auhouseprices.com/sold/view/ACT/341702659/50+Overall+Avenue%2C+Casey+ACT/
294,2913,Casey,116,https://www.auhouseprices.com/sold/list/ACT/2913/Casey/,17 McGovern Street ,-35.1603500,149.0994400,villa,2,1,2,"$388,000",https://www.auhouseprices.com/sold/view/ACT/341759879/17+McGovern+Street%2C+Casey+ACT/
295,2913,Casey,116,https://www.auhouseprices.com/sold/list/ACT/2913/Casey/,13 Victoria Owen Circuit ,-35.1651950,149.0960690,house,4,2,2,"$715,000",https://www.auhouseprices.com/sold/view/ACT/341760659/13+Victoria+Owen+Circuit%2C+Casey+ACT/
296,2913,Casey,116,https://www.auhouseprices.com/sold/list/ACT/2913/Casey/,53 Alan Watt Crescent ,-35.1584300,149.0967690,house,4,2,2,"$825,000",https://www.auhouseprices.com/sold/view/ACT/341398449/53+Alan+Watt+Crescent%2C+Casey+ACT/
297,2913,Casey,116,https://www.auhouseprices.com/sold/list/ACT/2913/Casey/,61 McGovern Street ,-35.1610230,149.1010490,townhouse,2,1,2,"$415,000",https://www.auhouseprices.com/sold/view/ACT/341436449/61+McGovern+Street%2C+Casey+ACT/
298,2913,Casey,116,https://www.auhouseprices.com/sold/list/ACT/2913/Casey/,98 Greg Urwin Circuit ,-35.1558710,149.1020790,house,4,2,2,"$760,000",https://www.auhouseprices.com/sold/view/ACT/341316449/98+Greg+Urwin+Circuit%2C+Casey+ACT/
299,2913,Casey,116,https://www.auhouseprices.com/sold/list/ACT/2913/Casey/,25 Bott Crescent ,-35.1640850,149.0965100,house,3,2,2,"$670,000",https://www.auhouseprices.com/sold/view/ACT/341792349/25+Bott+Crescent%2C+Casey+ACT/
300,2913,Casey,116,https://www.auhouseprices.com/sold/list/ACT/2913/Casey/,44 Whitrod Avenue ,-35.1591210,149.0996160,townhouse,2,2,2,,https://www.auhouseprices.com/sold/view/ACT/341430249/44+Whitrod+Avenue%2C+Casey+ACT/
301,2913,Casey,116,https://www.auhouseprices.com/sold/list/ACT/2913/Casey/,31 John Crawford Crescent ,-35.1735590,149.0928310,house,3,2,2,"$615,000",https://www.auhouseprices.com/sold/view/ACT/341509249/31+John+Crawford+Crescent%2C+Casey+ACT/
302,2913,Casey,116,https://www.auhouseprices.com/sold/list/ACT/2913/Casey/,23 Wilenski Street ,-35.1750110,149.0911010,house,4,2,3,"$830,000",https://www.auhouseprices.com/sold/view/ACT/341670249/23+Wilenski+Street%2C+Casey+ACT/
303,2913,Casey,116,https://www.auhouseprices.com/sold/list/ACT/2913/Casey/,18/7 Loveday Crescent ,-35.1772540,149.0906340,townhouse,2,2,1,"$405,000",https://www.auhouseprices.com/sold/view/ACT/341335149/18-7+Loveday+Crescent%2C+Casey+ACT/
304,2913,Casey,116,https://www.auhouseprices.com/sold/list/ACT/2913/Casey/,42 John Crawford Crescent ,-35.1737190,149.0933130,house,2,2,1,"$490,000",https://www.auhouseprices.com/sold/view/ACT/341381149/42+John+Crawford+Crescent%2C+Casey+ACT/
305,2913,Casey,116,https://www.auhouseprices.com/sold/list/ACT/2913/Casey/,18 Carmody Street ,-35.1768370,149.0895280,house,4,2,2,"$677,000",https://www.auhouseprices.com/sold/view/ACT/341180049/18+Carmody+Street%2C+Casey+ACT/
306,2913,Casey,116,https://www.auhouseprices.com/sold/list/ACT/2913/Casey/,54 Alan Watt Crescent ,-35.1588660,149.0968890,house,4,3,2,"$820,000",https://www.auhouseprices.com/sold/view/ACT/341259049/54+Alan+Watt+Crescent%2C+Casey+ACT/
307,2913,Casey,116,https://www.auhouseprices.com/sold/list/ACT/2913/Casey/,43 John Crawford Crescent ,-35.1728630,149.0931180,house,3,2,1,"$525,000",https://www.auhouseprices.com/sold/view/ACT/341549049/43+John+Crawford+Crescent%2C+Casey+ACT/
308,2913,Casey,116,https://www.auhouseprices.com/sold/list/ACT/2913/Casey/,8 Ronald Walker Street ,-35.1630110,149.0993560,house,4,3,2,"$777,500",https://www.auhouseprices.com/sold/view/ACT/341786439/8+Ronald+Walker+Street%2C+Casey+ACT/
309,2913,Casey,116,https://www.auhouseprices.com/sold/list/ACT/2913/Casey/,5/68 Dalkin Crescent ,-35.1734330,149.0956650,unit,1,1,1,"$342,500",https://www.auhouseprices.com/sold/view/ACT/341376439/5-68+Dalkin+Crescent%2C+Casey+ACT/
310,2913,Casey,116,https://www.auhouseprices.com/sold/list/ACT/2913/Casey/,32B Scholtens Street ,-35.1569370,149.1010010,townhouse,2,1,1,"$380,000",https://www.auhouseprices.com/sold/view/ACT/341429339/32B+Scholtens+Street%2C+Casey+ACT/
311,2913,Casey,116,https://www.auhouseprices.com/sold/list/ACT/2913/Casey/,65 Overall Avenue ,-35.1724150,149.0913880,house,4,2,2,"$683,000",https://www.auhouseprices.com/sold/view/ACT/341613439/65+Overall+Avenue%2C+Casey+ACT/
312,2913,Casey,116,https://www.auhouseprices.com/sold/list/ACT/2913/Casey/,4 Rockwood Street ,-35.1751720,149.0940460,house,3,1,1,"$482,000",https://www.auhouseprices.com/sold/view/ACT/341080239/4+Rockwood+Street%2C+Casey+ACT/
313,2913,Casey,116,https://www.auhouseprices.com/sold/list/ACT/2913/Casey/,52 Lansdown Crescent ,-35.1759590,149.0935490,house,2,1,2,"$440,000",https://www.auhouseprices.com/sold/view/ACT/341392239/52+Lansdown+Crescent%2C+Casey+ACT/
314,2913,Casey,116,https://www.auhouseprices.com/sold/list/ACT/2913/Casey/,11 Quealy Street ,-35.1587980,149.0995010,house,2,1,1,"$445,000",https://www.auhouseprices.com/sold/view/ACT/341145249/11+Quealy+Street%2C+Casey+ACT/
315,2913,Casey,116,https://www.auhouseprices.com/sold/list/ACT/2913/Casey/,11 Pickup Close ,-35.1658070,149.0949150,townhouse,3,2,2,"$531,000",https://www.auhouseprices.com/sold/view/ACT/341256769/11+Pickup+Close%2C+Casey+ACT/
316,2913,Casey,116,https://www.auhouseprices.com/sold/list/ACT/2913/Casey/,66 Greg Urwin Circuit ,-35.1561700,149.1036370,house,3,2,2,"$650,000",https://www.auhouseprices.com/sold/view/ACT/341606039/66+Greg+Urwin+Circuit%2C+Casey+ACT/
317,2913,Casey,116,https://www.auhouseprices.com/sold/list/ACT/2913/Casey/,28 Loveday Crescent ,-35.1774850,149.0885650,townhouse,3,2,1,"$515,000",https://www.auhouseprices.com/sold/view/ACT/341374039/28+Loveday+Crescent%2C+Casey+ACT/
318,2913,Casey,116,https://www.auhouseprices.com/sold/list/ACT/2913/Casey/,30 Overall Avenue ,-35.1752400,149.0908400,house,3,2,2,"$655,000",https://www.auhouseprices.com/sold/view/ACT/341913039/30+Overall+Avenue%2C+Casey+ACT/
319,2913,Casey,116,https://www.auhouseprices.com/sold/list/ACT/2913/Casey/,13 Selleck Street ,-35.1618250,149.0991360,house,4,2,2,"$660,000",https://www.auhouseprices.com/sold/view/ACT/341532039/13+Selleck+Street%2C+Casey+ACT/
320,2913,Casey,116,https://www.auhouseprices.com/sold/list/ACT/2913/Casey/,11 Rockwood Street ,-35.1750040,149.0934530,house,3,2,1,"$532,000",https://www.auhouseprices.com/sold/view/ACT/341134039/11+Rockwood+Street%2C+Casey+ACT/
321,2913,Casey,116,https://www.auhouseprices.com/sold/list/ACT/2913/Casey/,3 Hyslop Crescent ,-35.1564050,149.0987910,house,5,4,2,"$980,000",https://www.auhouseprices.com/sold/view/ACT/341714039/3+Hyslop+Crescent%2C+Casey+ACT/
322,2913,Casey,116,https://www.auhouseprices.com/sold/list/ACT/2913/Casey/,20 Lambrick Lane ,-35.1758430,149.0946350,house,2,1,1,,https://www.auhouseprices.com/sold/view/ACT/341546769/20+Lambrick+Lane%2C+Casey+ACT/
323,2913,Casey,116,https://www.auhouseprices.com/sold/list/ACT/2913/Casey/,25 Keith Waller Rise ,-35.1595670,149.0967520,house,5,4,2,"$930,000",https://www.auhouseprices.com/sold/view/ACT/341698839/25+Keith+Waller+Rise%2C+Casey+ACT/
324,2913,Casey,116,https://www.auhouseprices.com/sold/list/ACT/2913/Casey/,6 Nordeck Street ,-35.1585060,149.0993720,house,4,2,2,"$750,000",https://www.auhouseprices.com/sold/view/ACT/341185839/6+Nordeck+Street%2C+Casey+ACT/
325,2913,Casey,116,https://www.auhouseprices.com/sold/list/ACT/2913/Casey/,11/2 Neil Currie Street ,-35.1768990,149.0915830,townhouse,2,2,1,"$410,000",https://www.auhouseprices.com/sold/view/ACT/341911839/11-2+Neil+Currie+Street%2C+Casey+ACT/
326,2913,Casey,116,https://www.auhouseprices.com/sold/list/ACT/2913/Casey/,10 Breen Street ,-35.1640000,149.0997920,house,3,2,1,"$565,000",https://www.auhouseprices.com/sold/view/ACT/341893739/10+Breen+Street%2C+Casey+ACT/
327,2913,Casey,116,https://www.auhouseprices.com/sold/list/ACT/2913/Casey/,101 Plimsoll Drive ,-35.1651620,149.0979910,house,3,2,2,"$535,000",https://www.auhouseprices.com/sold/view/ACT/341287639/101+Plimsoll+Drive%2C+Casey+ACT/
328,2913,Casey,116,https://www.auhouseprices.com/sold/list/ACT/2913/Casey/,34 Rockwood Street ,-35.1739640,149.0940130,house,2,2,1,,https://www.auhouseprices.com/sold/view/ACT/341016769/34+Rockwood+Street%2C+Casey+ACT/
329,2913,Casey,116,https://www.auhouseprices.com/sold/list/ACT/2913/Casey/,12 Chilton Street ,-35.1705740,149.0897350,house,4,3,2,"$910,000",https://www.auhouseprices.com/sold/view/ACT/341184639/12+Chilton+Street%2C+Casey+ACT/
330,2913,Casey,116,https://www.auhouseprices.com/sold/list/ACT/2913/Casey/,36 John Crawford Crescent ,-35.1739330,149.0932280,duplex-semi-detached,3,2,1,"$520,000",https://www.auhouseprices.com/sold/view/ACT/341222639/36+John+Crawford+Crescent%2C+Casey+ACT/
331,2913,Casey,116,https://www.auhouseprices.com/sold/list/ACT/2913/Casey/,11 Borthwick Avenue ,-35.1703190,149.0914370,house,4,2,2,"$810,000",https://www.auhouseprices.com/sold/view/ACT/341491639/11+Borthwick+Avenue%2C+Casey+ACT/
332,2913,Casey,116,https://www.auhouseprices.com/sold/list/ACT/2913/Casey/,3 Skewes Street ,-35.1596230,149.0976130,house,4,2,2,"$855,000",https://www.auhouseprices.com/sold/view/ACT/341383639/3+Skewes+Street%2C+Casey+ACT/
333,2913,Casey,116,https://www.auhouseprices.com/sold/list/ACT/2913/Casey/,17 Beanland Street ,-35.1745190,149.0877290,house,5,3,2,"$880,000",https://www.auhouseprices.com/sold/view/ACT/341960739/17+Beanland+Street%2C+Casey+ACT/
334,2913,Casey,116,https://www.auhouseprices.com/sold/list/ACT/2913/Casey/,50 Dalkin Crescent ,-35.1738230,149.0950030,townhouse,2,1,1,"$400,000",https://www.auhouseprices.com/sold/view/ACT/341278539/50+Dalkin+Crescent%2C+Casey+ACT/
335,2913,Casey,116,https://www.auhouseprices.com/sold/list/ACT/2913/Casey/,43 McGovern Street ,-35.1610120,149.1002890,house,3,2,2,"$530,000",https://www.auhouseprices.com/sold/view/ACT/341196139/43+McGovern+Street%2C+Casey+ACT/
336,2913,Casey,116,https://www.auhouseprices.com/sold/list/ACT/2913/Casey/,9 Andersch Street ,-35.1607280,149.0989550,townhouse,3,2,2,"$505,000",https://www.auhouseprices.com/sold/view/ACT/341611539/9+Andersch+Street%2C+Casey+ACT/
337,2913,Casey,116,https://www.auhouseprices.com/sold/list/ACT/2913/Casey/,24 Salisbury Street ,-35.1700150,149.0971890,house,3,2,2,"$490,000",https://www.auhouseprices.com/sold/view/ACT/341014539/24+Salisbury+Street%2C+Casey+ACT/
338,2913,Casey,116,https://www.auhouseprices.com/sold/list/ACT/2913/Casey/,2 Salisbury Street ,-35.1701050,149.0962160,villa,3,2,2,"$540,000",https://www.auhouseprices.com/sold/view/ACT/341670739/2+Salisbury+Street%2C+Casey+ACT/
339,2913,Casey,116,https://www.auhouseprices.com/sold/list/ACT/2913/Casey/,16 Keith Waller Rise ,-35.1591620,149.0971820,house,4,2,2,"$880,000",https://www.auhouseprices.com/sold/view/ACT/341470539/16+Keith+Waller+Rise%2C+Casey+ACT/
340,2913,Casey,116,https://www.auhouseprices.com/sold/list/ACT/2913/Casey/,5/7 Loveday Crescent ,-35.1772540,149.0906340,townhouse,1,1,1,"$340,000",https://www.auhouseprices.com/sold/view/ACT/341308528/5-7+Loveday+Crescent%2C+Casey+ACT/
341,2913,Casey,116,https://www.auhouseprices.com/sold/list/ACT/2913/Casey/,52 Alan Watt Crescent ,-35.1588570,149.0967400,house,5,3,3,"$1,027,500",https://www.auhouseprices.com/sold/view/ACT/341884528/52+Alan+Watt+Crescent%2C+Casey+ACT/
342,2913,Casey,116,https://www.auhouseprices.com/sold/list/ACT/2913/Casey/,110 Plimsoll Drive ,-35.1644120,149.0992650,villa,3,2,2,,https://www.auhouseprices.com/sold/view/ACT/341594528/110+Plimsoll+Drive%2C+Casey+ACT/
343,2913,Casey,116,https://www.auhouseprices.com/sold/list/ACT/2913/Casey/,9 Yandell Way ,-35.1735100,149.0943010,house,3,2,1,,https://www.auhouseprices.com/sold/view/ACT/341107769/9+Yandell+Way%2C+Casey+ACT/
344,2913,Casey,116,https://www.auhouseprices.com/sold/list/ACT/2913/Casey/,4 Nankervis Street ,-35.1692670,149.0885670,house,4,2,2,"$895,000",https://www.auhouseprices.com/sold/view/ACT/341175428/4+Nankervis+Street%2C+Casey+ACT/
345,2913,Casey,116,https://www.auhouseprices.com/sold/list/ACT/2913/Casey/,20 Hogg Street ,-35.1572090,149.0972500,house,5,3,2,"$1,200,000",https://www.auhouseprices.com/sold/view/ACT/341838528/20+Hogg+Street%2C+Casey+ACT/
346,2913,Casey,116,https://www.auhouseprices.com/sold/list/ACT/2913/Casey/,145 Plimsoll Drive ,-35.1620350,149.0976410,house,3,2,2,"$618,000",https://www.auhouseprices.com/sold/view/ACT/341321539/145+Plimsoll+Drive%2C+Casey+ACT/
347,2913,Casey,116,https://www.auhouseprices.com/sold/list/ACT/2913/Casey/,24 Hanley Street ,-35.1677810,149.0930660,house,4,2,2,"$850,000",https://www.auhouseprices.com/sold/view/ACT/341746328/24+Hanley+Street%2C+Casey+ACT/
348,2913,Casey,116,https://www.auhouseprices.com/sold/list/ACT/2913/Casey/,1/40 Plimsoll Drive ,-35.1662010,149.0973420,townhouse,3,2,2,"$555,000",https://www.auhouseprices.com/sold/view/ACT/341274328/1-40+Plimsoll+Drive%2C+Casey+ACT/
349,2913,Casey,116,https://www.auhouseprices.com/sold/list/ACT/2913/Casey/,20 Swinney Street ,-35.1619100,149.0964580,house,3,2,2,"$617,500",https://www.auhouseprices.com/sold/view/ACT/341198228/20+Swinney+Street%2C+Casey+ACT/
350,2913,Casey,116,https://www.auhouseprices.com/sold/list/ACT/2913/Casey/,4 Joyce Bull Lane ,-35.1569630,149.1011100,house,2,1,1,"$418,000",https://www.auhouseprices.com/sold/view/ACT/341035528/4+Joyce+Bull+Lane%2C+Casey+ACT/
351,2913,Casey,116,https://www.auhouseprices.com/sold/list/ACT/2913/Casey/,21 Hugh Gilchrist Street ,-35.1727160,149.0951490,house,3,2,1,"$515,000",https://www.auhouseprices.com/sold/view/ACT/341476228/21+Hugh+Gilchrist+Street%2C+Casey+ACT/
352,2913,Casey,116,https://www.auhouseprices.com/sold/list/ACT/2913/Casey/,6 Yandell Way ,-35.1731640,149.0947100,house,3,2,1,"$505,000",https://www.auhouseprices.com/sold/view/ACT/341874228/6+Yandell+Way%2C+Casey+ACT/
353,2913,Casey,116,https://www.auhouseprices.com/sold/list/ACT/2913/Casey/,1/3 Deasey Close ,-35.1647090,149.0982260,townhouse,2,1,1,"$379,000",https://www.auhouseprices.com/sold/view/ACT/341374428/1-3+Deasey+Close%2C+Casey+ACT/
354,2913,Casey,116,https://www.auhouseprices.com/sold/list/ACT/2913/Casey/,27 Lansdown Crescent ,-35.1765430,149.0930530,townhouse,3,2,2,"$550,000",https://www.auhouseprices.com/sold/view/ACT/341496128/27+Lansdown+Crescent%2C+Casey+ACT/
355,2913,Casey,116,https://www.auhouseprices.com/sold/list/ACT/2913/Casey/,26 Grosvenor Street ,-35.1749120,149.0872590,house,5,2,2,"$1,000,000",https://www.auhouseprices.com/sold/view/ACT/341853128/26+Grosvenor+Street%2C+Casey+ACT/
356,2913,Casey,116,https://www.auhouseprices.com/sold/list/ACT/2913/Casey/,19 Dalkin Crescent ,-35.1748210,149.0942000,house,2,1,1,"$435,000",https://www.auhouseprices.com/sold/view/ACT/341306769/19+Dalkin+Crescent%2C+Casey+ACT/
357,2913,Casey,116,https://www.auhouseprices.com/sold/list/ACT/2913/Casey/,97 Plimsoll Drive ,-35.1652320,149.0978670,other,3,3,2,"$517,500",https://www.auhouseprices.com/sold/view/ACT/341997128/97+Plimsoll+Drive%2C+Casey+ACT/
358,2913,Casey,116,https://www.auhouseprices.com/sold/list/ACT/2913/Casey/,11 Linley Lane ,-35.1592330,149.1002390,villa,2,1,1,"$367,000",https://www.auhouseprices.com/sold/view/ACT/341318128/11+Linley+Lane%2C+Casey+ACT/
359,2913,Casey,116,https://www.auhouseprices.com/sold/list/ACT/2913/Casey/,8/6 Renouf Street ,-35.1659900,149.1001060,townhouse,3,2,2,"$500,000",https://www.auhouseprices.com/sold/view/ACT/341836769/8-6+Renouf+Street%2C+Casey+ACT/
360,2913,Casey,116,https://www.auhouseprices.com/sold/list/ACT/2913/Casey/,25 Rockwood Street ,-35.1743460,149.0933720,house,3,2,1,"$538,000",https://www.auhouseprices.com/sold/view/ACT/341019028/25+Rockwood+Street%2C+Casey+ACT/
361,2913,Casey,116,https://www.auhouseprices.com/sold/list/ACT/2913/Casey/,8/4 Annie Douglas St ,-35.1593460,149.1013740,townhouse,3,1,2,"$415,000",https://www.auhouseprices.com/sold/view/ACT/341897028/8-4+Annie+Douglas+St%2C+Casey+ACT/
362,2913,Casey,116,https://www.auhouseprices.com/sold/list/ACT/2913/Casey/,28 Cooley Crescent ,-35.1620510,149.0954780,house,4,2,2,"$860,000",https://www.auhouseprices.com/sold/view/ACT/341343028/28+Cooley+Crescent%2C+Casey+ACT/
363,2913,Casey,116,https://www.auhouseprices.com/sold/list/ACT/2913/Casey/,15 Ruth Dobson Street ,-35.1694420,149.0937180,house,3,2,1,"$561,000",https://www.auhouseprices.com/sold/view/ACT/341662028/15+Ruth+Dobson+Street%2C+Casey+ACT/
364,2913,Casey,116,https://www.auhouseprices.com/sold/list/ACT/2913/Casey/,6 Skewes Street ,-35.1600230,149.0987100,townhouse,2,2,2,"$417,000",https://www.auhouseprices.com/sold/view/ACT/341254928/6+Skewes+Street%2C+Casey+ACT/
365,2913,Casey,116,https://www.auhouseprices.com/sold/list/ACT/2913/Casey/,91 Rockwood Street ,-35.1718640,149.0943720,house,3,2,1,"$525,000",https://www.auhouseprices.com/sold/view/ACT/341232128/91+Rockwood+Street%2C+Casey+ACT/
366,2913,Casey,116,https://www.auhouseprices.com/sold/list/ACT/2913/Casey/,30 Maris King Street ,-35.1693460,149.0952650,house,3,2,1,"$561,000",https://www.auhouseprices.com/sold/view/ACT/341242928/30+Maris+King+Street%2C+Casey+ACT/
367,2913,Casey,116,https://www.auhouseprices.com/sold/list/ACT/2913/Casey/,5/2 Neil Currie Street ,-35.1768990,149.0915830,townhouse,2,2,1,"$405,000",https://www.auhouseprices.com/sold/view/ACT/341411228/5-2+Neil+Currie+Street%2C+Casey+ACT/
368,2913,Casey,116,https://www.auhouseprices.com/sold/list/ACT/2913/Casey/,41 Spratt Court ,-35.1573720,149.1026700,townhouse,2,1,1,"$395,500",https://www.auhouseprices.com/sold/view/ACT/341638828/41+Spratt+Court%2C+Casey+ACT/
369,2913,Casey,116,https://www.auhouseprices.com/sold/list/ACT/2913/Casey/,45 David Miller Crescent ,-35.1693300,149.0988830,house,3,2,1,"$509,000",https://www.auhouseprices.com/sold/view/ACT/341745128/45+David+Miller+Crescent%2C+Casey+ACT/
370,2913,Casey,116,https://www.auhouseprices.com/sold/list/ACT/2913/Casey/,41/16 David Miller Crescent ,-35.1708460,149.0970760,apartment,2,1,2,"$327,000",https://www.auhouseprices.com/sold/view/ACT/341332728/41-16+David+Miller+Crescent%2C+Casey+ACT/
371,2913,Casey,116,https://www.auhouseprices.com/sold/list/ACT/2913/Casey/,10 Meroula Street ,-35.1616380,149.0963460,house,4,2,2,"$905,000",https://www.auhouseprices.com/sold/view/ACT/341051828/10+Meroula+Street%2C+Casey+ACT/
372,2913,Casey,116,https://www.auhouseprices.com/sold/list/ACT/2913/Casey/,29 Ronald Walker ,-35.1622790,149.1007800,house,3,1,0,"$645,000",https://www.auhouseprices.com/sold/view/ACT/341427828/29+Ronald+Walker%2C+Casey+ACT/
373,2913,Casey,116,https://www.auhouseprices.com/sold/list/ACT/2913/Casey/,30 Alan Watt Crescent ,-35.1598360,149.0965920,house,4,2,2,"$830,000",https://www.auhouseprices.com/sold/view/ACT/341484628/30+Alan+Watt+Crescent%2C+Casey+ACT/
374,2913,Casey,116,https://www.auhouseprices.com/sold/list/ACT/2913/Casey/,11 McGovern Street ,-35.1603480,149.0993240,townhouse,2,1,2,"$385,000",https://www.auhouseprices.com/sold/view/ACT/341563628/11+McGovern+Street%2C+Casey+ACT/
375,2913,Casey,116,https://www.auhouseprices.com/sold/list/ACT/2913/Casey/,2/35 Lansdown Crescent ,-35.1764420,149.0932800,townhouse,2,1,1,"$365,500",https://www.auhouseprices.com/sold/view/ACT/341381628/2-35+Lansdown+Crescent%2C+Casey+ACT/
376,2913,Casey,116,https://www.auhouseprices.com/sold/list/ACT/2913/Casey/,83 David Miller Crescent ,-35.1693500,149.0966200,house,4,2,2,"$700,000",https://www.auhouseprices.com/sold/view/ACT/341219518/83+David+Miller+Crescent%2C+Casey+ACT/
377,2913,Casey,116,https://www.auhouseprices.com/sold/list/ACT/2913/Casey/,23/15 Andersch Street ,-35.1604420,149.0990800,townhouse,2,1,2,"$379,000",https://www.auhouseprices.com/sold/view/ACT/341084428/23-15+Andersch+Street%2C+Casey+ACT/
378,2913,Casey,116,https://www.auhouseprices.com/sold/list/ACT/2913/Casey/,28 Chilton Street ,-35.1709570,149.0893180,house,5,3,3,"$1,460,000",https://www.auhouseprices.com/sold/view/ACT/341620418/28+Chilton+Street%2C+Casey+ACT/
379,2913,Casey,116,https://www.auhouseprices.com/sold/list/ACT/2913/Casey/,50 Ashton Calvert Street ,-35.1730970,149.0905710,house,3,2,2,"$685,000",https://www.auhouseprices.com/sold/view/ACT/341140518/50+Ashton+Calvert+Street%2C+Casey+ACT/
380,2913,Casey,116,https://www.auhouseprices.com/sold/list/ACT/2913/Casey/,12 Arthur Tange Street ,-35.1750820,149.0931660,house,3,2,1,"$537,500",https://www.auhouseprices.com/sold/view/ACT/341280418/12+Arthur+Tange+Street%2C+Casey+ACT/
381,2913,Casey,116,https://www.auhouseprices.com/sold/list/ACT/2913/Casey/,32/68 Dalkin Crescent ,-35.1740780,149.0947210,townhouse,2,2,2,,https://www.auhouseprices.com/sold/view/ACT/341695769/32-68+Dalkin+Crescent%2C+Casey+ACT/
382,2913,Casey,116,https://www.auhouseprices.com/sold/list/ACT/2913/Casey/,44 Scholtens Street ,-35.1562350,149.1014820,house,4,2,2,"$730,000",https://www.auhouseprices.com/sold/view/ACT/341628318/44+Scholtens++Street%2C+Casey+ACT/
383,2913,Casey,116,https://www.auhouseprices.com/sold/list/ACT/2913/Casey/,11 David Miller Crescent ,-35.1704160,149.0966790,house,3,2,1,"$467,000",https://www.auhouseprices.com/sold/view/ACT/341853418/11+David+Miller++Crescent%2C+Casey+ACT/
384,2913,Casey,116,https://www.auhouseprices.com/sold/list/ACT/2913/Casey/,10 Rockwood Street ,-35.1749690,149.0939570,house,3,2,1,"$518,000",https://www.auhouseprices.com/sold/view/ACT/341786769/10+Rockwood+Street%2C+Casey+ACT/
385,2913,Casey,116,https://www.auhouseprices.com/sold/list/ACT/2913/Casey/,7 Skermer Street ,-35.1670180,149.0949250,house,4,2,2,"$740,000",https://www.auhouseprices.com/sold/view/ACT/341653218/7+Skermer+Street%2C+Casey+ACT/
386,2913,Casey,116,https://www.auhouseprices.com/sold/list/ACT/2913/Casey/,1 Swinney Street ,-35.1624380,149.0976250,house,4,2,2,"$799,000",https://www.auhouseprices.com/sold/view/ACT/341483218/1+Swinney+Street%2C+Casey+ACT/
387,2913,Casey,116,https://www.auhouseprices.com/sold/list/ACT/2913/Casey/,16 Carmody Street ,-35.1768320,149.0896660,house,3,2,2,"$731,000",https://www.auhouseprices.com/sold/view/ACT/341651518/16+Carmody+Street%2C+Casey+ACT/
388,2913,Casey,116,https://www.auhouseprices.com/sold/list/ACT/2913/Casey/,1/183 Plimsoll Drive ,-35.1592840,149.0983630,townhouse,4,2,2,"$577,000",https://www.auhouseprices.com/sold/view/ACT/341484769/1-183+Plimsoll+Drive%2C+Casey+ACT/
389,2913,Casey,116,https://www.auhouseprices.com/sold/list/ACT/2913/Casey/,54 Lansdown Crescent ,-35.1758920,149.0935190,house,3,2,1,"$520,000",https://www.auhouseprices.com/sold/view/ACT/341703218/54+Lansdown+Crescent%2C+Casey+ACT/
390,2913,Casey,116,https://www.auhouseprices.com/sold/list/ACT/2913/Casey/,6/6 Renouf Street ,-35.1659900,149.1001060,townhouse,3,2,2,"$510,000",https://www.auhouseprices.com/sold/view/ACT/341006118/6-6+Renouf+Street%2C+Casey+ACT/
391,2913,Casey,116,https://www.auhouseprices.com/sold/list/ACT/2913/Casey/,75 Greg Urwin Circuit ,-35.1567250,149.1031600,townhouse,2,1,1,"$430,000",https://www.auhouseprices.com/sold/view/ACT/341278018/75+Greg+Urwin+Circuit%2C+Casey+ACT/
392,2913,Casey,116,https://www.auhouseprices.com/sold/list/ACT/2913/Casey/,15/142 Plimsoll Drive ,-35.1622080,149.0988630,townhouse,3,2,2,"$520,000",https://www.auhouseprices.com/sold/view/ACT/341594118/15-142+Plimsoll+Drive%2C+Casey+ACT/
393,2913,Casey,116,https://www.auhouseprices.com/sold/list/ACT/2913/Casey/,27 Maris King Street ,-35.1694910,149.0947400,house,4,2,2,"$690,000",https://www.auhouseprices.com/sold/view/ACT/341117018/27+Maris+King+Street%2C+Casey+ACT/
394,2913,Casey,116,https://www.auhouseprices.com/sold/list/ACT/2913/Casey/,31B Annie Douglas Street ,-35.1572720,149.1022780,house,2,1,1,"$335,000",https://www.auhouseprices.com/sold/view/ACT/341966018/31B+Annie+Douglas+Street%2C+Casey+ACT/
395,2913,Casey,116,https://www.auhouseprices.com/sold/list/ACT/2913/Casey/,8 Cooley Crescent ,-35.1627070,149.0971620,house,4,2,2,"$800,000",https://www.auhouseprices.com/sold/view/ACT/341737728/8+Cooley+Crescent%2C+Casey+ACT/
396,2913,Casey,116,https://www.auhouseprices.com/sold/list/ACT/2913/Casey/,5 Neil Currie ,-35.1762730,149.0915570,house,3,1,1,"$520,000",https://www.auhouseprices.com/sold/view/ACT/341786918/5+Neil+Currie%2C+Casey+ACT/
397,2913,Casey,116,https://www.auhouseprices.com/sold/list/ACT/2913/Casey/,7/29 Bott Crescent ,-35.1635990,149.0962260,townhouse,4,2,2,"$597,500",https://www.auhouseprices.com/sold/view/ACT/341812918/7-29+Bott+Crescent%2C+Casey+ACT/
398,2913,Casey,116,https://www.auhouseprices.com/sold/list/ACT/2913/Casey/,3 Wighton Terrace ,-35.1714870,149.0918320,house,4,2,2,"$785,000",https://www.auhouseprices.com/sold/view/ACT/341487818/3+Wighton+Terrace%2C+Casey+ACT/
399,2913,Casey,116,https://www.auhouseprices.com/sold/list/ACT/2913/Casey/,32 Cooley Crescent ,-35.1616710,149.0955470,house,4,2,2,"$915,000",https://www.auhouseprices.com/sold/view/ACT/341197818/32+Cooley+Crescent%2C+Casey+ACT/
400,2913,Casey,116,https://www.auhouseprices.com/sold/list/ACT/2913/Casey/,20 Greg Urwin Circuit ,-35.1560590,149.1006660,house,3,2,2,"$735,000",https://www.auhouseprices.com/sold/view/ACT/341586718/20+Greg+Urwin+Circuit%2C+Casey+ACT/
401,2913,Casey,116,https://www.auhouseprices.com/sold/list/ACT/2913/Casey/,3/1 Alan Watt Crescent ,-35.1604470,149.0983690,townhouse,3,2,2,"$505,000",https://www.auhouseprices.com/sold/view/ACT/341428118/3-1+Alan+Watt+Crescent%2C+Casey+ACT/
402,2913,Casey,116,https://www.auhouseprices.com/sold/list/ACT/2913/Casey/,6 Joyce Bull Lane ,-35.1569820,149.1011680,villa,2,1,1,"$415,000",https://www.auhouseprices.com/sold/view/ACT/341442718/6+Joyce+Bull+Lane%2C+Casey+ACT/
403,2913,Casey,116,https://www.auhouseprices.com/sold/list/ACT/2913/Casey/,23 Ronald Walker Street ,-35.1626280,149.1007040,house,4,2,2,"$687,000",https://www.auhouseprices.com/sold/view/ACT/341287618/23+Ronald+Walker+Street%2C+Casey+ACT/
404,2913,Casey,116,https://www.auhouseprices.com/sold/list/ACT/2913/Casey/,58 Whitrod Avenue ,-35.1590180,149.0991880,townhouse,2,2,2,"$412,500",https://www.auhouseprices.com/sold/view/ACT/341550718/58+Whitrod+Avenue%2C+Casey+ACT/
405,2913,Casey,116,https://www.auhouseprices.com/sold/list/ACT/2913/Casey/,4/4 Skewes Street ,-35.1601130,149.0986950,house,2,2,2,"$405,000",https://www.auhouseprices.com/sold/view/ACT/341039508/4-4+Skewes+Street%2C+Casey+ACT/
406,2913,Casey,116,https://www.auhouseprices.com/sold/list/ACT/2913/Casey/,19 Lansdown Crescent ,-35.1766930,149.0927110,townhouse,3,2,2,"$545,000",https://www.auhouseprices.com/sold/view/ACT/341226508/19+Lansdown+Crescent%2C+Casey+ACT/
407,2913,Casey,116,https://www.auhouseprices.com/sold/list/ACT/2913/Casey/,12 Jule Knight Street ,-35.1566760,149.1021600,house,4,2,2,"$820,000",https://www.auhouseprices.com/sold/view/ACT/341624508/12+Jule+Knight+Street%2C+Casey+ACT/
408,2913,Casey,116,https://www.auhouseprices.com/sold/list/ACT/2913/Casey/,6 Salcole Street ,-35.1701770,149.0901410,house,4,2,2,"$775,000",https://www.auhouseprices.com/sold/view/ACT/341378408/6+Salcole+Street%2C+Casey+ACT/
409,2913,Casey,116,https://www.auhouseprices.com/sold/list/ACT/2913/Casey/,6/29 Bott Crescent ,-35.1635990,149.0962260,townhouse,3,2,2,"$587,000",https://www.auhouseprices.com/sold/view/ACT/341759408/6-29+Bott+Crescent%2C+Casey+ACT/
410,2913,Casey,116,https://www.auhouseprices.com/sold/list/ACT/2913/Casey/,55 Dalkin Crescent ,-35.1730570,149.0949020,house,3,2,3,"$767,000",https://www.auhouseprices.com/sold/view/ACT/341448308/55+Dalkin+Crescent%2C+Casey+ACT/
411,2913,Casey,116,https://www.auhouseprices.com/sold/list/ACT/2913/Casey/,37 David Miller Crescent ,-35.1700250,149.0982760,house,4,2,2,,https://www.auhouseprices.com/sold/view/ACT/341117308/37+David+Miller+Crescent%2C+Casey+ACT/
412,2913,Casey,116,https://www.auhouseprices.com/sold/list/ACT/2913/Casey/,5 David Miller Crescent ,-35.1704390,149.0964200,duplex/semi-detached,3,2,1,"$455,000",https://www.auhouseprices.com/sold/view/ACT/341194769/5+David+Miller+Crescent%2C+Casey+ACT/
413,2913,Casey,116,https://www.auhouseprices.com/sold/list/ACT/2913/Casey/,13 Kowalski Street ,-35.1586110,149.1008310,house,3,2,2,"$660,000",https://www.auhouseprices.com/sold/view/ACT/341477308/13+Kowalski+Street%2C+Casey+ACT/
414,2913,Casey,116,https://www.auhouseprices.com/sold/list/ACT/2913/Casey/,10 Swinney Street ,-35.1620120,149.0971490,house,3,2,2,"$615,000",https://www.auhouseprices.com/sold/view/ACT/341225308/10+Swinney+Street%2C+Casey+ACT/
415,2913,Casey,116,https://www.auhouseprices.com/sold/list/ACT/2913/Casey/,76 Plimsoll Drive ,-35.1656700,149.0984500,townhouse,4,2,2,"$620,000",https://www.auhouseprices.com/sold/view/ACT/341983308/76+Plimsoll+Drive%2C+Casey+ACT/
416,2913,Casey,116,https://www.auhouseprices.com/sold/list/ACT/2913/Casey/,2 Andersch Street ,-35.1610100,149.1000760,townhouse,1,1,1,"$340,000",https://www.auhouseprices.com/sold/view/ACT/341770208/2+Andersch+Street%2C+Casey+ACT/
417,2913,Casey,116,https://www.auhouseprices.com/sold/list/ACT/2913/Casey/,13 Jule Knight Street ,-35.1564520,149.1017120,house,4,2,2,"$825,000",https://www.auhouseprices.com/sold/view/ACT/341609208/13+Jule+Knight+Street%2C+Casey+ACT/
418,2913,Casey,116,https://www.auhouseprices.com/sold/list/ACT/2913/Casey/,14/29 Bott Crescent ,-35.1635990,149.0962260,townhouse,4,2,2,"$595,000",https://www.auhouseprices.com/sold/view/ACT/341497208/14-29+Bott+Crescent%2C+Casey+ACT/
419,2913,Casey,116,https://www.auhouseprices.com/sold/list/ACT/2913/Casey/,3 Nordeck Street ,-35.1580110,149.0990670,house,3,2,2,"$631,000",https://www.auhouseprices.com/sold/view/ACT/341377208/3+Nordeck+Street%2C+Casey+ACT/
420,2913,Casey,116,https://www.auhouseprices.com/sold/list/ACT/2913/Casey/,1 Rattigan Street ,-35.1677900,149.0952890,house,4,2,2,"$820,000",https://www.auhouseprices.com/sold/view/ACT/341496769/1+Rattigan+Street%2C+Casey+ACT/
421,2913,Casey,116,https://www.auhouseprices.com/sold/list/ACT/2913/Casey/,8 Macandie Street ,-35.1640240,149.0982620,townhouse,3,3,2,"$495,000",https://www.auhouseprices.com/sold/view/ACT/341865769/8+Macandie+Street%2C+Casey+ACT/
422,2913,Casey,116,https://www.auhouseprices.com/sold/list/ACT/2913/Casey/,4 Meroula Street ,-35.1622920,149.0962000,house,3,2,2,"$650,000",https://www.auhouseprices.com/sold/view/ACT/341464108/4+Meroula+Street%2C+Casey+ACT/
423,2913,Casey,116,https://www.auhouseprices.com/sold/list/ACT/2913/Casey/,18 Cooley Crescent ,-35.1625470,149.0961610,house,3,2,2,"$823,500",https://www.auhouseprices.com/sold/view/ACT/341894769/18+Cooley+Crescent%2C+Casey+ACT/
424,2913,Casey,116,https://www.auhouseprices.com/sold/list/ACT/2913/Casey/,3 Dulfer Street ,-35.1678890,149.0944690,house,4,2,2,"$952,500",https://www.auhouseprices.com/sold/view/ACT/341556018/3+Dulfer+Street%2C+Casey+ACT/
425,2913,Casey,116,https://www.auhouseprices.com/sold/list/ACT/2913/Casey/,10 Maris King Street ,-35.1704980,149.0954140,house,3,2,1,"$594,000",https://www.auhouseprices.com/sold/view/ACT/341423518/10+Maris+King+Street%2C+Casey+ACT/
426,2913,Casey,116,https://www.auhouseprices.com/sold/list/ACT/2913/Casey/,2 Hogg Street ,-35.1571100,149.0983640,house,4,2,2,"$865,000",https://www.auhouseprices.com/sold/view/ACT/341592008/2+Hogg+Street%2C+Casey+ACT/
427,2913,Casey,116,https://www.auhouseprices.com/sold/list/ACT/2913/Casey/,63 McGovern Street ,-35.1610250,149.1011170,townhouse,2,1,1,"$425,000",https://www.auhouseprices.com/sold/view/ACT/341295808/63+McGovern+Street%2C+Casey+ACT/
428,2913,Casey,116,https://www.auhouseprices.com/sold/list/ACT/2913/Casey/,8 Hanley Street ,-35.1680580,149.0944430,house,4,2,2,"$925,000",https://www.auhouseprices.com/sold/view/ACT/341266018/8+Hanley+Street%2C+Casey+ACT/
429,2913,Casey,116,https://www.auhouseprices.com/sold/list/ACT/2913/Casey/,2/50 Victoria Owen Circuit ,-35.1630020,149.0947730,townhouse,3,2,2,"$580,000",https://www.auhouseprices.com/sold/view/ACT/341892808/2-50+Victoria+Owen+Circuit%2C+Casey+ACT/
430,2913,Casey,116,https://www.auhouseprices.com/sold/list/ACT/2913/Casey/,6 Bott Crescent ,-35.1650790,149.0975350,house,4,2,2,"$711,000",https://www.auhouseprices.com/sold/view/ACT/341731808/6+Bott+Crescent%2C+Casey+ACT/
431,2913,Casey,116,https://www.auhouseprices.com/sold/list/ACT/2913/Casey/,6 Swinney Street ,-35.1620520,149.0974190,house,3,2,2,"$620,000",https://www.auhouseprices.com/sold/view/ACT/341180808/6+Swinney+Street%2C+Casey+ACT/
