,Postcode,Suburb Name,Recent Sales,Suburb Link,Street Address,Latitude,Longitude,Property Type,Beds,Baths,Cars,Sold Price,Property Link
0,2913,Nicholls,54,https://www.auhouseprices.com/sold/list/ACT/2913/Nicholls/,6 Acacia Place ,-35.1962965,149.1057704,house,3,1,1,"$690,000",https://www.auhouseprices.com/sold/view/ACT/341391370/6+Acacia+Place%2C+Nicholls+ACT/
1,2913,Nicholls,54,https://www.auhouseprices.com/sold/list/ACT/2913/Nicholls/,3 McRitchie Circuit ,-35.1902935,149.0947985,house,5,3,4,"$1,650,000",https://www.auhouseprices.com/sold/view/ACT/341697970/3+McRitchie+Circuit%2C+Nicholls+ACT/
2,2913,Nicholls,54,https://www.auhouseprices.com/sold/list/ACT/2913/Nicholls/,5 Fleetwood Smith Street ,-35.1832584,149.0845307,house,4,3,2,"$1,560,000",https://www.auhouseprices.com/sold/view/ACT/341992970/5+Fleetwood+Smith+Street%2C+Nicholls+ACT/
3,2913,Nicholls,54,https://www.auhouseprices.com/sold/list/ACT/2913/Nicholls/,10 Hendry Close ,-35.1879986,149.0909180,house,6,5,6,"$2,201,000",https://www.auhouseprices.com/sold/view/ACT/341102970/10+Hendry+Close%2C+Nicholls+ACT/
4,2913,Nicholls,54,https://www.auhouseprices.com/sold/list/ACT/2913/Nicholls/,14/25 Temperley Street ,-35.1840824,149.0938526,house,3,2,2,"$785,000",https://www.auhouseprices.com/sold/view/ACT/341129870/14-25+Temperley+Street%2C+Nicholls+ACT/
5,2913,Nicholls,54,https://www.auhouseprices.com/sold/list/ACT/2913/Nicholls/,11 Fitzsimmons Street ,-35.1813486,149.0881232,house,4,2,2,,https://www.auhouseprices.com/sold/view/ACT/341242870/11+Fitzsimmons+Street%2C+Nicholls+ACT/
6,2913,Nicholls,54,https://www.auhouseprices.com/sold/list/ACT/2913/Nicholls/,7 Krantzcke Circuit ,-35.1891319,149.0978435,house,4,2,2,"$820,000",https://www.auhouseprices.com/sold/view/ACT/341638770/7+Krantzcke+Circuit%2C+Nicholls+ACT/
7,2913,Nicholls,54,https://www.auhouseprices.com/sold/list/ACT/2913/Nicholls/,18 Arthaldo Court ,-35.1834489,149.1063502,house,5,4,2,"$1,350,000",https://www.auhouseprices.com/sold/view/ACT/341101770/18+Arthaldo+Court%2C+Nicholls+ACT/
8,2913,Nicholls,54,https://www.auhouseprices.com/sold/list/ACT/2913/Nicholls/,17 Krantzcke Circuit ,-35.1891231,149.0983484,house,4,2,2,"$770,000",https://www.auhouseprices.com/sold/view/ACT/341080770/17+Krantzcke+Circuit%2C+Nicholls+ACT/
9,2913,Nicholls,54,https://www.auhouseprices.com/sold/list/ACT/2913/Nicholls/,114 Temperley Street ,-35.1929866,149.0959768,house,5,3,3,"$2,050,000",https://www.auhouseprices.com/sold/view/ACT/341051770/114+Temperley+Street%2C+Nicholls+ACT/
10,2913,Nicholls,54,https://www.auhouseprices.com/sold/list/ACT/2913/Nicholls/,5 Quist Place ,-35.1839027,149.1092828,house,5,3,2,"$1,090,000",https://www.auhouseprices.com/sold/view/ACT/341289670/5+Quist+Place%2C+Nicholls+ACT/
11,2913,Nicholls,54,https://www.auhouseprices.com/sold/list/ACT/2913/Nicholls/,81 Tazewell Circuit ,-35.1869738,149.1042779,house,4,2,2,"$956,000",https://www.auhouseprices.com/sold/view/ACT/341555670/81+Tazewell+Circuit%2C+Nicholls+ACT/
12,2913,Nicholls,54,https://www.auhouseprices.com/sold/list/ACT/2913/Nicholls/,2/81 Kelleway Avenue ,-35.1836797,149.0975867,townhouse,4,2,2,,https://www.auhouseprices.com/sold/view/ACT/341273570/2-81+Kelleway+Avenue%2C+Nicholls+ACT/
13,2913,Nicholls,54,https://www.auhouseprices.com/sold/list/ACT/2913/Nicholls/,76 McClelland Avenue ,-35.1810430,149.0906848,house,4,2,2,"$956,000",https://www.auhouseprices.com/sold/view/ACT/341708460/76+McClelland+Avenue%2C+Nicholls+ACT/
14,2913,Nicholls,54,https://www.auhouseprices.com/sold/list/ACT/2913/Nicholls/,9/17 Freda Bennett Circuit ,-35.1800678,149.1032475,townhouse,3,1,2,"$560,000",https://www.auhouseprices.com/sold/view/ACT/341380460/9-17+Freda+Bennett+Circuit%2C+Nicholls+ACT/
15,2913,Nicholls,54,https://www.auhouseprices.com/sold/list/ACT/2913/Nicholls/,19 Cockatoo Close ,-35.1904785,149.1121653,house,4,2,2,"$730,000",https://www.auhouseprices.com/sold/view/ACT/341409360/19+Cockatoo+Close%2C+Nicholls+ACT/
16,2913,Nicholls,54,https://www.auhouseprices.com/sold/list/ACT/2913/Nicholls/,19/23 Temperley Street ,-35.1838966,149.0928671,house,3,2,2,,https://www.auhouseprices.com/sold/view/ACT/341997360/19-23+Temperley+Street%2C+Nicholls+ACT/
17,2913,Nicholls,54,https://www.auhouseprices.com/sold/list/ACT/2913/Nicholls/,14 Platypus Place ,-35.1934472,149.1078713,house,4,2,2,,https://www.auhouseprices.com/sold/view/ACT/341522360/14+Platypus+Place%2C+Nicholls+ACT/
18,2913,Nicholls,54,https://www.auhouseprices.com/sold/list/ACT/2913/Nicholls/,37 Freda Bennett Circuit ,-35.1793174,149.1059800,house,4,2,1,"$770,000",https://www.auhouseprices.com/sold/view/ACT/341641160/37+Freda+Bennett+Circuit%2C+Nicholls+ACT/
19,2913,Nicholls,54,https://www.auhouseprices.com/sold/list/ACT/2913/Nicholls/,5/17 Freda Bennett Circuit ,-35.1800678,149.1032475,townhouse,3,2,2,,https://www.auhouseprices.com/sold/view/ACT/341867060/5-17+Freda+Bennett+Circuit%2C+Nicholls+ACT/
20,2913,Nicholls,54,https://www.auhouseprices.com/sold/list/ACT/2913/Nicholls/,83 Tazewell Circuit ,-35.1871187,149.1042377,house,4,3,2,,https://www.auhouseprices.com/sold/view/ACT/341332960/83+Tazewell+Circuit%2C+Nicholls+ACT/
21,2913,Nicholls,54,https://www.auhouseprices.com/sold/list/ACT/2913/Nicholls/,97 Sue Geh Circuit ,-35.1888531,149.0925981,house,3,2,2,"$1,035,000",https://www.auhouseprices.com/sold/view/ACT/341750860/97+Sue+Geh+Circuit%2C+Nicholls+ACT/
22,2913,Nicholls,54,https://www.auhouseprices.com/sold/list/ACT/2913/Nicholls/,33 Lexcen Avenue ,-35.1874804,149.1052134,house,4,2,2,"$839,000",https://www.auhouseprices.com/sold/view/ACT/341384760/33+Lexcen+Avenue%2C+Nicholls+ACT/
23,2913,Nicholls,54,https://www.auhouseprices.com/sold/list/ACT/2913/Nicholls/,15 Tazewell Circuit ,-35.1874698,149.1027094,house,4,2,2,"$947,000",https://www.auhouseprices.com/sold/view/ACT/341076560/15+Tazewell+Circuit%2C+Nicholls+ACT/
24,2913,Nicholls,54,https://www.auhouseprices.com/sold/list/ACT/2913/Nicholls/,10 Whatmore Court ,-35.1819011,149.1015227,house,4,3,2,"$880,000",https://www.auhouseprices.com/sold/view/ACT/341975560/10+Whatmore+Court%2C+Nicholls+ACT/
25,2913,Nicholls,54,https://www.auhouseprices.com/sold/list/ACT/2913/Nicholls/,13/23 Temperley Street ,-35.1838966,149.0928671,house,4,2,2,"$775,000",https://www.auhouseprices.com/sold/view/ACT/341847450/13-23+Temperley+Street%2C+Nicholls+ACT/
26,2913,Nicholls,54,https://www.auhouseprices.com/sold/list/ACT/2913/Nicholls/,21 Rosella Street ,-35.1887195,149.1132618,house,4,2,2,"$685,000",https://www.auhouseprices.com/sold/view/ACT/341297860/21+Rosella++Street%2C+Nicholls+ACT/
27,2913,Nicholls,54,https://www.auhouseprices.com/sold/list/ACT/2913/Nicholls/,15 Rosella Street ,-35.1890055,149.1128849,house,3,2,2,"$740,000",https://www.auhouseprices.com/sold/view/ACT/341123450/15+Rosella+Street%2C+Nicholls+ACT/
28,2913,Nicholls,54,https://www.auhouseprices.com/sold/list/ACT/2913/Nicholls/,13/49-51 Freda Bennett Circuit ,-35.1803710,149.1078486,townhouse,2,1,2,"$470,000",https://www.auhouseprices.com/sold/view/ACT/341735350/13-49-51+Freda+Bennett+Circuit%2C+Nicholls+ACT/
29,2913,Nicholls,54,https://www.auhouseprices.com/sold/list/ACT/2913/Nicholls/,16/25 Temperley Street ,-35.1840824,149.0938526,townhouse,4,2,2,"$830,000",https://www.auhouseprices.com/sold/view/ACT/341246350/16-25+Temperley+Street%2C+Nicholls+ACT/
30,2913,Nicholls,54,https://www.auhouseprices.com/sold/list/ACT/2913/Nicholls/,11 Hendry Close ,-35.1880754,149.0906454,house,6,3,2,"$2,475,000",https://www.auhouseprices.com/sold/view/ACT/341539250/11+Hendry+Close%2C+Nicholls+ACT/
31,2913,Nicholls,54,https://www.auhouseprices.com/sold/list/ACT/2913/Nicholls/,6 Dobbin Circuit ,-35.1857119,149.0917818,house,4,2,2,"$1,045,000",https://www.auhouseprices.com/sold/view/ACT/341240150/6+Dobbin+Circuit%2C+Nicholls+ACT/
32,2913,Nicholls,54,https://www.auhouseprices.com/sold/list/ACT/2913/Nicholls/,33 Dooland Court ,-35.1808776,149.1080187,house,4,2,2,"$755,000",https://www.auhouseprices.com/sold/view/ACT/341957150/33+Dooland+Court%2C+Nicholls+ACT/
33,2913,Nicholls,54,https://www.auhouseprices.com/sold/list/ACT/2913/Nicholls/,1/107 Lexcen Avenue ,-35.1838605,149.0988555,townhouse,3,2,2,"$611,000",https://www.auhouseprices.com/sold/view/ACT/341924050/1-107+Lexcen+Avenue%2C+Nicholls+ACT/
34,2913,Nicholls,54,https://www.auhouseprices.com/sold/list/ACT/2913/Nicholls/,65 Dobbin Circuit ,-35.1845553,149.0914117,house,6,2,2,"$1,130,000",https://www.auhouseprices.com/sold/view/ACT/341548850/65+Dobbin+Circuit%2C+Nicholls+ACT/
35,2913,Nicholls,54,https://www.auhouseprices.com/sold/list/ACT/2913/Nicholls/,21 Rosella Street ,-35.1887195,149.1132618,house,4,2,2,,https://www.auhouseprices.com/sold/view/ACT/341600950/21+Rosella+Street%2C+Nicholls+ACT/
36,2913,Nicholls,54,https://www.auhouseprices.com/sold/list/ACT/2913/Nicholls/,20/23 Temperley Street ,-35.1838966,149.0928671,townhouse,3,2,2,"$687,000",https://www.auhouseprices.com/sold/view/ACT/341199750/20-23+Temperley+Street%2C+Nicholls+ACT/
37,2913,Nicholls,54,https://www.auhouseprices.com/sold/list/ACT/2913/Nicholls/,12 Minter Place ,-35.1803002,149.0851427,house,5,3,3,"$1,390,000",https://www.auhouseprices.com/sold/view/ACT/341450850/12+Minter+Place%2C+Nicholls+ACT/
38,2913,Nicholls,54,https://www.auhouseprices.com/sold/list/ACT/2913/Nicholls/,10 McKinnon Street ,-35.1802397,149.0917842,house,5,2,2,,https://www.auhouseprices.com/sold/view/ACT/341543550/10+McKinnon+Street%2C+Nicholls+ACT/
39,2913,Nicholls,54,https://www.auhouseprices.com/sold/list/ACT/2913/Nicholls/,142 Temperley Street ,-35.1922840,149.0990900,house,5,2,2,"$1,305,000",https://www.auhouseprices.com/sold/view/ACT/341029440/142+Temperley+Street%2C+Nicholls+ACT/
40,2913,Nicholls,54,https://www.auhouseprices.com/sold/list/ACT/2913/Nicholls/,24 Tazewell Circuit ,-35.1862838,149.1024811,house,4,3,2,"$1,085,000",https://www.auhouseprices.com/sold/view/ACT/341500340/24+Tazewell+Circuit%2C+Nicholls+ACT/
41,2913,Nicholls,54,https://www.auhouseprices.com/sold/list/ACT/2913/Nicholls/,18/49 Freda Bennett Circuit ,-35.1803473,149.1070045,unit,3,1,3,"$522,500",https://www.auhouseprices.com/sold/view/ACT/341625240/18-49+Freda+Bennett+Circuit%2C+Nicholls+ACT/
42,2913,Nicholls,54,https://www.auhouseprices.com/sold/list/ACT/2913/Nicholls/,10 Wendy Ey Place ,-35.1912392,149.0979745,house,5,3,5,"$2,025,000",https://www.auhouseprices.com/sold/view/ACT/341665040/10+Wendy+Ey+Place%2C+Nicholls+ACT/
43,2913,Nicholls,54,https://www.auhouseprices.com/sold/list/ACT/2913/Nicholls/,17 May Mills Close ,-35.1813838,149.0970403,house,4,2,2,"$761,000",https://www.auhouseprices.com/sold/view/ACT/341682040/17+May+Mills+Close%2C+Nicholls+ACT/
44,2913,Nicholls,54,https://www.auhouseprices.com/sold/list/ACT/2913/Nicholls/,21 McClelland Avenue ,-35.1836670,149.0848993,house,4,2,2,"$1,100,000",https://www.auhouseprices.com/sold/view/ACT/341658840/21+McClelland+Avenue%2C+Nicholls+ACT/
45,2913,Nicholls,54,https://www.auhouseprices.com/sold/list/ACT/2913/Nicholls/,9/49 Freda Bennett Circuit ,-35.1803473,149.1070045,townhouse,3,1,1,,https://www.auhouseprices.com/sold/view/ACT/341118540/9-49+Freda+Bennett+Circuit%2C+Nicholls+ACT/
46,2913,Nicholls,54,https://www.auhouseprices.com/sold/list/ACT/2913/Nicholls/,1 Hoad Place ,-35.1898864,149.1011066,house,5,2,4,"$1,217,000",https://www.auhouseprices.com/sold/view/ACT/341782529/1+Hoad+Place%2C+Nicholls+ACT/
47,2913,Nicholls,54,https://www.auhouseprices.com/sold/list/ACT/2913/Nicholls/,14 May Mills Close ,-35.1816560,149.0974700,house,4,2,2,"$730,000",https://www.auhouseprices.com/sold/view/ACT/341106429/14+May+Mills+Close%2C+Nicholls+ACT/
48,2913,Nicholls,54,https://www.auhouseprices.com/sold/list/ACT/2913/Nicholls/,21 McAuliffe Court ,-35.1863258,149.1010986,house,4,2,2,"$1,150,000",https://www.auhouseprices.com/sold/view/ACT/341640529/21+McAuliffe+Court%2C+Nicholls+ACT/
49,2913,Nicholls,54,https://www.auhouseprices.com/sold/list/ACT/2913/Nicholls/,9/21 Krantzcke Circuit ,-35.1884665,149.0980676,townhouse,4,2,2,"$670,000",https://www.auhouseprices.com/sold/view/ACT/341299329/9-21+Krantzcke+Circuit%2C+Nicholls+ACT/
50,2913,Nicholls,54,https://www.auhouseprices.com/sold/list/ACT/2913/Nicholls/,12/29 Anne Clark Avenue ,-35.1824311,149.1036907,townhouse,3,2,1,"$555,000",https://www.auhouseprices.com/sold/view/ACT/341242229/12-29+Anne+Clark+Avenue%2C+Nicholls+ACT/
51,2913,Nicholls,54,https://www.auhouseprices.com/sold/list/ACT/2913/Nicholls/,32 Krantzcke Circuit ,-35.1887400,149.0996200,house,4,2,2,"$842,500",https://www.auhouseprices.com/sold/view/ACT/341109829/32+Krantzcke+Circuit%2C+Nicholls+ACT/
52,2913,Nicholls,54,https://www.auhouseprices.com/sold/list/ACT/2913/Nicholls/,13 Rumbelow ,-35.1784503,149.0862922,house,4,3,2,"$810,000",https://www.auhouseprices.com/sold/view/ACT/341093829/13+Rumbelow%2C+Nicholls+ACT/
53,2913,Nicholls,54,https://www.auhouseprices.com/sold/list/ACT/2913/Nicholls/,39 Anne Clark Avenue ,-35.1810871,149.1037350,house,5,2,2,"$845,000",https://www.auhouseprices.com/sold/view/ACT/341539729/39+Anne+Clark+Avenue%2C+Nicholls+ACT/
54,2913,Nicholls,54,https://www.auhouseprices.com/sold/list/ACT/2913/Nicholls/,14 Oldershaw Court ,-35.1840311,149.0998206,house,5,2,2,"$865,000",https://www.auhouseprices.com/sold/view/ACT/341142629/14+Oldershaw+Court%2C+Nicholls+ACT/
55,2913,Nicholls,54,https://www.auhouseprices.com/sold/list/ACT/2913/Nicholls/,41 Kangaroo Close ,-35.1969963,149.1038884,house,3,2,2,"$626,500",https://www.auhouseprices.com/sold/view/ACT/341461419/41+Kangaroo+Close%2C+Nicholls+ACT/
56,2913,Nicholls,54,https://www.auhouseprices.com/sold/list/ACT/2913/Nicholls/,7/16 Monaghan Place ,-35.1843485,149.1025569,townhouse,3,2,2,"$630,000",https://www.auhouseprices.com/sold/view/ACT/341526319/7-16+Monaghan+Place%2C+Nicholls+ACT/
57,2913,Nicholls,54,https://www.auhouseprices.com/sold/list/ACT/2913/Nicholls/,27 Sue Geh Circuit ,-35.1927870,149.0917800,house,5,3,4,"$1,290,000",https://www.auhouseprices.com/sold/view/ACT/341728219/27+Sue+Geh+Circuit%2C+Nicholls+ACT/
58,2913,Nicholls,54,https://www.auhouseprices.com/sold/list/ACT/2913/Nicholls/,57 Lexcen Avenue ,-35.1889460,149.1033500,house,4,2,2,"$920,000",https://www.auhouseprices.com/sold/view/ACT/341318219/57+Lexcen+Avenue%2C+Nicholls+ACT/
59,2913,Nicholls,54,https://www.auhouseprices.com/sold/list/ACT/2913/Nicholls/,9/8 Biddell Place ,-35.1829291,149.1031806,townhouse,3,2,2,"$540,000",https://www.auhouseprices.com/sold/view/ACT/341364219/9-8+Biddell+Place%2C+Nicholls+ACT/
60,2913,Nicholls,54,https://www.auhouseprices.com/sold/list/ACT/2913/Nicholls/,15/49 Freda Bennett Circuit ,-35.1803473,149.1070045,unit,3,1,1,"$490,000",https://www.auhouseprices.com/sold/view/ACT/341256219/15-49+Freda+Bennett+Circuit%2C+Nicholls+ACT/
61,2913,Nicholls,54,https://www.auhouseprices.com/sold/list/ACT/2913/Nicholls/,29 Kelleway Avenue ,-35.1807525,149.1017347,house,4,2,2,"$770,000",https://www.auhouseprices.com/sold/view/ACT/341478019/29+Kelleway+Avenue%2C+Nicholls+ACT/
62,2913,Nicholls,54,https://www.auhouseprices.com/sold/list/ACT/2913/Nicholls/,8 Ponsford Place ,-35.1788176,149.0879926,house,4,2,2,"$778,000",https://www.auhouseprices.com/sold/view/ACT/341810119/8+Ponsford+Place%2C+Nicholls+ACT/
63,2913,Nicholls,54,https://www.auhouseprices.com/sold/list/ACT/2913/Nicholls/,16 Tazewell Circuit ,-35.1871638,149.1026795,house,4,2,2,"$828,000",https://www.auhouseprices.com/sold/view/ACT/341112719/16+Tazewell+Circuit%2C+Nicholls+ACT/
64,2913,Nicholls,54,https://www.auhouseprices.com/sold/list/ACT/2913/Nicholls/,60 Lexcen Avenue ,-35.1886674,149.1017519,house,5,3,2,"$867,500",https://www.auhouseprices.com/sold/view/ACT/341173619/60+Lexcen+Avenue%2C+Nicholls+ACT/
65,2913,Nicholls,54,https://www.auhouseprices.com/sold/list/ACT/2913/Nicholls/,18 Blanc Court ,-35.1823241,149.1072655,house,4,2,2,"$765,000",https://www.auhouseprices.com/sold/view/ACT/341774509/18+Blanc+Court%2C+Nicholls+ACT/
66,2913,Nicholls,54,https://www.auhouseprices.com/sold/list/ACT/2913/Nicholls/,3 Freda Bennett Circuit ,-35.1808467,149.1040979,house,3,1,1,"$465,000",https://www.auhouseprices.com/sold/view/ACT/341961509/3+Freda+Bennett+Circuit%2C+Nicholls+ACT/
67,2913,Nicholls,54,https://www.auhouseprices.com/sold/list/ACT/2913/Nicholls/,8/51 Freda Bennett Cct ,-35.1803710,149.1078486,townhouse,3,1,3,"$472,000",https://www.auhouseprices.com/sold/view/ACT/341628619/8-51+Freda+Bennett+Cct%2C+Nicholls+ACT/
68,2913,Nicholls,54,https://www.auhouseprices.com/sold/list/ACT/2913/Nicholls/,2 Hutcheon Place ,-35.1798526,149.0865257,house,4,2,3,"$970,000",https://www.auhouseprices.com/sold/view/ACT/341552009/2+Hutcheon+Place%2C+Nicholls+ACT/
69,2913,Nicholls,54,https://www.auhouseprices.com/sold/list/ACT/2913/Nicholls/,3 Platypus Street ,-35.1935515,149.1086098,house,4,2,2,"$720,000",https://www.auhouseprices.com/sold/view/ACT/341532109/3+Platypus+Street%2C+Nicholls+ACT/
70,2913,Nicholls,54,https://www.auhouseprices.com/sold/list/ACT/2913/Nicholls/,4/3 Seaborn Place ,-35.1800150,149.0922250,townhouse,4,2,2,"$617,500",https://www.auhouseprices.com/sold/view/ACT/341606109/4-3+Seaborn+Place%2C+Nicholls+ACT/
71,2913,Nicholls,54,https://www.auhouseprices.com/sold/list/ACT/2913/Nicholls/,3 Kuhn Place ,-35.1867660,149.1016800,house,3,2,2,,https://www.auhouseprices.com/sold/view/ACT/341208109/3+Kuhn+Place%2C+Nicholls+ACT/
72,2913,Nicholls,54,https://www.auhouseprices.com/sold/list/ACT/2913/Nicholls/,12 Paisley Street ,-35.1827893,149.0975967,townhouse,3,2,2,"$585,000",https://www.auhouseprices.com/sold/view/ACT/341827909/12+Paisley+Street%2C+Nicholls+ACT/
73,2913,Nicholls,54,https://www.auhouseprices.com/sold/list/ACT/2913/Nicholls/,3 Hellings Place ,-35.1810917,149.1024462,house,5,2,2,"$870,000",https://www.auhouseprices.com/sold/view/ACT/341082909/3+Hellings+Place%2C+Nicholls+ACT/
74,2913,Nicholls,54,https://www.auhouseprices.com/sold/list/ACT/2913/Nicholls/,25 Dooland Court ,-35.1810080,149.1072644,house,3,2,1,"$600,000",https://www.auhouseprices.com/sold/view/ACT/341938809/25+Dooland+Court%2C+Nicholls+ACT/
75,2913,Nicholls,54,https://www.auhouseprices.com/sold/list/ACT/2913/Nicholls/,21 Kleinig Street ,-35.1841179,149.0833186,house,5,3,3,"$1,312,000",https://www.auhouseprices.com/sold/view/ACT/341888809/21+Kleinig+Street%2C+Nicholls+ACT/
76,2913,Nicholls,54,https://www.auhouseprices.com/sold/list/ACT/2913/Nicholls/,8 Tange Place ,-35.1827123,149.0958117,house,6,3,2,"$990,000",https://www.auhouseprices.com/sold/view/ACT/341081709/8+Tange+Place%2C+Nicholls+ACT/
77,2913,Nicholls,54,https://www.auhouseprices.com/sold/list/ACT/2913/Nicholls/,13 Rosella Street ,-35.1891170,149.1127800,house,3,2,2,"$638,500",https://www.auhouseprices.com/sold/view/ACT/341035499/13+Rosella+Street%2C+Nicholls+ACT/
78,2913,Nicholls,54,https://www.auhouseprices.com/sold/list/ACT/2913/Nicholls/,6 Viner Place ,-35.1877400,149.0954467,house,4,2,2,"$1,070,000",https://www.auhouseprices.com/sold/view/ACT/341632499/6+Viner+Place%2C+Nicholls+ACT/
79,2913,Nicholls,54,https://www.auhouseprices.com/sold/list/ACT/2913/Nicholls/,1 Edge Place ,-35.1812695,149.1072602,house,3,2,1,"$580,000",https://www.auhouseprices.com/sold/view/ACT/341114499/1+Edge+Place%2C+Nicholls+ACT/
80,2913,Nicholls,54,https://www.auhouseprices.com/sold/list/ACT/2913/Nicholls/,3 Blacklock Close ,-35.1852700,149.1060000,house,5,2,5,"$1,010,000",https://www.auhouseprices.com/sold/view/ACT/341954399/3+Blacklock+Close%2C+Nicholls+ACT/
81,2913,Nicholls,54,https://www.auhouseprices.com/sold/list/ACT/2913/Nicholls/,7 Hattersley Court ,-35.1881053,149.1055699,house,4,2,2,"$840,000",https://www.auhouseprices.com/sold/view/ACT/341122609/7+Hattersley+Court%2C+Nicholls+ACT/
82,2913,Nicholls,54,https://www.auhouseprices.com/sold/list/ACT/2913/Nicholls/,4 Massie Place ,-35.1833323,149.1083896,house,4,2,2,"$790,000",https://www.auhouseprices.com/sold/view/ACT/341643299/4+Massie+Place%2C+Nicholls+ACT/
83,2913,Nicholls,54,https://www.auhouseprices.com/sold/list/ACT/2913/Nicholls/,28 McAuliffe Court ,-35.1877088,149.1019249,house,5,2,2,"$1,030,000",https://www.auhouseprices.com/sold/view/ACT/341953199/28+McAuliffe+Court%2C+Nicholls+ACT/
84,2913,Nicholls,54,https://www.auhouseprices.com/sold/list/ACT/2913/Nicholls/,138 Temperley Street ,-35.1923500,149.0985700,house,5,3,2,"$1,255,000",https://www.auhouseprices.com/sold/view/ACT/341323099/138+Temperley+Street%2C+Nicholls+ACT/
85,2913,Nicholls,54,https://www.auhouseprices.com/sold/list/ACT/2913/Nicholls/,33 Whitfield Circuit ,-35.1919911,149.0993227,house,5,2,2,"$1,120,000",https://www.auhouseprices.com/sold/view/ACT/341690999/33+Whitfield+Circuit%2C+Nicholls+ACT/
86,2913,Nicholls,54,https://www.auhouseprices.com/sold/list/ACT/2913/Nicholls/,6/29 Anne Clark Avenue ,-35.1824311,149.1036907,townhouse,3,2,1,"$495,000",https://www.auhouseprices.com/sold/view/ACT/341175899/6-29+Anne+Clark+Avenue%2C+Nicholls+ACT/
87,2913,Nicholls,54,https://www.auhouseprices.com/sold/list/ACT/2913/Nicholls/,47 Sue Geh Circuit ,-35.1915640,149.0903890,house,5,3,3,"$1,285,000",https://www.auhouseprices.com/sold/view/ACT/341201899/47+Sue+Geh+Circuit%2C+Nicholls+ACT/
88,2913,Nicholls,54,https://www.auhouseprices.com/sold/list/ACT/2913/Nicholls/,1/21 Krantzcke Circuit ,-35.1884665,149.0980676,house,4,2,2,"$680,000",https://www.auhouseprices.com/sold/view/ACT/341126999/1-21+Krantzcke+Circuit%2C+Nicholls+ACT/
89,2913,Nicholls,54,https://www.auhouseprices.com/sold/list/ACT/2913/Nicholls/,20 Dobbin Circuit ,-35.1848560,149.0913170,house,6,3,3,"$930,000",https://www.auhouseprices.com/sold/view/ACT/341154799/20+Dobbin+Circuit%2C+Nicholls+ACT/
90,2913,Nicholls,54,https://www.auhouseprices.com/sold/list/ACT/2913/Nicholls/,5 McKinnon Street ,-35.1802275,149.0914435,house,3,2,2,"$605,500",https://www.auhouseprices.com/sold/view/ACT/341933799/5+McKinnon+Street%2C+Nicholls+ACT/
91,2913,Nicholls,54,https://www.auhouseprices.com/sold/list/ACT/2913/Nicholls/,10 Metcalfe Street ,-35.1810300,149.0881050,house,4,2,2,"$847,500",https://www.auhouseprices.com/sold/view/ACT/341540799/10+Metcalfe+Street%2C+Nicholls+ACT/
92,2913,Nicholls,54,https://www.auhouseprices.com/sold/list/ACT/2913/Nicholls/,33 Lexcen Avenue ,-35.1874804,149.1052134,house,4,2,2,"$748,850",https://www.auhouseprices.com/sold/view/ACT/341323599/33+Lexcen+Avenue%2C+Nicholls+ACT/
93,2913,Nicholls,54,https://www.auhouseprices.com/sold/list/ACT/2913/Nicholls/,2/35 Edie Payne Close ,-35.1948700,149.0914600,townhouse,3,2,2,"$780,000",https://www.auhouseprices.com/sold/view/ACT/341037489/2-35+Edie+Payne+Close%2C+Nicholls+ACT/
94,2913,Nicholls,54,https://www.auhouseprices.com/sold/list/ACT/2913/Nicholls/,4 Eve Place ,-35.1789270,149.0864740,house,5,3,3,"$1,130,000",https://www.auhouseprices.com/sold/view/ACT/341429289/4+Eve+Place%2C+Nicholls+ACT/
95,2913,Nicholls,54,https://www.auhouseprices.com/sold/list/ACT/2913/Nicholls/,156 Temperley Street ,-35.1911080,149.0999030,house,5,2,2,"$1,075,000",https://www.auhouseprices.com/sold/view/ACT/341698289/156+Temperley+Street%2C+Nicholls+ACT/
96,2913,Nicholls,54,https://www.auhouseprices.com/sold/list/ACT/2913/Nicholls/,5/11 Monaghan Place ,-35.1843512,149.1031802,townhouse,3,2,2,"$525,000",https://www.auhouseprices.com/sold/view/ACT/341513289/5-11+Monaghan+Place%2C+Nicholls+ACT/
97,2913,Nicholls,54,https://www.auhouseprices.com/sold/list/ACT/2913/Nicholls/,53 Westbury Circuit ,-35.1843350,149.1064590,house,4,2,2,"$1,040,000",https://www.auhouseprices.com/sold/view/ACT/341823189/53+Westbury+Circuit%2C+Nicholls+ACT/
98,2913,Nicholls,54,https://www.auhouseprices.com/sold/list/ACT/2913/Nicholls/,7 Sue Geh Circuit ,-35.1926350,149.0945900,house,4,2,2,"$1,350,000",https://www.auhouseprices.com/sold/view/ACT/341641189/7+Sue+Geh+Circuit%2C+Nicholls+ACT/
99,2913,Nicholls,54,https://www.auhouseprices.com/sold/list/ACT/2913/Nicholls/,44 Freda Bennett Circuit ,-35.1800930,149.1059670,house,4,2,2,"$748,000",https://www.auhouseprices.com/sold/view/ACT/341047089/44+Freda+Bennett+Circuit%2C+Nicholls+ACT/
100,2913,Nicholls,54,https://www.auhouseprices.com/sold/list/ACT/2913/Nicholls/,4 Gorman Crescent ,-35.1883750,149.1060780,house,4,2,2,"$837,500",https://www.auhouseprices.com/sold/view/ACT/341975089/4+Gorman+Crescent%2C+Nicholls+ACT/
101,2913,Nicholls,54,https://www.auhouseprices.com/sold/list/ACT/2913/Nicholls/,9 Clemenger Street ,-35.1799970,149.0881330,house,5,3,2,"$940,000",https://www.auhouseprices.com/sold/view/ACT/341749989/9+Clemenger+Street%2C+Nicholls+ACT/
102,2913,Nicholls,54,https://www.auhouseprices.com/sold/list/ACT/2913/Nicholls/,1 Lukey Place ,-35.1860170,149.1037800,house,4,2,2,"$670,000",https://www.auhouseprices.com/sold/view/ACT/341397989/1+Lukey+Place%2C+Nicholls+ACT/
103,2913,Nicholls,54,https://www.auhouseprices.com/sold/list/ACT/2913/Nicholls/,7 Kleinig Street ,-35.1855050,149.0830800,house,4,3,3,"$1,325,000",https://www.auhouseprices.com/sold/view/ACT/341795989/7+Kleinig+Street%2C+Nicholls+ACT/
104,2913,Nicholls,54,https://www.auhouseprices.com/sold/list/ACT/2913/Nicholls/,33 Tazewell Circuit ,-35.1859220,149.1020750,house,4,2,2,"$792,000",https://www.auhouseprices.com/sold/view/ACT/341493989/33+Tazewell+Circuit%2C+Nicholls+ACT/
105,2913,Nicholls,54,https://www.auhouseprices.com/sold/list/ACT/2913/Nicholls/,12 Ebeling Court ,-35.1856440,149.1000620,house,4,2,2,"$910,000",https://www.auhouseprices.com/sold/view/ACT/341939889/12+Ebeling+Court%2C+Nicholls+ACT/
106,2913,Nicholls,54,https://www.auhouseprices.com/sold/list/ACT/2913/Nicholls/,6 Wallaby Place ,-35.1964930,149.1049750,house,3,2,2,"$588,000",https://www.auhouseprices.com/sold/view/ACT/341560989/6++Wallaby+Place%2C+Nicholls+ACT/
107,2913,Nicholls,54,https://www.auhouseprices.com/sold/list/ACT/2913/Nicholls/,60 Tazewell Circuit ,-35.1869860,149.1038550,house,4,2,2,"$829,000",https://www.auhouseprices.com/sold/view/ACT/341932889/60+Tazewell+Circuit%2C+Nicholls+ACT/
108,2913,Nicholls,54,https://www.auhouseprices.com/sold/list/ACT/2913/Nicholls/,18/21 Temperley Street ,-35.1839990,149.0921510,townhouse,3,2,2,"$605,000",https://www.auhouseprices.com/sold/view/ACT/341639089/18-21+Temperley+Street%2C+Nicholls+ACT/
109,2913,Nicholls,54,https://www.auhouseprices.com/sold/list/ACT/2913/Nicholls/,23 Ebeling Court ,-35.1850190,149.1006190,house,5,2,3,"$877,000",https://www.auhouseprices.com/sold/view/ACT/341021889/23+Ebeling+Court%2C+Nicholls+ACT/
110,2913,Nicholls,54,https://www.auhouseprices.com/sold/list/ACT/2913/Nicholls/,8/49 Dooland Court ,-35.1818530,149.1088170,townhouse,2,1,1,"$410,000",https://www.auhouseprices.com/sold/view/ACT/341156789/8-49+Dooland+Court%2C+Nicholls+ACT/
111,2913,Nicholls,54,https://www.auhouseprices.com/sold/list/ACT/2913/Nicholls/,19 Hendry Close ,-35.1871760,149.0907000,house,7,4,2,"$1,550,000",https://www.auhouseprices.com/sold/view/ACT/341827789/19+Hendry+Close%2C+Nicholls+ACT/
112,2913,Nicholls,54,https://www.auhouseprices.com/sold/list/ACT/2913/Nicholls/,19 Hendry Close ,-35.1871750,149.0907040,house,7,4,2,"$1,550,000",https://www.auhouseprices.com/sold/view/ACT/341815789/19+Hendry+Close%2C+Nicholls+ACT/
113,2913,Nicholls,54,https://www.auhouseprices.com/sold/list/ACT/2913/Nicholls/,3 Viner Place ,-35.1877810,149.0949410,house,5,2,3,"$1,190,000",https://www.auhouseprices.com/sold/view/ACT/341463789/3+Viner+Place%2C+Nicholls+ACT/
114,2913,Nicholls,54,https://www.auhouseprices.com/sold/list/ACT/2913/Nicholls/,25/23 Temperley Street ,-35.1833910,149.0925930,townhouse,3,2,4,"$635,000",https://www.auhouseprices.com/sold/view/ACT/341650789/25-23+Temperley+Street%2C+Nicholls+ACT/
115,2913,Nicholls,54,https://www.auhouseprices.com/sold/list/ACT/2913/Nicholls/,7 Clemenger Street ,-35.1800140,149.0883870,house,5,3,2,"$915,000",https://www.auhouseprices.com/sold/view/ACT/341811689/7+Clemenger+Street%2C+Nicholls+ACT/
116,2913,Nicholls,54,https://www.auhouseprices.com/sold/list/ACT/2913/Nicholls/,28 Rosella Street ,-35.1886840,149.1139200,house,3,2,4,"$580,000",https://www.auhouseprices.com/sold/view/ACT/341240789/28+Rosella+Street%2C+Nicholls+ACT/
117,2913,Nicholls,54,https://www.auhouseprices.com/sold/list/ACT/2913/Nicholls/,9 Decima Circuit ,-35.1813880,149.0978280,house,4,2,2,"$705,000",https://www.auhouseprices.com/sold/view/ACT/341541589/9+Decima+Circuit%2C+Nicholls+ACT/
118,2913,Nicholls,54,https://www.auhouseprices.com/sold/list/ACT/2913/Nicholls/,9/81 Kelleway Avenue ,-35.1839460,149.0975810,house,3,2,2,"$560,000",https://www.auhouseprices.com/sold/view/ACT/341582589/9-81+Kelleway+Avenue%2C+Nicholls+ACT/
119,2913,Nicholls,54,https://www.auhouseprices.com/sold/list/ACT/2913/Nicholls/,12 Nagel Place ,-35.1885550,149.0938030,house,4,2,2,,https://www.auhouseprices.com/sold/view/ACT/341715689/12+Nagel+Place%2C+Nicholls+ACT/
120,2913,Nicholls,54,https://www.auhouseprices.com/sold/list/ACT/2913/Nicholls/,5/67 Freda Bennett Circuit ,-35.1807660,149.1056320,townhouse,3,2,1,"$432,000",https://www.auhouseprices.com/sold/view/ACT/341544279/5-67+Freda+Bennett+Circuit%2C+Nicholls+ACT/
121,2913,Nicholls,54,https://www.auhouseprices.com/sold/list/ACT/2913/Nicholls/,6 Krantzcke Circuit ,-35.1894810,149.0979070,house,4,2,2,,https://www.auhouseprices.com/sold/view/ACT/341532279/6+Krantzcke+Circuit%2C+Nicholls+ACT/
122,2913,Nicholls,54,https://www.auhouseprices.com/sold/list/ACT/2913/Nicholls/,2/17 Freda Bennett Circuit ,-35.1801300,149.1034790,townhouse,3,2,2,"$508,000",https://www.auhouseprices.com/sold/view/ACT/341871179/2-17+Freda+Bennett+Circuit%2C+Nicholls+ACT/
123,2913,Nicholls,54,https://www.auhouseprices.com/sold/list/ACT/2913/Nicholls/,10 Midwinter Place ,-35.1884270,149.0923950,house,4,2,2,"$1,100,000",https://www.auhouseprices.com/sold/view/ACT/341493079/10+Midwinter+Place%2C+Nicholls+ACT/
124,2913,Nicholls,54,https://www.auhouseprices.com/sold/list/ACT/2913/Nicholls/,28 Arthaldo Court ,-35.1837490,149.1052540,house,4,2,2,"$721,000",https://www.auhouseprices.com/sold/view/ACT/341334979/28+Arthaldo+Court%2C+Nicholls+ACT/
125,2913,Nicholls,54,https://www.auhouseprices.com/sold/list/ACT/2913/Nicholls/,4 Sutcliffe Street ,-35.1922270,149.0923120,house,5,2,2,"$1,130,000",https://www.auhouseprices.com/sold/view/ACT/341280879/4+Sutcliffe+Street%2C+Nicholls+ACT/
126,2913,Nicholls,54,https://www.auhouseprices.com/sold/list/ACT/2913/Nicholls/,2 Ponsford Place ,-35.1794300,149.0881250,house,4,3,3,"$1,035,000",https://www.auhouseprices.com/sold/view/ACT/341482779/2+Ponsford+Place%2C+Nicholls+ACT/
127,2913,Nicholls,54,https://www.auhouseprices.com/sold/list/ACT/2913/Nicholls/,24 Ebeling Court ,-35.1853570,149.1011360,house,5,2,2,"$866,000",https://www.auhouseprices.com/sold/view/ACT/341905879/24+Ebeling+Court%2C+Nicholls+ACT/
128,2913,Nicholls,54,https://www.auhouseprices.com/sold/list/ACT/2913/Nicholls/,15 Ebeling Court ,-35.1846240,149.1008800,house,7,3,2,"$1,075,000",https://www.auhouseprices.com/sold/view/ACT/341760779/15+Ebeling+Court%2C+Nicholls+ACT/
129,2913,Nicholls,54,https://www.auhouseprices.com/sold/list/ACT/2913/Nicholls/,7/29 Temperley Street ,-35.1849640,149.0944420,house,3,2,2,"$630,000",https://www.auhouseprices.com/sold/view/ACT/341201779/7-29+Temperley+Street%2C+Nicholls+ACT/
130,2913,Nicholls,54,https://www.auhouseprices.com/sold/list/ACT/2913/Nicholls/,68 McClelland Avenue ,-35.1807680,149.0898760,house,5,2,2,"$821,000",https://www.auhouseprices.com/sold/view/ACT/341875779/68+McClelland+Avenue%2C+Nicholls+ACT/
131,2913,Nicholls,54,https://www.auhouseprices.com/sold/list/ACT/2913/Nicholls/,132 Temperley Street ,-35.1929080,149.0981090,house,5,2,2,"$966,000",https://www.auhouseprices.com/sold/view/ACT/341385579/132+Temperley+Street%2C+Nicholls+ACT/
132,2913,Nicholls,54,https://www.auhouseprices.com/sold/list/ACT/2913/Nicholls/,5 Midwinter Place ,-35.1879420,149.0916290,house,5,3,2,"$1,400,000",https://www.auhouseprices.com/sold/view/ACT/341555579/5+Midwinter+Place%2C+Nicholls+ACT/
133,2913,Nicholls,54,https://www.auhouseprices.com/sold/list/ACT/2913/Nicholls/,6 Hurwood Place ,-35.1853860,149.1014920,house,4,3,3,"$975,000",https://www.auhouseprices.com/sold/view/ACT/341994579/6+Hurwood+Place%2C+Nicholls+ACT/
134,2913,Nicholls,54,https://www.auhouseprices.com/sold/list/ACT/2913/Nicholls/,4/51 Freda Bennett Circuit ,-35.1801070,149.1072470,townhouse,2,1,1,"$410,000",https://www.auhouseprices.com/sold/view/ACT/341247669/4-51+Freda+Bennett+Circuit%2C+Nicholls+ACT/
135,2913,Nicholls,54,https://www.auhouseprices.com/sold/list/ACT/2913/Nicholls/,4 Kangaroo Close ,-35.1954480,149.1067140,house,3,2,2,"$587,500",https://www.auhouseprices.com/sold/view/ACT/341264669/4+Kangaroo+Close%2C+Nicholls+ACT/
136,2913,Nicholls,54,https://www.auhouseprices.com/sold/list/ACT/2913/Nicholls/,17 Ibis Street ,-35.1904760,149.1109610,house,4,2,2,"$660,000",https://www.auhouseprices.com/sold/view/ACT/341669459/17+Ibis+Street%2C+Nicholls+ACT/
137,2913,Nicholls,54,https://www.auhouseprices.com/sold/list/ACT/2913/Nicholls/,4 Gordon Close ,-35.1795900,149.0916080,house,4,2,2,"$785,000",https://www.auhouseprices.com/sold/view/ACT/341193359/4+Gordon+Close%2C+Nicholls+ACT/
138,2913,Nicholls,54,https://www.auhouseprices.com/sold/list/ACT/2913/Nicholls/,1 Kay Place ,-35.1859590,149.1093910,house,5,3,3,"$980,000",https://www.auhouseprices.com/sold/view/ACT/341138259/1+Kay+Place%2C+Nicholls+ACT/
139,2913,Nicholls,54,https://www.auhouseprices.com/sold/list/ACT/2913/Nicholls/,8/21 Krantzcke Circuit ,-35.1887720,149.0983700,townhouse,4,2,2,"$635,000",https://www.auhouseprices.com/sold/view/ACT/341398159/8-21+Krantzcke+Circuit%2C+Nicholls+ACT/
140,2913,Nicholls,54,https://www.auhouseprices.com/sold/list/ACT/2913/Nicholls/,23/23 Temperley Street ,-35.1833910,149.0925930,apartment,3,2,2,"$627,000",https://www.auhouseprices.com/sold/view/ACT/341238359/23-23+Temperley+Street%2C+Nicholls+ACT/
141,2913,Nicholls,54,https://www.auhouseprices.com/sold/list/ACT/2913/Nicholls/,13 Weetman Place ,-35.1846700,149.1045770,house,4,2,2,"$685,000",https://www.auhouseprices.com/sold/view/ACT/341434959/13+Weetman+Place%2C+Nicholls+ACT/
142,2913,Nicholls,54,https://www.auhouseprices.com/sold/list/ACT/2913/Nicholls/,22 Dooland Court ,-35.1826200,149.1057690,house,5,2,6,"$800,000",https://www.auhouseprices.com/sold/view/ACT/341861959/22+Dooland+Court%2C+Nicholls+ACT/
143,2913,Nicholls,54,https://www.auhouseprices.com/sold/list/ACT/2913/Nicholls/,19 Wendy Ey Place ,-35.1921620,149.0965700,house,4,2,3,"$870,000",https://www.auhouseprices.com/sold/view/ACT/341803959/19+Wendy+Ey+Place%2C+Nicholls+ACT/
144,2913,Nicholls,54,https://www.auhouseprices.com/sold/list/ACT/2913/Nicholls/,25 Fleetwood Smith Street ,-35.1829550,149.0843190,house,4,3,2,,https://www.auhouseprices.com/sold/view/ACT/341820959/25+Fleetwood+Smith+Street%2C+Nicholls+ACT/
145,2913,Nicholls,54,https://www.auhouseprices.com/sold/list/ACT/2913/Nicholls/,2 Viner Place ,-35.1883260,149.0953480,house,6,3,3,,https://www.auhouseprices.com/sold/view/ACT/341305859/2+Viner+Place%2C+Nicholls+ACT/
146,2913,Nicholls,54,https://www.auhouseprices.com/sold/list/ACT/2913/Nicholls/,4 Westbury Circuit ,-35.1849300,149.1096020,house,6,4,4,"$960,000",https://www.auhouseprices.com/sold/view/ACT/341015859/4+Westbury+Circuit%2C+Nicholls+ACT/
147,2913,Nicholls,54,https://www.auhouseprices.com/sold/list/ACT/2913/Nicholls/,3 Hoad Place ,-35.1898620,149.1008490,house,5,2,3,"$1,131,000",https://www.auhouseprices.com/sold/view/ACT/341193859/3+Hoad+Place%2C+Nicholls+ACT/
148,2913,Nicholls,54,https://www.auhouseprices.com/sold/list/ACT/2913/Nicholls/,98 Lexcen Avenue ,-35.1847760,149.0993420,house,4,3,2,,https://www.auhouseprices.com/sold/view/ACT/341172759/98+Lexcen+Avenue%2C+Nicholls+ACT/
149,2913,Nicholls,54,https://www.auhouseprices.com/sold/list/ACT/2913/Nicholls/,4 Platypus Place ,-35.1932330,149.1086700,house,4,2,2,"$875,000",https://www.auhouseprices.com/sold/view/ACT/341600859/4+Platypus+Place%2C+Nicholls+ACT/
150,2913,Nicholls,54,https://www.auhouseprices.com/sold/list/ACT/2913/Nicholls/,14 Gorman Crescent ,-35.1875540,149.1071280,house,4,2,3,"$910,000",https://www.auhouseprices.com/sold/view/ACT/341222759/14+Gorman+Crescent%2C+Nicholls+ACT/
151,2913,Nicholls,54,https://www.auhouseprices.com/sold/list/ACT/2913/Nicholls/,1 Lyrebird Place ,-35.1942930,149.1087300,house,4,2,2,"$680,000",https://www.auhouseprices.com/sold/view/ACT/341280759/1+Lyrebird+Place%2C+Nicholls+ACT/
152,2913,Nicholls,54,https://www.auhouseprices.com/sold/list/ACT/2913/Nicholls/,10 Frew Close ,-35.1871680,149.1072860,house,5,2,2,"$1,110,000",https://www.auhouseprices.com/sold/view/ACT/341392859/10+Frew+Close%2C+Nicholls+ACT/
153,2913,Nicholls,54,https://www.auhouseprices.com/sold/list/ACT/2913/Nicholls/,6 Moriarty Street ,-35.1851500,149.0852250,house,5,2,3,"$1,080,000",https://www.auhouseprices.com/sold/view/ACT/341743659/6+Moriarty+Street%2C+Nicholls+ACT/
154,2913,Nicholls,54,https://www.auhouseprices.com/sold/list/ACT/2913/Nicholls/,8 Waine Place ,-35.1788560,149.0906400,house,5,2,2,"$883,000",https://www.auhouseprices.com/sold/view/ACT/341520659/8+Waine+Place%2C+Nicholls+ACT/
155,2913,Nicholls,54,https://www.auhouseprices.com/sold/list/ACT/2913/Nicholls/,5 Biddell Pl ,-35.1834450,149.1038400,house,3,2,2,"$567,500",https://www.auhouseprices.com/sold/view/ACT/341389559/5+Biddell+Pl%2C+Nicholls+ACT/
156,2913,Nicholls,54,https://www.auhouseprices.com/sold/list/ACT/2913/Nicholls/,24 Krantzcke Circuit ,-35.1891080,149.0992290,house,3,2,2,"$820,000",https://www.auhouseprices.com/sold/view/ACT/341233559/24+Krantzcke+Circuit%2C+Nicholls+ACT/
157,2913,Nicholls,54,https://www.auhouseprices.com/sold/list/ACT/2913/Nicholls/,5 Viner Place ,-35.1875720,149.0949980,house,4,2,2,"$1,070,000",https://www.auhouseprices.com/sold/view/ACT/341751559/5+Viner+Place%2C+Nicholls+ACT/
158,2913,Nicholls,54,https://www.auhouseprices.com/sold/list/ACT/2913/Nicholls/,89 McClelland Avenue ,-35.1803380,149.0907860,house,3,2,2,"$743,000",https://www.auhouseprices.com/sold/view/ACT/341208449/89+McClelland+Avenue%2C+Nicholls+ACT/
159,2913,Nicholls,54,https://www.auhouseprices.com/sold/list/ACT/2913/Nicholls/,9/123 Kelleway Avenue ,-35.1818100,149.0933310,house,3,2,2,"$615,000",https://www.auhouseprices.com/sold/view/ACT/341726449/9-123+Kelleway+Avenue%2C+Nicholls+ACT/
160,2913,Nicholls,54,https://www.auhouseprices.com/sold/list/ACT/2913/Nicholls/,3 Lindwall Place ,-35.1899960,149.1023370,house,5,3,2,,https://www.auhouseprices.com/sold/view/ACT/341576349/3+Lindwall+Place%2C+Nicholls+ACT/
161,2913,Nicholls,54,https://www.auhouseprices.com/sold/list/ACT/2913/Nicholls/,13 Ibis Street ,-35.1904360,149.1112630,house,4,2,1,"$665,000",https://www.auhouseprices.com/sold/view/ACT/341705349/13+Ibis+Street%2C+Nicholls+ACT/
162,2913,Nicholls,54,https://www.auhouseprices.com/sold/list/ACT/2913/Nicholls/,63 Lexcen Avenue ,-35.1894550,149.1023590,house,4,2,2,"$850,000",https://www.auhouseprices.com/sold/view/ACT/341742249/63+Lexcen+Avenue%2C+Nicholls+ACT/
163,2913,Nicholls,54,https://www.auhouseprices.com/sold/list/ACT/2913/Nicholls/,4 Freda Bennett Circuit ,-35.1811040,149.1042810,townhouse,3,1,1,"$448,000",https://www.auhouseprices.com/sold/view/ACT/341388149/4+Freda+Bennett+Circuit%2C+Nicholls+ACT/
164,2913,Nicholls,54,https://www.auhouseprices.com/sold/list/ACT/2913/Nicholls/,19 Dooland Court ,-35.1809900,149.1066140,house,4,2,2,"$800,000",https://www.auhouseprices.com/sold/view/ACT/341347149/19+Dooland+Court%2C+Nicholls+ACT/
165,2913,Nicholls,54,https://www.auhouseprices.com/sold/list/ACT/2913/Nicholls/,16 Dobbin Circuit ,-35.1852400,149.0913000,house,4,2,2,"$1,000,000",https://www.auhouseprices.com/sold/view/ACT/341323149/16+Dobbin+Circuit%2C+Nicholls+ACT/
166,2913,Nicholls,54,https://www.auhouseprices.com/sold/list/ACT/2913/Nicholls/,20 Hattersley Court ,-35.1889720,149.1054400,house,3,2,2,"$800,000",https://www.auhouseprices.com/sold/view/ACT/341592149/20+Hattersley+Court%2C+Nicholls+ACT/
167,2913,Nicholls,54,https://www.auhouseprices.com/sold/list/ACT/2913/Nicholls/,9 Rumbelow Court ,-35.1786930,149.0867380,house,4,2,2,"$907,000",https://www.auhouseprices.com/sold/view/ACT/341048339/9+Rumbelow+Court%2C+Nicholls+ACT/
168,2913,Nicholls,54,https://www.auhouseprices.com/sold/list/ACT/2913/Nicholls/,12 Ibis Street ,-35.1900130,149.1114000,house,3,2,2,"$690,000",https://www.auhouseprices.com/sold/view/ACT/341710239/12+Ibis+Street%2C+Nicholls+ACT/
169,2913,Nicholls,54,https://www.auhouseprices.com/sold/list/ACT/2913/Nicholls/,21 Fleetwood-Smith Street ,-35.1828420,149.0838800,house,4,2,2,,https://www.auhouseprices.com/sold/view/ACT/341574069/21+Fleetwood-Smith+Street%2C+Nicholls+ACT/
170,2913,Nicholls,54,https://www.auhouseprices.com/sold/list/ACT/2913/Nicholls/,6 Kangaroo Close ,-35.1955260,149.1065700,house,4,2,2,"$710,000",https://www.auhouseprices.com/sold/view/ACT/341899039/6+Kangaroo+Close%2C+Nicholls+ACT/
171,2913,Nicholls,54,https://www.auhouseprices.com/sold/list/ACT/2913/Nicholls/,81 McClelland Avenue ,-35.1802710,149.0899000,house,4,2,2,"$765,000",https://www.auhouseprices.com/sold/view/ACT/341081139/81+McClelland+Avenue%2C+Nicholls+ACT/
172,2913,Nicholls,54,https://www.auhouseprices.com/sold/list/ACT/2913/Nicholls/,108 Krantzcke Circuit ,-35.1896800,149.0968600,house,4,2,2,"$880,000",https://www.auhouseprices.com/sold/view/ACT/341050039/108+Krantzcke+Circuit%2C+Nicholls+ACT/
173,2913,Nicholls,54,https://www.auhouseprices.com/sold/list/ACT/2913/Nicholls/,17 Whitfield Circuit ,-35.1913940,149.1013860,house,5,2,2,,https://www.auhouseprices.com/sold/view/ACT/341995039/17+Whitfield+Circuit%2C+Nicholls+ACT/
174,2913,Nicholls,54,https://www.auhouseprices.com/sold/list/ACT/2913/Nicholls/,78 Lexcen Avenue ,-35.1865630,149.1003260,house,4,2,2,"$860,000",https://www.auhouseprices.com/sold/view/ACT/341458839/78+Lexcen+Avenue%2C+Nicholls+ACT/
175,2913,Nicholls,54,https://www.auhouseprices.com/sold/list/ACT/2913/Nicholls/,9/49 Freda Bennett Circuit ,-35.1801070,149.1071970,townhouse,3,1,1,"$430,000",https://www.auhouseprices.com/sold/view/ACT/341873839/9-49+Freda+Bennett+Circuit%2C+Nicholls+ACT/
176,2913,Nicholls,54,https://www.auhouseprices.com/sold/list/ACT/2913/Nicholls/,5 Weetman Place ,-35.1843320,149.1041250,house,4,2,2,"$697,500",https://www.auhouseprices.com/sold/view/ACT/341777839/5+Weetman+Place%2C+Nicholls+ACT/
177,2913,Nicholls,54,https://www.auhouseprices.com/sold/list/ACT/2913/Nicholls/,13 Wendy Ey Place ,-35.1922730,149.0973720,house,5,2,2,"$895,000",https://www.auhouseprices.com/sold/view/ACT/341023528/13+Wendy+Ey+Place%2C+Nicholls+ACT/
178,2913,Nicholls,54,https://www.auhouseprices.com/sold/list/ACT/2913/Nicholls/,15 Cockatoo Close ,-35.1905970,149.1119300,house,3,2,4,"$625,500",https://www.auhouseprices.com/sold/view/ACT/341143528/15+Cockatoo+Close%2C+Nicholls+ACT/
179,2913,Nicholls,54,https://www.auhouseprices.com/sold/list/ACT/2913/Nicholls/,90 Lexcen Avenue ,-35.1855540,149.0991910,house,4,3,2,"$890,000",https://www.auhouseprices.com/sold/view/ACT/341781528/90+Lexcen+Avenue%2C+Nicholls+ACT/
180,2913,Nicholls,54,https://www.auhouseprices.com/sold/list/ACT/2913/Nicholls/,43 Rosella Street ,-35.1876940,149.1145530,house,3,2,2,"$640,000",https://www.auhouseprices.com/sold/view/ACT/341485328/43+Rosella+Street%2C+Nicholls+ACT/
181,2913,Nicholls,54,https://www.auhouseprices.com/sold/list/ACT/2913/Nicholls/,34 Lexcen Avenue ,-35.1875290,149.1046200,house,4,2,2,"$875,000",https://www.auhouseprices.com/sold/view/ACT/341670228/34+Lexcen+Avenue%2C+Nicholls+ACT/
182,2913,Nicholls,54,https://www.auhouseprices.com/sold/list/ACT/2913/Nicholls/,1/51 Freda Bennett Circuit ,-35.1801070,149.1072470,townhouse,3,1,1,,https://www.auhouseprices.com/sold/view/ACT/341629228/1-51+Freda+Bennett+Circuit%2C+Nicholls+ACT/
183,2913,Nicholls,54,https://www.auhouseprices.com/sold/list/ACT/2913/Nicholls/,19 Arthaldo Court ,-35.1840940,149.1057820,house,4,3,2,"$895,000",https://www.auhouseprices.com/sold/view/ACT/341288028/19+Arthaldo+Court%2C+Nicholls+ACT/
184,2913,Nicholls,54,https://www.auhouseprices.com/sold/list/ACT/2913/Nicholls/,14/29 Temperley Street ,-35.1849640,149.0944420,townhouse,3,2,2,"$600,000",https://www.auhouseprices.com/sold/view/ACT/341712028/14-29+Temperley+Street%2C+Nicholls+ACT/
185,2913,Nicholls,54,https://www.auhouseprices.com/sold/list/ACT/2913/Nicholls/,4 Nagel Place ,-35.1890360,149.0946230,house,5,2,3,"$1,120,000",https://www.auhouseprices.com/sold/view/ACT/341166828/4+Nagel+Place%2C+Nicholls+ACT/
186,2913,Nicholls,54,https://www.auhouseprices.com/sold/list/ACT/2913/Nicholls/,26/21 Temperley Street ,-35.1839990,149.0921510,townhouse,3,2,2,"$585,000",https://www.auhouseprices.com/sold/view/ACT/341614828/26-21+Temperley+Street%2C+Nicholls+ACT/
187,2913,Nicholls,54,https://www.auhouseprices.com/sold/list/ACT/2913/Nicholls/,36 Freda Bennett Circuit ,-35.1796690,149.1063770,house,4,2,2,"$790,000",https://www.auhouseprices.com/sold/view/ACT/341667828/36+Freda+Bennett+Circuit%2C+Nicholls+ACT/
188,2913,Nicholls,54,https://www.auhouseprices.com/sold/list/ACT/2913/Nicholls/,31 McClelland Avenue ,-35.1825290,149.0853080,house,5,2,2,,https://www.auhouseprices.com/sold/view/ACT/341857728/31+McClelland+Avenue%2C+Nicholls+ACT/
189,2913,Nicholls,54,https://www.auhouseprices.com/sold/list/ACT/2913/Nicholls/,12/29 Temperley Street ,-35.1849640,149.0944420,house,3,2,2,"$635,000",https://www.auhouseprices.com/sold/view/ACT/341543728/12-29+Temperley+Street%2C+Nicholls+ACT/
190,2913,Nicholls,54,https://www.auhouseprices.com/sold/list/ACT/2913/Nicholls/,37 Kangaroo Close ,-35.1968770,149.1042500,house,3,2,2,"$605,000",https://www.auhouseprices.com/sold/view/ACT/341090518/37+Kangaroo+Close%2C+Nicholls+ACT/
191,2913,Nicholls,54,https://www.auhouseprices.com/sold/list/ACT/2913/Nicholls/,46 Hattersley Court ,-35.1867040,149.1064160,house,4,2,2,"$790,000",https://www.auhouseprices.com/sold/view/ACT/341960518/46+Hattersley+Court%2C+Nicholls+ACT/
192,2913,Nicholls,54,https://www.auhouseprices.com/sold/list/ACT/2913/Nicholls/,15 Lindwall Place ,-35.1897600,149.1038980,house,5,3,2,"$1,150,000",https://www.auhouseprices.com/sold/view/ACT/341327518/15+Lindwall+Place%2C+Nicholls+ACT/
193,2913,Nicholls,54,https://www.auhouseprices.com/sold/list/ACT/2913/Nicholls/,28 Dooland Court ,-35.1820830,149.1057110,house,4,2,2,"$650,000",https://www.auhouseprices.com/sold/view/ACT/341330418/28+Dooland+Court%2C+Nicholls+ACT/
194,2913,Nicholls,54,https://www.auhouseprices.com/sold/list/ACT/2913/Nicholls/,10 Ponsford Place ,-35.1785930,149.0880900,house,4,1,2,$1,https://www.auhouseprices.com/sold/view/ACT/341157518/10+Ponsford+Place%2C+Nicholls+ACT/
195,2913,Nicholls,54,https://www.auhouseprices.com/sold/list/ACT/2913/Nicholls/,47 Rosella Street ,-35.1875750,149.1148520,house,3,2,2,"$656,000",https://www.auhouseprices.com/sold/view/ACT/341592418/47+Rosella+Street%2C+Nicholls+ACT/
196,2913,Nicholls,54,https://www.auhouseprices.com/sold/list/ACT/2913/Nicholls/,5 Peken Place ,-35.1902600,149.0893400,house,5,2,2,"$1,390,000",https://www.auhouseprices.com/sold/view/ACT/341911318/5+Peken+Place%2C+Nicholls+ACT/
197,2913,Nicholls,54,https://www.auhouseprices.com/sold/list/ACT/2913/Nicholls/,20 Lindwall Place ,-35.1906880,149.1045420,house,6,4,5,"$1,700,000",https://www.auhouseprices.com/sold/view/ACT/341952318/20+Lindwall+Place%2C+Nicholls+ACT/
198,2913,Nicholls,54,https://www.auhouseprices.com/sold/list/ACT/2913/Nicholls/,4/21 Krantzcke Circuit ,-35.1887720,149.0983700,townhouse,4,2,2,"$652,000",https://www.auhouseprices.com/sold/view/ACT/341648218/4-21+Krantzcke+Circuit%2C+Nicholls+ACT/
199,2913,Nicholls,54,https://www.auhouseprices.com/sold/list/ACT/2913/Nicholls/,8 Fitzsimmons Street ,-35.1824050,149.0866210,house,5,3,3,"$932,500",https://www.auhouseprices.com/sold/view/ACT/341896118/8+Fitzsimmons+Street%2C+Nicholls+ACT/
200,2913,Nicholls,54,https://www.auhouseprices.com/sold/list/ACT/2913/Nicholls/,16 Cottam Place ,-35.1826780,149.1061420,house,4,2,2,"$790,000",https://www.auhouseprices.com/sold/view/ACT/341246118/16+Cottam+Place%2C+Nicholls+ACT/
201,2913,Nicholls,54,https://www.auhouseprices.com/sold/list/ACT/2913/Nicholls/,159 Temperley Street ,-35.1906290,149.0995970,house,4,2,2,"$1,200,000",https://www.auhouseprices.com/sold/view/ACT/341536118/159+Temperley+Street%2C+Nicholls+ACT/
202,2913,Nicholls,54,https://www.auhouseprices.com/sold/list/ACT/2913/Nicholls/,31 Freda Bennett Circuit ,-35.1795430,149.1053850,house,4,3,2,"$780,000",https://www.auhouseprices.com/sold/view/ACT/341404118/31+Freda+Bennett++Circuit%2C+Nicholls+ACT/
203,2913,Nicholls,54,https://www.auhouseprices.com/sold/list/ACT/2913/Nicholls/,13/29 Temperley Street ,-35.1849640,149.0944420,townhouse,3,2,2,"$610,000",https://www.auhouseprices.com/sold/view/ACT/341134018/13-29+Temperley++Street%2C+Nicholls+ACT/
204,2913,Nicholls,54,https://www.auhouseprices.com/sold/list/ACT/2913/Nicholls/,14 Krantzcke Circuit ,-35.1894600,149.0985400,house,4,2,2,"$855,000",https://www.auhouseprices.com/sold/view/ACT/341189918/14+Krantzcke+Circuit%2C+Nicholls+ACT/
205,2913,Nicholls,54,https://www.auhouseprices.com/sold/list/ACT/2913/Nicholls/,15/27 Temperley Street ,-35.1847520,149.0940060,townhouse,3,1,2,"$633,000",https://www.auhouseprices.com/sold/view/ACT/341335918/15-27+Temperley+Street%2C+Nicholls+ACT/
206,2913,Nicholls,54,https://www.auhouseprices.com/sold/list/ACT/2913/Nicholls/,12 Kleinig Street ,-35.1843820,149.0836050,house,5,3,3,"$1,210,000",https://www.auhouseprices.com/sold/view/ACT/341964818/12+Kleinig+Street%2C+Nicholls+ACT/
207,2913,Nicholls,54,https://www.auhouseprices.com/sold/list/ACT/2913/Nicholls/,16 Oldershaw Court ,-35.1842040,149.0997710,house,4,2,2,"$851,000",https://www.auhouseprices.com/sold/view/ACT/341742518/16+Oldershaw+Court%2C+Nicholls+ACT/
208,2913,Nicholls,54,https://www.auhouseprices.com/sold/list/ACT/2913/Nicholls/,17 Arthaldo Court ,-35.1839830,149.1059670,house,4,2,2,"$940,000",https://www.auhouseprices.com/sold/view/ACT/341549818/17+Arthaldo+Court%2C+Nicholls+ACT/
209,2913,Nicholls,54,https://www.auhouseprices.com/sold/list/ACT/2913/Nicholls/,17 Fitzsimmons Street ,-35.1819090,149.0884520,house,5,2,3,"$920,000",https://www.auhouseprices.com/sold/view/ACT/341358718/17+Fitzsimmons+Street%2C+Nicholls+ACT/
210,2913,Nicholls,54,https://www.auhouseprices.com/sold/list/ACT/2913/Nicholls/,11 Weetman Place ,-35.1845980,149.1044320,house,3,2,2,"$630,000",https://www.auhouseprices.com/sold/view/ACT/341756718/11+Weetman+Place%2C+Nicholls+ACT/
211,2913,Nicholls,54,https://www.auhouseprices.com/sold/list/ACT/2913/Nicholls/,21/70 Kelleway Avenue ,-35.1834660,149.0983130,townhouse,3,2,2,,https://www.auhouseprices.com/sold/view/ACT/341106508/21-70+Kelleway+Avenue%2C+Nicholls+ACT/
212,2913,Nicholls,54,https://www.auhouseprices.com/sold/list/ACT/2913/Nicholls/,22/68 Kelleway Avenue ,-35.1834690,149.0983920,townhouse,4,2,2,,https://www.auhouseprices.com/sold/view/ACT/341612508/22-68+Kelleway+Avenue%2C+Nicholls+ACT/
213,2913,Nicholls,54,https://www.auhouseprices.com/sold/list/ACT/2913/Nicholls/,4 Hoad Place ,-35.1894800,149.1011610,house,4,2,3,"$883,500",https://www.auhouseprices.com/sold/view/ACT/341893508/4+Hoad+Place%2C+Nicholls+ACT/
214,2913,Nicholls,54,https://www.auhouseprices.com/sold/list/ACT/2913/Nicholls/,6/77 Freda Bennett Circuit ,-35.1810720,149.1049990,terrace,3,2,2,"$467,500",https://www.auhouseprices.com/sold/view/ACT/341855408/6-77+Freda+Bennett+Circuit%2C+Nicholls+ACT/
215,2913,Nicholls,54,https://www.auhouseprices.com/sold/list/ACT/2913/Nicholls/,14/21 Temperley Street ,-35.1839990,149.0921510,townhouse,4,2,2,"$620,000",https://www.auhouseprices.com/sold/view/ACT/341504508/14-21+Temperley+Street%2C+Nicholls+ACT/
216,2913,Nicholls,54,https://www.auhouseprices.com/sold/list/ACT/2913/Nicholls/,30 Fleetwood-Smith Street ,-35.1827690,149.0844400,house,5,2,2,"$959,000",https://www.auhouseprices.com/sold/view/ACT/341093408/30+Fleetwood-Smith+Street%2C+Nicholls+ACT/
217,2913,Nicholls,54,https://www.auhouseprices.com/sold/list/ACT/2913/Nicholls/,11 Kleinig Street ,-35.1851110,149.0827510,house,5,3,6,"$1,840,000",https://www.auhouseprices.com/sold/view/ACT/341618308/11+Kleinig+Street%2C+Nicholls+ACT/
218,2913,Nicholls,54,https://www.auhouseprices.com/sold/list/ACT/2913/Nicholls/,8 Lexcen Avenue ,-35.1851880,149.1048420,house,5,2,4,"$1,000,000",https://www.auhouseprices.com/sold/view/ACT/341328308/8+Lexcen+Avenue%2C+Nicholls+ACT/
219,2913,Nicholls,54,https://www.auhouseprices.com/sold/list/ACT/2913/Nicholls/,97 Sue Geh Circuit ,-35.1887630,149.0925730,house,3,2,2,"$910,000",https://www.auhouseprices.com/sold/view/ACT/341781408/97+Sue+Geh+Circuit%2C+Nicholls+ACT/
220,2913,Nicholls,54,https://www.auhouseprices.com/sold/list/ACT/2913/Nicholls/,43 Mcclelland Avenue ,-35.1817810,149.0859900,house,4,3,2,"$795,000",https://www.auhouseprices.com/sold/view/ACT/341550108/43+Mcclelland+Avenue%2C+Nicholls+ACT/
221,2913,Nicholls,54,https://www.auhouseprices.com/sold/list/ACT/2913/Nicholls/,17 Anne Clark Ave ,-35.1835830,149.1041140,house,3,1,1,"$600,000",https://www.auhouseprices.com/sold/view/ACT/341237308/17+Anne+Clark+Ave%2C+Nicholls+ACT/
222,2913,Nicholls,54,https://www.auhouseprices.com/sold/list/ACT/2913/Nicholls/,7/77 Freda Bennett Circuit ,-35.1810720,149.1049990,townhouse,3,2,1,"$427,000",https://www.auhouseprices.com/sold/view/ACT/341889008/7-77+Freda+Bennett+Circuit%2C+Nicholls+ACT/
223,2913,Nicholls,54,https://www.auhouseprices.com/sold/list/ACT/2913/Nicholls/,1 Kuhn Place ,-35.1866280,149.1020390,house,4,2,3,"$860,000",https://www.auhouseprices.com/sold/view/ACT/341551008/1+Kuhn+Place%2C+Nicholls+ACT/
224,2913,Nicholls,54,https://www.auhouseprices.com/sold/list/ACT/2913/Nicholls/,2 Hoad Place ,-35.1896060,149.1013700,house,5,2,2,"$880,000",https://www.auhouseprices.com/sold/view/ACT/341076908/2+Hoad+Place%2C+Nicholls+ACT/
225,2913,Nicholls,54,https://www.auhouseprices.com/sold/list/ACT/2913/Nicholls/,1 Gorman Crescent ,-35.1879400,149.1060340,house,4,2,2,"$865,000",https://www.auhouseprices.com/sold/view/ACT/341874108/1+Gorman+Crescent%2C+Nicholls+ACT/
226,2913,Nicholls,54,https://www.auhouseprices.com/sold/list/ACT/2913/Nicholls/,81 Sue Geh Circuit ,-35.1888390,149.0905110,house,4,2,2,"$1,075,000",https://www.auhouseprices.com/sold/view/ACT/341249808/81+Sue+Geh+Circuit%2C+Nicholls+ACT/
227,2913,Nicholls,54,https://www.auhouseprices.com/sold/list/ACT/2913/Nicholls/,10 Bilby Place ,-35.1939850,149.1098710,house,3,2,2,"$618,000",https://www.auhouseprices.com/sold/view/ACT/341222908/10+Bilby+Place%2C+Nicholls+ACT/
228,2913,Nicholls,54,https://www.auhouseprices.com/sold/list/ACT/2913/Nicholls/,3 McRitchie Circuit ,-35.1904040,149.0948190,house,5,3,4,"$1,460,000",https://www.auhouseprices.com/sold/view/ACT/341108708/3+McRitchie+Circuit%2C+Nicholls+ACT/
229,2913,Nicholls,54,https://www.auhouseprices.com/sold/list/ACT/2913/Nicholls/,6 Bolger Place ,-35.1833290,149.0872870,house,4,2,2,"$1,400,000",https://www.auhouseprices.com/sold/view/ACT/341857608/6+Bolger+Place%2C+Nicholls+ACT/
230,2913,Nicholls,54,https://www.auhouseprices.com/sold/list/ACT/2913/Nicholls/,48 Temperley Street ,-35.1870180,149.0921690,house,4,2,3,"$1,035,000",https://www.auhouseprices.com/sold/view/ACT/341071608/48+Temperley+Street%2C+Nicholls+ACT/
231,2913,Nicholls,54,https://www.auhouseprices.com/sold/list/ACT/2913/Nicholls/,30 Westbury Circuit ,-35.1851880,149.1073180,house,5,3,4,"$930,000",https://www.auhouseprices.com/sold/view/ACT/341121608/30+Westbury+Circuit%2C+Nicholls+ACT/
232,2913,Nicholls,54,https://www.auhouseprices.com/sold/list/ACT/2913/Nicholls/,12/21 Krantzcke Circuit ,-35.1887720,149.0983700,townhouse,3,2,2,"$630,000",https://www.auhouseprices.com/sold/view/ACT/341476398/12-21+Krantzcke+Circuit%2C+Nicholls+ACT/
233,2913,Nicholls,54,https://www.auhouseprices.com/sold/list/ACT/2913/Nicholls/,29/35 Edie Payne Close ,-35.1949730,149.0910900,townhouse,3,2,2,"$641,000",https://www.auhouseprices.com/sold/view/ACT/341425069/29-35+Edie+Payne+Close%2C+Nicholls+ACT/
234,2913,Nicholls,54,https://www.auhouseprices.com/sold/list/ACT/2913/Nicholls/,1 Tange Place ,-35.1827150,149.0964990,house,5,3,2,"$928,000",https://www.auhouseprices.com/sold/view/ACT/341865298/1+Tange++Place%2C+Nicholls+ACT/
235,2913,Nicholls,54,https://www.auhouseprices.com/sold/list/ACT/2913/Nicholls/,24/35 Edie Payne Close ,-35.1949730,149.0910900,townhouse,3,2,2,"$740,000",https://www.auhouseprices.com/sold/view/ACT/341135069/24-35+Edie+Payne+Close%2C+Nicholls+ACT/
236,2913,Nicholls,54,https://www.auhouseprices.com/sold/list/ACT/2913/Nicholls/,6/49 Dooland Court ,-35.1818530,149.1088170,townhouse,2,1,1,,https://www.auhouseprices.com/sold/view/ACT/341284069/6-49+Dooland+Court%2C+Nicholls+ACT/
237,2913,Nicholls,54,https://www.auhouseprices.com/sold/list/ACT/2913/Nicholls/,20 Massie Place ,-35.1823580,149.1092700,house,4,2,2,"$748,000",https://www.auhouseprices.com/sold/view/ACT/341003098/20+Massie+Place%2C+Nicholls+ACT/
238,2913,Nicholls,54,https://www.auhouseprices.com/sold/list/ACT/2913/Nicholls/,66 Krantzcke Circuit ,-35.1879580,149.0980000,house,4,2,2,"$657,000",https://www.auhouseprices.com/sold/view/ACT/341864098/66+Krantzcke+Circuit%2C+Nicholls+ACT/
239,2913,Nicholls,54,https://www.auhouseprices.com/sold/list/ACT/2913/Nicholls/,7/16 Monaghan Pl. ,-35.1841610,149.1025360,house,3,2,2,"$578,000",https://www.auhouseprices.com/sold/view/ACT/341466098/7-16+Monaghan+Pl.%2C+Nicholls+ACT/
240,2913,Nicholls,54,https://www.auhouseprices.com/sold/list/ACT/2913/Nicholls/,17 Cockatoo Close ,-35.1903910,149.1120420,house,3,2,2,"$612,000",https://www.auhouseprices.com/sold/view/ACT/341111098/17+Cockatoo+Close%2C+Nicholls+ACT/
241,2913,Nicholls,54,https://www.auhouseprices.com/sold/list/ACT/2913/Nicholls/,1/11 Monaghan Place ,-35.1844710,149.1031690,townhouse,3,1,2,"$505,000",https://www.auhouseprices.com/sold/view/ACT/341602328/1-11+Monaghan+Place%2C+Nicholls+ACT/
242,2913,Nicholls,54,https://www.auhouseprices.com/sold/list/ACT/2913/Nicholls/,1 Hoad Place ,-35.1899950,149.1010390,house,5,2,4,"$1,150,000",https://www.auhouseprices.com/sold/view/ACT/341423898/1+Hoad+Place%2C+Nicholls+ACT/
243,2913,Nicholls,54,https://www.auhouseprices.com/sold/list/ACT/2913/Nicholls/,6 Clemenger Street ,-35.1800040,149.0898000,house,5,2,4,"$965,000",https://www.auhouseprices.com/sold/view/ACT/341268798/6+Clemenger+Street%2C+Nicholls+ACT/
244,2913,Nicholls,54,https://www.auhouseprices.com/sold/list/ACT/2913/Nicholls/,4 Barclay Place ,-35.1829220,149.0872200,house,4,2,2,"$850,000",https://www.auhouseprices.com/sold/view/ACT/341587798/4+Barclay+Place%2C+Nicholls+ACT/
245,2913,Nicholls,54,https://www.auhouseprices.com/sold/list/ACT/2913/Nicholls/,9/123 Kelleway Avenue ,-35.1818100,149.0933310,house,3,2,2,"$475,000",https://www.auhouseprices.com/sold/view/ACT/341534798/9-123+Kelleway+Avenue%2C+Nicholls+ACT/
246,2913,Nicholls,54,https://www.auhouseprices.com/sold/list/ACT/2913/Nicholls/,1 Bilby Place ,-35.1934300,149.1091420,house,3,1,2,"$592,000",https://www.auhouseprices.com/sold/view/ACT/341124798/1+Bilby+Place%2C+Nicholls+ACT/
247,2913,Nicholls,54,https://www.auhouseprices.com/sold/list/ACT/2913/Nicholls/,5 Angles Court ,-35.1857570,149.1103800,house,5,3,2,"$1,385,000",https://www.auhouseprices.com/sold/view/ACT/341311798/5+Angles+Court%2C+Nicholls+ACT/
248,2913,Nicholls,54,https://www.auhouseprices.com/sold/list/ACT/2913/Nicholls/,4 Just Place ,-35.1858500,149.1083870,house,5,2,2,"$880,000",https://www.auhouseprices.com/sold/view/ACT/341168698/4+Just+Place%2C+Nicholls+ACT/
249,2913,Nicholls,54,https://www.auhouseprices.com/sold/list/ACT/2913/Nicholls/,12 Clemenger Street ,-35.1798690,149.0905090,house,4,2,2,"$890,000",https://www.auhouseprices.com/sold/view/ACT/341868698/12+Clemenger+Street%2C+Nicholls+ACT/
250,2913,Nicholls,54,https://www.auhouseprices.com/sold/list/ACT/2913/Nicholls/,82 Sue Geh Circuit ,-35.1892490,149.0932380,house,4,2,2,"$1,075,000",https://www.auhouseprices.com/sold/view/ACT/341662698/82+Sue+Geh+Circuit%2C+Nicholls+ACT/
251,2913,Nicholls,54,https://www.auhouseprices.com/sold/list/ACT/2913/Nicholls/,28/27 Temperley Street ,-35.1847530,149.0940100,townhouse,4,2,2,"$665,000",https://www.auhouseprices.com/sold/view/ACT/341070698/28-27+Temperley+Street%2C+Nicholls+ACT/
252,2913,Nicholls,54,https://www.auhouseprices.com/sold/list/ACT/2913/Nicholls/,13 Metcalfe Street ,-35.1816300,149.0901800,house,5,2,2,"$975,000",https://www.auhouseprices.com/sold/view/ACT/341243598/13+Metcalfe+Street%2C+Nicholls+ACT/
253,2913,Nicholls,54,https://www.auhouseprices.com/sold/list/ACT/2913/Nicholls/,16 Paisley Street ,-35.1828130,149.0979530,townhouse,4,3,2,"$570,000",https://www.auhouseprices.com/sold/view/ACT/341959488/16+Paisley+Street%2C+Nicholls+ACT/
254,2913,Nicholls,54,https://www.auhouseprices.com/sold/list/ACT/2913/Nicholls/,9/77 Freda Bennett Circuit ,-35.1810720,149.1049990,townhouse,3,2,1,"$450,000",https://www.auhouseprices.com/sold/view/ACT/341405488/9-77+Freda+Bennett+Circuit%2C+Nicholls+ACT/
255,2913,Nicholls,54,https://www.auhouseprices.com/sold/list/ACT/2913/Nicholls/,15/49 Freda Bennett Circuit ,-35.1800630,149.1076650,townhouse,3,1,2,"$423,500",https://www.auhouseprices.com/sold/view/ACT/341823388/15-49+Freda+Bennett+Circuit%2C+Nicholls+ACT/
256,2913,Nicholls,54,https://www.auhouseprices.com/sold/list/ACT/2913/Nicholls/,4/49 Dooland Court ,-35.1818530,149.1088170,townhouse,2,1,2,"$415,000",https://www.auhouseprices.com/sold/view/ACT/341299288/4-49+Dooland+Court%2C+Nicholls+ACT/
257,2913,Nicholls,54,https://www.auhouseprices.com/sold/list/ACT/2913/Nicholls/,6 Platypus Place ,-35.1932560,149.1085000,house,4,2,2,"$900,000",https://www.auhouseprices.com/sold/view/ACT/341354288/6+Platypus+Place%2C+Nicholls+ACT/
258,2913,Nicholls,54,https://www.auhouseprices.com/sold/list/ACT/2913/Nicholls/,2 Gordon Close ,-35.1797700,149.0914500,house,3,2,2,"$614,000",https://www.auhouseprices.com/sold/view/ACT/341969088/2+Gordon+Close%2C+Nicholls+ACT/
259,2913,Nicholls,54,https://www.auhouseprices.com/sold/list/ACT/2913/Nicholls/,24 Arthaldo Court ,-35.1835720,149.1056620,house,4,3,2,"$1,000,000",https://www.auhouseprices.com/sold/view/ACT/341497088/24+Arthaldo+Court%2C+Nicholls+ACT/
260,2913,Nicholls,54,https://www.auhouseprices.com/sold/list/ACT/2913/Nicholls/,9 Lukey Place ,-35.1853350,149.1037650,house,4,2,2,"$770,000",https://www.auhouseprices.com/sold/view/ACT/341046088/9+Lukey+Place%2C+Nicholls+ACT/
261,2913,Nicholls,54,https://www.auhouseprices.com/sold/list/ACT/2913/Nicholls/,57 Rosella Street ,-35.1877670,149.1154600,house,4,2,2,,https://www.auhouseprices.com/sold/view/ACT/341324088/57+Rosella+Street%2C+Nicholls+ACT/
262,2913,Nicholls,54,https://www.auhouseprices.com/sold/list/ACT/2913/Nicholls/,1 Biddell Place ,-35.1833920,149.1041410,house,3,2,2,"$540,000",https://www.auhouseprices.com/sold/view/ACT/341792088/1+Biddell+Place%2C+Nicholls+ACT/
263,2913,Nicholls,54,https://www.auhouseprices.com/sold/list/ACT/2913/Nicholls/,14/27 Temperley Street ,-35.1847520,149.0940060,townhouse,3,1,2,"$590,000",https://www.auhouseprices.com/sold/view/ACT/341562888/14-27+Temperley+Street%2C+Nicholls+ACT/
264,2913,Nicholls,54,https://www.auhouseprices.com/sold/list/ACT/2913/Nicholls/,22 Kangaroo Close ,-35.1957830,149.1051330,house,4,2,2,"$691,000",https://www.auhouseprices.com/sold/view/ACT/341835069/22+Kangaroo+Close%2C+Nicholls+ACT/
265,2913,Nicholls,54,https://www.auhouseprices.com/sold/list/ACT/2913/Nicholls/,26 Freda Bennett Circuit ,-35.1799550,149.1053550,house,4,2,0,"$700,000",https://www.auhouseprices.com/sold/view/ACT/341731688/26+Freda+Bennett+Circuit%2C+Nicholls+ACT/
266,2913,Nicholls,54,https://www.auhouseprices.com/sold/list/ACT/2913/Nicholls/,15 Rumbelow Court ,-35.1782230,149.0862340,house,4,3,3,"$980,500",https://www.auhouseprices.com/sold/view/ACT/341444588/15+Rumbelow+Court%2C+Nicholls+ACT/
267,2913,Nicholls,54,https://www.auhouseprices.com/sold/list/ACT/2913/Nicholls/,13/23 Temperley Street ,-35.1833910,149.0925930,house,4,2,2,"$765,000",https://www.auhouseprices.com/sold/view/ACT/341067478/13-23+Temperley+Street%2C+Nicholls+ACT/
268,2913,Nicholls,54,https://www.auhouseprices.com/sold/list/ACT/2913/Nicholls/,155 Temperley Street ,-35.1908630,149.0991430,house,5,3,2,"$1,311,100",https://www.auhouseprices.com/sold/view/ACT/341190378/155+Temperley+Street%2C+Nicholls+ACT/
269,2913,Nicholls,54,https://www.auhouseprices.com/sold/list/ACT/2913/Nicholls/,8 Charlick Place ,-35.1866140,149.1029990,house,4,2,2,"$760,000",https://www.auhouseprices.com/sold/view/ACT/341166378/8+Charlick+Place%2C+Nicholls+ACT/
270,2913,Nicholls,54,https://www.auhouseprices.com/sold/list/ACT/2913/Nicholls/,3 Lukey Place ,-35.1858540,149.1037790,house,6,3,2,"$740,000",https://www.auhouseprices.com/sold/view/ACT/341274378/3+Lukey+Place%2C+Nicholls+ACT/
271,2913,Nicholls,54,https://www.auhouseprices.com/sold/list/ACT/2913/Nicholls/,47 Sue Geh Circuit ,-35.1915640,149.0903890,house,5,3,3,,https://www.auhouseprices.com/sold/view/ACT/341432378/47+Sue+Geh+Circuit%2C+Nicholls+ACT/
272,2913,Nicholls,54,https://www.auhouseprices.com/sold/list/ACT/2913/Nicholls/,5 Dooland Court ,-35.1815000,149.1052100,house,4,2,2,"$710,000",https://www.auhouseprices.com/sold/view/ACT/341790278/5+Dooland+Court%2C+Nicholls+ACT/
273,2913,Nicholls,54,https://www.auhouseprices.com/sold/list/ACT/2913/Nicholls/,18 Viner Place ,-35.1863980,149.0957510,house,4,3,2,"$1,475,000",https://www.auhouseprices.com/sold/view/ACT/341013278/18+Viner+Place%2C+Nicholls+ACT/
274,2913,Nicholls,54,https://www.auhouseprices.com/sold/list/ACT/2913/Nicholls/,4 Northam Street ,-35.1841760,149.1081880,house,4,2,3,"$886,000",https://www.auhouseprices.com/sold/view/ACT/341461378/4+Northam+Street%2C+Nicholls+ACT/
275,2913,Nicholls,54,https://www.auhouseprices.com/sold/list/ACT/2913/Nicholls/,65 Tazewell Circuit ,-35.1857320,149.1033910,house,3,2,2,"$620,000",https://www.auhouseprices.com/sold/view/ACT/341694069/65+Tazewell+Circuit%2C+Nicholls+ACT/
276,2913,Nicholls,54,https://www.auhouseprices.com/sold/list/ACT/2913/Nicholls/,5 Decima Circuit ,-35.1816860,149.0980300,house,4,2,2,"$715,000",https://www.auhouseprices.com/sold/view/ACT/341807178/5+Decima+Circuit%2C+Nicholls+ACT/
277,2913,Nicholls,54,https://www.auhouseprices.com/sold/list/ACT/2913/Nicholls/,40 Westbury Circuit ,-35.1846040,149.1070140,house,4,2,2,"$770,000",https://www.auhouseprices.com/sold/view/ACT/341045178/40+Westbury+Circuit%2C+Nicholls+ACT/
278,2913,Nicholls,54,https://www.auhouseprices.com/sold/list/ACT/2913/Nicholls/,28 Krantzcke Circuit ,-35.1889190,149.0994880,house,4,2,2,"$840,000",https://www.auhouseprices.com/sold/view/ACT/341805978/28+Krantzcke+Circuit%2C+Nicholls+ACT/
279,2913,Nicholls,54,https://www.auhouseprices.com/sold/list/ACT/2913/Nicholls/,162 Temperley Street ,-35.1908070,149.1005890,house,4,3,2,"$775,000",https://www.auhouseprices.com/sold/view/ACT/341304978/162+Temperley+Street%2C+Nicholls+ACT/
280,2913,Nicholls,54,https://www.auhouseprices.com/sold/list/ACT/2913/Nicholls/,34 Freda Bennett Circuit ,-35.1795150,149.1062300,house,4,2,1,"$650,000",https://www.auhouseprices.com/sold/view/ACT/341122978/34+Freda+Bennett+Circuit%2C+Nicholls+ACT/
281,2913,Nicholls,54,https://www.auhouseprices.com/sold/list/ACT/2913/Nicholls/,3 Wendy Ey Place ,-35.1914840,149.0982090,house,4,2,2,"$867,500",https://www.auhouseprices.com/sold/view/ACT/341377878/3+Wendy+Ey+Place%2C+Nicholls+ACT/
282,2913,Nicholls,54,https://www.auhouseprices.com/sold/list/ACT/2913/Nicholls/,2 Dooland Court ,-35.1822540,149.1052450,house,4,2,3,"$732,000",https://www.auhouseprices.com/sold/view/ACT/341037778/2+Dooland+Court%2C+Nicholls+ACT/
283,2913,Nicholls,54,https://www.auhouseprices.com/sold/list/ACT/2913/Nicholls/,7 Platypus Place ,-35.1936890,149.1083120,house,4,2,2,"$670,500",https://www.auhouseprices.com/sold/view/ACT/341423778/7+Platypus+Place%2C+Nicholls+ACT/
284,2913,Nicholls,54,https://www.auhouseprices.com/sold/list/ACT/2913/Nicholls/,14 Kangaroo Close ,-35.1956600,149.1057900,house,4,2,2,"$645,000",https://www.auhouseprices.com/sold/view/ACT/341177678/14+Kangaroo+Close%2C+Nicholls+ACT/
285,2913,Nicholls,54,https://www.auhouseprices.com/sold/list/ACT/2913/Nicholls/,4 Hattersley ,-35.1885210,149.1048500,house,4,2,2,"$812,500",https://www.auhouseprices.com/sold/view/ACT/341393678/4+Hattersley%2C+Nicholls+ACT/
286,2913,Nicholls,54,https://www.auhouseprices.com/sold/list/ACT/2913/Nicholls/,12 Midwinter Place ,-35.1882360,149.0925300,house,5,2,3,,https://www.auhouseprices.com/sold/view/ACT/341587468/12+Midwinter+Place%2C+Nicholls+ACT/
287,2913,Nicholls,54,https://www.auhouseprices.com/sold/list/ACT/2913/Nicholls/,2/51 Freda Bennett Circuit ,-35.1801070,149.1072470,villa,3,1,1,"$415,000",https://www.auhouseprices.com/sold/view/ACT/341844578/2-51+Freda+Bennett+Circuit%2C+Nicholls+ACT/
288,2913,Nicholls,54,https://www.auhouseprices.com/sold/list/ACT/2913/Nicholls/,24 Paisley Street ,-35.1826450,149.0984130,townhouse,3,2,2,"$485,000",https://www.auhouseprices.com/sold/view/ACT/341974088/24+Paisley+Street%2C+Nicholls+ACT/
289,2913,Nicholls,54,https://www.auhouseprices.com/sold/list/ACT/2913/Nicholls/,4/7 Seaborn Place ,-35.1804250,149.0928260,townhouse,3,2,2,"$570,000",https://www.auhouseprices.com/sold/view/ACT/341334069/4-7+Seaborn+Place%2C+Nicholls+ACT/
290,2913,Nicholls,54,https://www.auhouseprices.com/sold/list/ACT/2913/Nicholls/,39 Dooland Court ,-35.1811370,149.1083470,house,3,1,1,"$430,000",https://www.auhouseprices.com/sold/view/ACT/341636268/39+Dooland+Court%2C+Nicholls+ACT/
291,2913,Nicholls,54,https://www.auhouseprices.com/sold/list/ACT/2913/Nicholls/,5/4 Biddell Place ,-35.1828280,149.1039520,house,3,1,1,"$385,000",https://www.auhouseprices.com/sold/view/ACT/341483268/5-4+Biddell+Place%2C+Nicholls+ACT/
292,2913,Nicholls,54,https://www.auhouseprices.com/sold/list/ACT/2913/Nicholls/,19 Cottam Place ,-35.1829270,149.1066850,house,5,2,2,"$750,000",https://www.auhouseprices.com/sold/view/ACT/341641268/19+Cottam+Place%2C+Nicholls+ACT/
293,2913,Nicholls,54,https://www.auhouseprices.com/sold/list/ACT/2913/Nicholls/,10 Gordon Close ,-35.1789160,149.0918140,house,5,2,2,"$787,000",https://www.auhouseprices.com/sold/view/ACT/341023168/10+Gordon+Close%2C+Nicholls+ACT/
294,2913,Nicholls,54,https://www.auhouseprices.com/sold/list/ACT/2913/Nicholls/,3 Stedman Place ,-35.1865570,149.0934140,house,5,2,2,"$1,025,000",https://www.auhouseprices.com/sold/view/ACT/341524168/3+Stedman+Place%2C+Nicholls+ACT/
295,2913,Nicholls,54,https://www.auhouseprices.com/sold/list/ACT/2913/Nicholls/,9 Hendry Close ,-35.1882890,149.0906380,house,5,3,2,"$1,210,000",https://www.auhouseprices.com/sold/view/ACT/341386068/9+Hendry+Close%2C+Nicholls+ACT/
296,2913,Nicholls,54,https://www.auhouseprices.com/sold/list/ACT/2913/Nicholls/,66 Kellaway Avenue ,-35.1834480,149.0985040,townhouse,3,2,2,"$492,000",https://www.auhouseprices.com/sold/view/ACT/341362068/66+Kellaway+Avenue%2C+Nicholls+ACT/
297,2913,Nicholls,54,https://www.auhouseprices.com/sold/list/ACT/2913/Nicholls/,9/16 Monaghan Place ,-35.1841610,149.1025360,townhouse,3,2,2,"$489,000",https://www.auhouseprices.com/sold/view/ACT/341031068/9-16+Monaghan+Place%2C+Nicholls+ACT/
298,2913,Nicholls,54,https://www.auhouseprices.com/sold/list/ACT/2913/Nicholls/,3 Rumbelow Court ,-35.1793860,149.0867300,house,5,2,2,"$900,000",https://www.auhouseprices.com/sold/view/ACT/341964868/3+Rumbelow+Court%2C+Nicholls+ACT/
299,2913,Nicholls,54,https://www.auhouseprices.com/sold/list/ACT/2913/Nicholls/,10 Blacklock Close ,-35.1855350,149.1053920,house,4,2,2,"$743,000",https://www.auhouseprices.com/sold/view/ACT/341885868/10+Blacklock+Close%2C+Nicholls+ACT/
300,2913,Nicholls,54,https://www.auhouseprices.com/sold/list/ACT/2913/Nicholls/,7 Candlebark Close ,-35.1947750,149.1076800,house,3,2,2,"$622,000",https://www.auhouseprices.com/sold/view/ACT/341864768/7+Candlebark+Close%2C+Nicholls+ACT/
301,2913,Nicholls,54,https://www.auhouseprices.com/sold/list/ACT/2913/Nicholls/,16/80 Kelleway Avenue ,-35.1833280,149.0979080,townhouse,3,2,2,"$495,000",https://www.auhouseprices.com/sold/view/ACT/341902768/16-80+Kelleway+Avenue%2C+Nicholls+ACT/
302,2913,Nicholls,54,https://www.auhouseprices.com/sold/list/ACT/2913/Nicholls/,3 Berwick Place ,-35.1818850,149.0887530,house,6,3,2,"$1,128,000",https://www.auhouseprices.com/sold/view/ACT/341779568/3+Berwick+Place%2C+Nicholls+ACT/
303,2913,Nicholls,54,https://www.auhouseprices.com/sold/list/ACT/2913/Nicholls/,8 Kleinig Street ,-35.1847800,149.0834400,house,5,4,2,"$1,380,000",https://www.auhouseprices.com/sold/view/ACT/341494568/8+Kleinig+Street%2C+Nicholls+ACT/
304,2913,Nicholls,54,https://www.auhouseprices.com/sold/list/ACT/2913/Nicholls/,3 Tubman Place ,-35.1831110,149.1016890,house,4,2,2,"$770,000",https://www.auhouseprices.com/sold/view/ACT/341331868/3+Tubman+Place%2C+Nicholls+ACT/
305,2913,Nicholls,54,https://www.auhouseprices.com/sold/list/ACT/2913/Nicholls/,4 Viner Place ,-35.1880510,149.0954530,house,4,2,3,"$1,320,000",https://www.auhouseprices.com/sold/view/ACT/341472968/4+Viner+Place%2C+Nicholls+ACT/
306,2913,Nicholls,54,https://www.auhouseprices.com/sold/list/ACT/2913/Nicholls/,19 Lindwall Place ,-35.1899150,149.1043400,house,5,3,0,"$1,145,000",https://www.auhouseprices.com/sold/view/ACT/341958458/19+Lindwall+Place%2C+Nicholls+ACT/
307,2913,Nicholls,54,https://www.auhouseprices.com/sold/list/ACT/2913/Nicholls/,7 Hatch Place ,-35.1807270,149.0845720,house,5,3,2,"$1,200,000",https://www.auhouseprices.com/sold/view/ACT/341469458/7+Hatch+Place%2C+Nicholls+ACT/
308,2913,Nicholls,54,https://www.auhouseprices.com/sold/list/ACT/2913/Nicholls/,4 Dooland Court ,-35.1824650,149.1052700,house,4,2,2,"$700,000",https://www.auhouseprices.com/sold/view/ACT/341298258/4+Dooland+Court%2C+Nicholls+ACT/
309,2913,Nicholls,54,https://www.auhouseprices.com/sold/list/ACT/2913/Nicholls/,1/29 Anne Clark Avenue ,-35.1822600,149.1039560,townhouse,3,2,2,"$490,000",https://www.auhouseprices.com/sold/view/ACT/341916258/1-29++Anne+Clark+Avenue%2C+Nicholls+ACT/
310,2913,Nicholls,54,https://www.auhouseprices.com/sold/list/ACT/2913/Nicholls/,2/23 Temperley Street ,-35.1833910,149.0925920,townhouse,3,2,2,,https://www.auhouseprices.com/sold/view/ACT/341221258/2-23+Temperley+Street%2C+Nicholls+ACT/
311,2913,Nicholls,54,https://www.auhouseprices.com/sold/list/ACT/2913/Nicholls/,7/21 Krantzcke Circuit ,-35.1887720,149.0983700,house,4,2,2,,https://www.auhouseprices.com/sold/view/ACT/341708158/7-21+Krantzcke+Circuit%2C+Nicholls+ACT/
312,2913,Nicholls,54,https://www.auhouseprices.com/sold/list/ACT/2913/Nicholls/,18/45-51 Freda Bennett Circuit ,-35.1801070,149.1072470,townhouse,3,1,2,"$415,000",https://www.auhouseprices.com/sold/view/ACT/341743358/18-45-51+Freda+Bennett+Circuit%2C+Nicholls+ACT/
313,2913,Nicholls,54,https://www.auhouseprices.com/sold/list/ACT/2913/Nicholls/,6 Minter Place ,-35.1802600,149.0857080,house,5,3,3,"$1,100,000",https://www.auhouseprices.com/sold/view/ACT/341502158/6+Minter+Place%2C+Nicholls+ACT/
314,2913,Nicholls,54,https://www.auhouseprices.com/sold/list/ACT/2913/Nicholls/,26 Anne Clark Avenue ,-35.1825060,149.1048650,house,4,2,2,"$595,000",https://www.auhouseprices.com/sold/view/ACT/341194058/26+Anne+Clark+Avenue%2C+Nicholls+ACT/
315,2913,Nicholls,54,https://www.auhouseprices.com/sold/list/ACT/2913/Nicholls/,27 Mcritchie Circuit ,-35.1892640,149.0946140,house,5,3,2,"$1,250,000",https://www.auhouseprices.com/sold/view/ACT/341015069/27+Mcritchie+Circuit%2C+Nicholls+ACT/
316,2913,Nicholls,54,https://www.auhouseprices.com/sold/list/ACT/2913/Nicholls/,17/21 Temperley Street ,-35.1839990,149.0921510,townhouse,3,2,2,"$590,000",https://www.auhouseprices.com/sold/view/ACT/341661958/17-21+Temperley+Street%2C+Nicholls+ACT/
317,2913,Nicholls,54,https://www.auhouseprices.com/sold/list/ACT/2913/Nicholls/,28 Arthaldo Court ,-35.1837490,149.1052540,house,4,2,2,,https://www.auhouseprices.com/sold/view/ACT/341210958/28+Arthaldo+Court%2C+Nicholls+ACT/
318,2913,Nicholls,54,https://www.auhouseprices.com/sold/list/ACT/2913/Nicholls/,27 Kelleway Avenue ,-35.1807780,149.1019880,house,4,2,2,"$718,500",https://www.auhouseprices.com/sold/view/ACT/341711958/27+Kelleway+Avenue%2C+Nicholls+ACT/
319,2913,Nicholls,54,https://www.auhouseprices.com/sold/list/ACT/2913/Nicholls/,6 Cockatoo Close ,-35.1911260,149.1111820,house,4,2,2,"$630,000",https://www.auhouseprices.com/sold/view/ACT/341802958/6+Cockatoo+Close%2C+Nicholls+ACT/
320,2913,Nicholls,54,https://www.auhouseprices.com/sold/list/ACT/2913/Nicholls/,3/27 Temperley Street ,-35.1847520,149.0940060,townhouse,3,2,2,"$558,500",https://www.auhouseprices.com/sold/view/ACT/341164069/3-27+Temperley+Street%2C+Nicholls+ACT/
321,2913,Nicholls,54,https://www.auhouseprices.com/sold/list/ACT/2913/Nicholls/,22 Whatmore Court ,-35.1822030,149.1017210,house,4,2,2,,https://www.auhouseprices.com/sold/view/ACT/341889558/22+Whatmore+Court%2C+Nicholls+ACT/
322,2913,Nicholls,54,https://www.auhouseprices.com/sold/list/ACT/2913/Nicholls/,60 Sue Geh Circuit ,-35.1893040,149.0904700,house,5,2,3,"$1,190,000",https://www.auhouseprices.com/sold/view/ACT/341558558/60+Sue+Geh+Circuit%2C+Nicholls+ACT/
323,2913,Nicholls,54,https://www.auhouseprices.com/sold/list/ACT/2913/Nicholls/,2/35 Edie Payne Close ,-35.1949730,149.0910900,townhouse,3,2,2,"$765,000",https://www.auhouseprices.com/sold/view/ACT/341864069/2-35+Edie+Payne+Close%2C+Nicholls+ACT/
324,2913,Nicholls,54,https://www.auhouseprices.com/sold/list/ACT/2913/Nicholls/,13 Ibis Street ,-35.1904360,149.1112630,house,4,2,2,,https://www.auhouseprices.com/sold/view/ACT/341715069/13+Ibis+Street%2C+Nicholls+ACT/
325,2913,Nicholls,54,https://www.auhouseprices.com/sold/list/ACT/2913/Nicholls/,17 Kleinig Street ,-35.1844970,149.0828800,house,5,3,4,"$1,210,000",https://www.auhouseprices.com/sold/view/ACT/341260448/17+Kleinig+Street%2C+Nicholls+ACT/
326,2913,Nicholls,54,https://www.auhouseprices.com/sold/list/ACT/2913/Nicholls/,2 Pellew Street ,-35.1896290,149.0922260,house,5,3,4,"$1,520,000",https://www.auhouseprices.com/sold/view/ACT/341810248/2+Pellew+Street%2C+Nicholls+ACT/
327,2913,Nicholls,54,https://www.auhouseprices.com/sold/list/ACT/2913/Nicholls/,39 McClelland Avenue ,-35.1819510,149.0855290,house,4,3,3,"$786,000",https://www.auhouseprices.com/sold/view/ACT/341270048/39+McClelland+Avenue%2C+Nicholls+ACT/
328,2913,Nicholls,54,https://www.auhouseprices.com/sold/list/ACT/2913/Nicholls/,17 Whiteside Court ,-35.1855000,149.0974400,house,4,2,2,"$945,000",https://www.auhouseprices.com/sold/view/ACT/341114048/17+Whiteside+Court%2C+Nicholls+ACT/
329,2913,Nicholls,54,https://www.auhouseprices.com/sold/list/ACT/2913/Nicholls/,16 Hattersley Court ,-35.1892150,149.1051530,house,6,3,2,,https://www.auhouseprices.com/sold/view/ACT/341239848/16+Hattersley+Court%2C+Nicholls+ACT/
330,2913,Nicholls,54,https://www.auhouseprices.com/sold/list/ACT/2913/Nicholls/,12/49 Freda Bennett Circuit ,-35.1800630,149.1076650,townhouse,3,1,1,,https://www.auhouseprices.com/sold/view/ACT/341932848/12-49+Freda+Bennett+Circuit%2C+Nicholls+ACT/
331,2913,Nicholls,54,https://www.auhouseprices.com/sold/list/ACT/2913/Nicholls/,19/27 Temperley Street ,-35.1847520,149.0940060,townhouse,3,2,2,,https://www.auhouseprices.com/sold/view/ACT/341050848/19-27++Temperley+Street%2C+Nicholls+ACT/
332,2913,Nicholls,54,https://www.auhouseprices.com/sold/list/ACT/2913/Nicholls/,8 Wendy Ey Place ,-35.1910620,149.0982110,house,5,3,2,,https://www.auhouseprices.com/sold/view/ACT/341988748/8+Wendy+Ey+Place%2C+Nicholls+ACT/
333,2913,Nicholls,54,https://www.auhouseprices.com/sold/list/ACT/2913/Nicholls/,11 Dooland Court ,-35.1812160,149.1058110,house,4,2,2,"$600,000",https://www.auhouseprices.com/sold/view/ACT/341657748/11+Dooland+Court%2C+Nicholls+ACT/
334,2913,Nicholls,54,https://www.auhouseprices.com/sold/list/ACT/2913/Nicholls/,2 Acacia Place ,-35.1960590,149.1055960,house,3,2,2,"$520,000",https://www.auhouseprices.com/sold/view/ACT/341446748/2+Acacia+Place%2C+Nicholls+ACT/
335,2913,Nicholls,54,https://www.auhouseprices.com/sold/list/ACT/2913/Nicholls/,4/149 Kelleway Avenue ,-35.1793650,149.0920540,house,3,2,2,,https://www.auhouseprices.com/sold/view/ACT/341012748/4-149+Kelleway+Avenue%2C+Nicholls+ACT/
336,2913,Nicholls,54,https://www.auhouseprices.com/sold/list/ACT/2913/Nicholls/,14/21 Krantzcke Circuit ,-35.1887720,149.0983700,house,3,2,2,,https://www.auhouseprices.com/sold/view/ACT/341770748/14-21+Krantzcke+Circuit%2C+Nicholls+ACT/
337,2913,Nicholls,54,https://www.auhouseprices.com/sold/list/ACT/2913/Nicholls/,46 McClelland Avenue ,-35.1815660,149.0876210,house,5,3,2,,https://www.auhouseprices.com/sold/view/ACT/341619648/46+McClelland+Avenue%2C+Nicholls+ACT/
338,2913,Nicholls,54,https://www.auhouseprices.com/sold/list/ACT/2913/Nicholls/,2 McRitchie Circuit ,-35.1899500,149.0950540,house,5,2,2,"$1,195,000",https://www.auhouseprices.com/sold/view/ACT/341879548/2+McRitchie+Circuit%2C+Nicholls+ACT/
339,2913,Nicholls,54,https://www.auhouseprices.com/sold/list/ACT/2913/Nicholls/,94 Lexcen Avenue ,-35.1851450,149.0992320,house,5,2,2,"$735,000",https://www.auhouseprices.com/sold/view/ACT/341349548/94+Lexcen+Avenue%2C+Nicholls+ACT/
340,2913,Nicholls,54,https://www.auhouseprices.com/sold/list/ACT/2913/Nicholls/,11 Bilby Place ,-35.1935790,149.1099520,house,3,2,2,,https://www.auhouseprices.com/sold/view/ACT/341006548/11+Bilby+Place%2C+Nicholls+ACT/
341,2913,Nicholls,54,https://www.auhouseprices.com/sold/list/ACT/2913/Nicholls/,2 Tubman Place ,-35.1834280,149.1012470,house,5,2,2,,https://www.auhouseprices.com/sold/view/ACT/341047548/2+Tubman+Place%2C+Nicholls+ACT/
342,2913,Nicholls,54,https://www.auhouseprices.com/sold/list/ACT/2913/Nicholls/,19 Sutcliffe Street ,-35.1906400,149.0917500,house,5,2,2,"$900,500",https://www.auhouseprices.com/sold/view/ACT/341723548/19+Sutcliffe+Street%2C+Nicholls+ACT/
343,2913,Nicholls,54,https://www.auhouseprices.com/sold/list/ACT/2913/Nicholls/,39 Kelleway Avenue ,-35.1816960,149.1010150,house,4,2,2,"$739,000",https://www.auhouseprices.com/sold/view/ACT/341073438/39+Kelleway+Avenue%2C+Nicholls+ACT/
344,2913,Nicholls,54,https://www.auhouseprices.com/sold/list/ACT/2913/Nicholls/,8 Minter Place ,-35.1801750,149.0854680,house,5,4,3,,https://www.auhouseprices.com/sold/view/ACT/341917338/8+Minter+Place%2C+Nicholls+ACT/
345,2913,Nicholls,54,https://www.auhouseprices.com/sold/list/ACT/2913/Nicholls/,89 McClelland Avenue ,-35.1803400,149.0907900,house,3,2,2,"$720,000",https://www.auhouseprices.com/sold/view/ACT/341234338/89+McClelland+Avenue%2C+Nicholls+ACT/
346,2913,Nicholls,54,https://www.auhouseprices.com/sold/list/ACT/2913/Nicholls/,20 Arthaldo Court ,-35.1834010,149.1060680,house,5,3,2,"$840,000",https://www.auhouseprices.com/sold/view/ACT/341541338/20+Arthaldo+Court%2C+Nicholls+ACT/
347,2913,Nicholls,54,https://www.auhouseprices.com/sold/list/ACT/2913/Nicholls/,3/67 Freda Bennett Circuit ,-35.1807660,149.1056320,townhouse,3,2,1,"$419,500",https://www.auhouseprices.com/sold/view/ACT/341639548/3-67+Freda+Bennett+Circuit%2C+Nicholls+ACT/
348,2913,Nicholls,54,https://www.auhouseprices.com/sold/list/ACT/2913/Nicholls/,15 Ibis Street ,-35.1904580,149.1111120,house,3,2,2,,https://www.auhouseprices.com/sold/view/ACT/341298138/15+Ibis+Street%2C+Nicholls+ACT/
349,2913,Nicholls,54,https://www.auhouseprices.com/sold/list/ACT/2913/Nicholls/,19 Whatmore Court ,-35.1815110,149.1036140,house,4,2,2,,https://www.auhouseprices.com/sold/view/ACT/341597238/19+Whatmore+Court%2C+Nicholls+ACT/
350,2913,Nicholls,54,https://www.auhouseprices.com/sold/list/ACT/2913/Nicholls/,20 Candlebark Close ,-35.1946580,149.1090680,house,3,2,2,"$550,000",https://www.auhouseprices.com/sold/view/ACT/341984069/20+Candlebark+Close%2C+Nicholls+ACT/
351,2913,Nicholls,54,https://www.auhouseprices.com/sold/list/ACT/2913/Nicholls/,57 Temperley Street ,-35.1873230,149.0929830,house,5,3,2,,https://www.auhouseprices.com/sold/view/ACT/341591938/57+Temperley+Street%2C+Nicholls+ACT/
352,2913,Nicholls,54,https://www.auhouseprices.com/sold/list/ACT/2913/Nicholls/,8 Waine Place ,-35.1788560,149.0906420,house,5,2,2,"$883,000",https://www.auhouseprices.com/sold/view/ACT/341006838/8+Waine+Place%2C+Nicholls+ACT/
353,2913,Nicholls,54,https://www.auhouseprices.com/sold/list/ACT/2913/Nicholls/,111 Kelleway Avenue ,-35.1816700,149.0954900,house,4,2,2,"$745,000",https://www.auhouseprices.com/sold/view/ACT/341040838/111+Kelleway+Avenue%2C+Nicholls+ACT/
354,2913,Nicholls,54,https://www.auhouseprices.com/sold/list/ACT/2913/Nicholls/,5/87 Kelleway Avenue ,-35.1835190,149.0968780,house,3,2,2,,https://www.auhouseprices.com/sold/view/ACT/341814838/5-87+Kelleway+Avenue%2C+Nicholls+ACT/
355,2913,Nicholls,54,https://www.auhouseprices.com/sold/list/ACT/2913/Nicholls/,2/21 Temperley Street ,-35.1839990,149.0921510,house,3,2,2,,https://www.auhouseprices.com/sold/view/ACT/341852938/2-21+Temperley+Street%2C+Nicholls+ACT/
356,2913,Nicholls,54,https://www.auhouseprices.com/sold/list/ACT/2913/Nicholls/,41 Dooland Court ,-35.1812630,149.1084490,house,3,1,0,,https://www.auhouseprices.com/sold/view/ACT/341043738/41+Dooland+Court%2C+Nicholls+ACT/
357,2913,Nicholls,54,https://www.auhouseprices.com/sold/list/ACT/2913/Nicholls/,15 Hendry Close ,-35.1876340,149.0905300,house,5,5,2,"$1,800,000",https://www.auhouseprices.com/sold/view/ACT/341242738/15+Hendry+Close%2C+Nicholls+ACT/
358,2913,Nicholls,54,https://www.auhouseprices.com/sold/list/ACT/2913/Nicholls/,29/27 Temperley Street ,-35.1847520,149.0940060,townhouse,4,2,2,,https://www.auhouseprices.com/sold/view/ACT/341611738/29-27+Temperley+Street%2C+Nicholls+ACT/
359,2913,Nicholls,54,https://www.auhouseprices.com/sold/list/ACT/2913/Nicholls/,61 Dobbin Circuit ,-35.1841770,149.0909060,house,4,2,2,"$770,000",https://www.auhouseprices.com/sold/view/ACT/341432638/61+Dobbin+Circuit%2C+Nicholls+ACT/
360,2913,Nicholls,54,https://www.auhouseprices.com/sold/list/ACT/2913/Nicholls/,70 Krantzcke Circuit ,-35.1878360,149.0978100,house,4,2,2,"$715,000",https://www.auhouseprices.com/sold/view/ACT/341828538/70+Krantzcke+Circuit%2C+Nicholls+ACT/
361,2913,Nicholls,54,https://www.auhouseprices.com/sold/list/ACT/2913/Nicholls/,16/49 Freda Bennett Circuit ,-35.1800630,149.1076650,townhouse,3,1,1,,https://www.auhouseprices.com/sold/view/ACT/341121538/16-49+Freda+Bennett+Circuit%2C+Nicholls+ACT/
362,2913,Nicholls,54,https://www.auhouseprices.com/sold/list/ACT/2913/Nicholls/,35 McClelland Avenue ,-35.1821390,149.0851000,house,4,2,2,"$680,000",https://www.auhouseprices.com/sold/view/ACT/341837527/35++McClelland+Avenue%2C+Nicholls+ACT/
363,2913,Nicholls,54,https://www.auhouseprices.com/sold/list/ACT/2913/Nicholls/,19 Hattersley Court ,-35.1868250,149.1058720,house,4,2,2,"$751,000",https://www.auhouseprices.com/sold/view/ACT/341049427/19+Hattersley+Court%2C+Nicholls+ACT/
364,2913,Nicholls,54,https://www.auhouseprices.com/sold/list/ACT/2913/Nicholls/,9/16 Monaghan Place ,-35.1841610,149.1025360,townhouse,3,2,2,"$458,000",https://www.auhouseprices.com/sold/view/ACT/341406427/9-16+Monaghan+Place%2C+Nicholls+ACT/
365,2913,Nicholls,54,https://www.auhouseprices.com/sold/list/ACT/2913/Nicholls/,136 Temperley Street ,-35.1926160,149.0985600,house,4,2,3,"$1,330,000",https://www.auhouseprices.com/sold/view/ACT/341965427/136+Temperley+Street%2C+Nicholls+ACT/
366,2913,Nicholls,54,https://www.auhouseprices.com/sold/list/ACT/2913/Nicholls/,4/107 Lexcen Avenue ,-35.1840000,149.0986030,townhouse,3,2,2,"$452,500",https://www.auhouseprices.com/sold/view/ACT/341924427/4-107+Lexcen+Avenue%2C+Nicholls+ACT/
367,2913,Nicholls,54,https://www.auhouseprices.com/sold/list/ACT/2913/Nicholls/,81 Sue Geh Circuit ,-35.1888390,149.0905110,house,4,2,2,"$921,000",https://www.auhouseprices.com/sold/view/ACT/341450327/81+Sue+Geh+Circuit%2C+Nicholls+ACT/
368,2913,Nicholls,54,https://www.auhouseprices.com/sold/list/ACT/2913/Nicholls/,3/4 Biddell Place ,-35.1828280,149.1039520,townhouse,3,1,1,"$380,000",https://www.auhouseprices.com/sold/view/ACT/341411427/3-4+Biddell+Place%2C+Nicholls+ACT/
369,2913,Nicholls,54,https://www.auhouseprices.com/sold/list/ACT/2913/Nicholls/,13 Donnan Street ,-35.1816020,149.0852620,house,4,2,2,"$775,000",https://www.auhouseprices.com/sold/view/ACT/341939327/13+Donnan+Street%2C+Nicholls+ACT/
370,2913,Nicholls,54,https://www.auhouseprices.com/sold/list/ACT/2913/Nicholls/,5 Monfries Place ,-35.1819100,149.1028310,house,4,2,2,"$679,000",https://www.auhouseprices.com/sold/view/ACT/341499227/5+Monfries+Place%2C+Nicholls+ACT/
371,2913,Nicholls,54,https://www.auhouseprices.com/sold/list/ACT/2913/Nicholls/,8 Rosella Street ,-35.1896000,149.1127500,house,3,2,2,"$540,000",https://www.auhouseprices.com/sold/view/ACT/341710127/8+Rosella+Street%2C+Nicholls+ACT/
372,2913,Nicholls,54,https://www.auhouseprices.com/sold/list/ACT/2913/Nicholls/,18 Lindwall Place ,-35.1905370,149.1043230,house,4,3,3,"$1,240,000",https://www.auhouseprices.com/sold/view/ACT/341041227/18+Lindwall+Place%2C+Nicholls+ACT/
373,2913,Nicholls,54,https://www.auhouseprices.com/sold/list/ACT/2913/Nicholls/,40 Temperley Street ,-35.1861250,149.0925710,house,5,2,2,"$975,000",https://www.auhouseprices.com/sold/view/ACT/341209127/40+Temperley+Street%2C+Nicholls+ACT/
374,2913,Nicholls,54,https://www.auhouseprices.com/sold/list/ACT/2913/Nicholls/,30 Freda Bennett Circuit ,-35.1797870,149.1058220,house,4,2,2,"$697,500",https://www.auhouseprices.com/sold/view/ACT/341384227/30+Freda+Bennett+Circuit%2C+Nicholls+ACT/
375,2913,Nicholls,54,https://www.auhouseprices.com/sold/list/ACT/2913/Nicholls/,16 Kangaroo Close ,-35.1956710,149.1056010,house,4,2,2,"$642,500",https://www.auhouseprices.com/sold/view/ACT/341305069/16+Kangaroo+Close%2C+Nicholls+ACT/
376,2913,Nicholls,54,https://www.auhouseprices.com/sold/list/ACT/2913/Nicholls/,29 Rosella Street ,-35.1883220,149.1136390,house,4,2,2,"$651,000",https://www.auhouseprices.com/sold/view/ACT/341387127/29+Rosella+Street%2C+Nicholls+ACT/
377,2913,Nicholls,54,https://www.auhouseprices.com/sold/list/ACT/2913/Nicholls/,36 Westbury Circuit ,-35.1848050,149.1065930,house,4,2,2,,https://www.auhouseprices.com/sold/view/ACT/341176127/36+Westbury+Circuit%2C+Nicholls+ACT/
378,2913,Nicholls,54,https://www.auhouseprices.com/sold/list/ACT/2913/Nicholls/,3 Schow Place ,-35.1933240,149.0975530,house,4,2,2,"$850,000",https://www.auhouseprices.com/sold/view/ACT/341827727/3+Schow+Place%2C+Nicholls+ACT/
379,2913,Nicholls,54,https://www.auhouseprices.com/sold/list/ACT/2913/Nicholls/,5 Waine Place ,-35.1790200,149.0901200,house,4,2,2,"$700,000",https://www.auhouseprices.com/sold/view/ACT/341164627/5+Waine+Place%2C+Nicholls+ACT/
380,2913,Nicholls,54,https://www.auhouseprices.com/sold/list/ACT/2913/Nicholls/,11 Ibis Street ,-35.1904140,149.1114200,house,3,2,2,"$537,000",https://www.auhouseprices.com/sold/view/ACT/341840627/11+Ibis+Street%2C+Nicholls+ACT/
381,2913,Nicholls,54,https://www.auhouseprices.com/sold/list/ACT/2913/Nicholls/,5 Gorman Crescent ,-35.1881500,149.1065000,house,4,2,2,"$1,151,000",https://www.auhouseprices.com/sold/view/ACT/341748517/5+Gorman+Crescent%2C+Nicholls+ACT/
382,2913,Nicholls,54,https://www.auhouseprices.com/sold/list/ACT/2913/Nicholls/,1 Nagel Place ,-35.1892700,149.0941600,house,5,2,2,,https://www.auhouseprices.com/sold/view/ACT/341988517/1+Nagel+Place%2C+Nicholls+ACT/
383,2913,Nicholls,54,https://www.auhouseprices.com/sold/list/ACT/2913/Nicholls/,5 Midwinter Place ,-35.1879430,149.0916300,house,5,3,2,"$1,255,000",https://www.auhouseprices.com/sold/view/ACT/341168517/5+Midwinter+Place%2C+Nicholls+ACT/
384,2913,Nicholls,54,https://www.auhouseprices.com/sold/list/ACT/2913/Nicholls/,55 Sue Geh Circuit ,-35.1911280,149.0900700,house,5,4,4,"$2,010,000",https://www.auhouseprices.com/sold/view/ACT/341372517/55+Sue+Geh+Circuit%2C+Nicholls+ACT/
385,2913,Nicholls,54,https://www.auhouseprices.com/sold/list/ACT/2913/Nicholls/,3 Rosella Street ,-35.1895940,149.1121500,house,3,2,2,"$638,000",https://www.auhouseprices.com/sold/view/ACT/341437417/3+Rosella+Street%2C+Nicholls+ACT/
386,2913,Nicholls,54,https://www.auhouseprices.com/sold/list/ACT/2913/Nicholls/,44 Krantzcke Circuit ,-35.1884080,149.0991400,house,4,2,2,"$655,000",https://www.auhouseprices.com/sold/view/ACT/341428317/44+Krantzcke+Circuit%2C+Nicholls+ACT/
387,2913,Nicholls,54,https://www.auhouseprices.com/sold/list/ACT/2913/Nicholls/,24 Krantzcke Circuit ,-35.1891100,149.0992300,house,3,2,2,"$791,000",https://www.auhouseprices.com/sold/view/ACT/341489217/24+Krantzcke+Circuit%2C+Nicholls+ACT/
388,2913,Nicholls,54,https://www.auhouseprices.com/sold/list/ACT/2913/Nicholls/,6 Dive Place ,-35.1911100,149.0973800,house,5,2,2,"$941,000",https://www.auhouseprices.com/sold/view/ACT/341834217/6+Dive+Place%2C+Nicholls+ACT/
389,2913,Nicholls,54,https://www.auhouseprices.com/sold/list/ACT/2913/Nicholls/,9 Edge Place ,-35.1818800,149.1076400,house,4,2,2,"$790,000",https://www.auhouseprices.com/sold/view/ACT/341034117/9+Edge+Place%2C+Nicholls+ACT/
390,2913,Nicholls,54,https://www.auhouseprices.com/sold/list/ACT/2913/Nicholls/,8 Westbury Circuit ,-35.1853520,149.1093000,house,4,2,2,"$740,000",https://www.auhouseprices.com/sold/view/ACT/341813117/8+Westbury+Circuit%2C+Nicholls+ACT/
391,2913,Nicholls,54,https://www.auhouseprices.com/sold/list/ACT/2913/Nicholls/,39 Kangaroo Close ,-35.1969600,149.1041100,house,3,2,2,"$517,500",https://www.auhouseprices.com/sold/view/ACT/341564117/39+Kangaroo+Close%2C+Nicholls+ACT/
392,2913,Nicholls,54,https://www.auhouseprices.com/sold/list/ACT/2913/Nicholls/,10 McAuliffe Court ,-35.1881180,149.1019100,house,5,3,2,"$820,000",https://www.auhouseprices.com/sold/view/ACT/341449917/10+McAuliffe+Court%2C+Nicholls+ACT/
393,2913,Nicholls,54,https://www.auhouseprices.com/sold/list/ACT/2913/Nicholls/,9 Freda Bennett Circuit ,-35.1806680,149.1043100,house,3,1,1,"$370,000",https://www.auhouseprices.com/sold/view/ACT/341926917/9+Freda+Bennett+Circuit%2C+Nicholls+ACT/
394,2913,Nicholls,54,https://www.auhouseprices.com/sold/list/ACT/2913/Nicholls/,6 Ebeling Court ,-35.1853370,149.0994700,house,5,2,2,"$730,000",https://www.auhouseprices.com/sold/view/ACT/341600917/6+Ebeling+Court%2C+Nicholls+ACT/
395,2913,Nicholls,54,https://www.auhouseprices.com/sold/list/ACT/2913/Nicholls/,7 Krantzcke Circuit ,-35.1889760,149.0978700,house,4,2,2,"$587,500",https://www.auhouseprices.com/sold/view/ACT/341989017/7+Krantzcke+Circuit%2C+Nicholls+ACT/
396,2913,Nicholls,54,https://www.auhouseprices.com/sold/list/ACT/2913/Nicholls/,19 Hendry Close ,-35.1871760,149.0907000,house,7,4,2,"$1,500,000",https://www.auhouseprices.com/sold/view/ACT/341187717/19+Hendry+Close%2C+Nicholls+ACT/
397,2913,Nicholls,54,https://www.auhouseprices.com/sold/list/ACT/2913/Nicholls/,11 Dobbin Cct ,-35.1863060,149.0920000,house,4,2,4,"$915,000",https://www.auhouseprices.com/sold/view/ACT/341096717/11+Dobbin+Cct%2C+Nicholls+ACT/
398,2913,Nicholls,54,https://www.auhouseprices.com/sold/list/ACT/2913/Nicholls/,38 Candlebark Close ,-35.1932700,149.1092000,house,5,3,2,"$767,500",https://www.auhouseprices.com/sold/view/ACT/341520717/38+Candlebark+Close%2C+Nicholls+ACT/
399,2913,Nicholls,54,https://www.auhouseprices.com/sold/list/ACT/2913/Nicholls/,12 Candlebark Close ,-35.1950040,149.1085700,house,4,2,2,"$649,999",https://www.auhouseprices.com/sold/view/ACT/341286617/12+Candlebark+Close%2C+Nicholls+ACT/
400,2913,Nicholls,54,https://www.auhouseprices.com/sold/list/ACT/2913/Nicholls/,3 Weetman Close ,-35.1842300,149.1040600,house,4,2,2,"$535,000",https://www.auhouseprices.com/sold/view/ACT/341532717/3+Weetman+Close%2C+Nicholls+ACT/
401,2913,Nicholls,54,https://www.auhouseprices.com/sold/list/ACT/2913/Nicholls/,16 Cottam Place ,-35.1826800,149.1061400,house,4,2,2,"$694,000",https://www.auhouseprices.com/sold/view/ACT/341684617/16+Cottam+Place%2C+Nicholls+ACT/
402,2913,Nicholls,54,https://www.auhouseprices.com/sold/list/ACT/2913/Nicholls/,102 Lexcen Avenue ,-35.1843700,149.0994100,house,4,2,2,"$756,000",https://www.auhouseprices.com/sold/view/ACT/341672617/102+Lexcen+Avenue%2C+Nicholls+ACT/
403,2913,Nicholls,54,https://www.auhouseprices.com/sold/list/ACT/2913/Nicholls/,86 Lexcen Avenue ,-35.1858100,149.0995800,house,4,2,2,"$720,000",https://www.auhouseprices.com/sold/view/ACT/341801617/86+Lexcen+Avenue%2C+Nicholls+ACT/
404,2913,Nicholls,54,https://www.auhouseprices.com/sold/list/ACT/2913/Nicholls/,Unit 4/16 Weetman Place ,-35.1852000,149.1043700,townhouse,3,1,1,"$340,000",https://www.auhouseprices.com/sold/view/ACT/341597507/Unit+4-16+Weetman+Place%2C+Nicholls+ACT/
405,2913,Nicholls,54,https://www.auhouseprices.com/sold/list/ACT/2913/Nicholls/,7/21 Krantzcke Circuit ,-35.1887700,149.0983700,townhouse,4,2,2,"$562,500",https://www.auhouseprices.com/sold/view/ACT/341801407/7-21+Krantzcke+Circuit%2C+Nicholls+ACT/
406,2913,Nicholls,54,https://www.auhouseprices.com/sold/list/ACT/2913/Nicholls/,45 Kelleway Avenue ,-35.1822200,149.1007100,house,4,2,2,"$770,000",https://www.auhouseprices.com/sold/view/ACT/341207307/45+Kelleway+Avenue%2C+Nicholls+ACT/
407,2913,Nicholls,54,https://www.auhouseprices.com/sold/list/ACT/2913/Nicholls/,21/21 Temperley Street ,-35.1840000,149.0921500,house,3,2,2,"$518,000",https://www.auhouseprices.com/sold/view/ACT/341071307/21-21+Temperley+Street%2C+Nicholls+ACT/
408,2913,Nicholls,54,https://www.auhouseprices.com/sold/list/ACT/2913/Nicholls/,4 Mcritchie Circuit ,-35.1899640,149.0948000,house,6,2,3,"$1,165,000",https://www.auhouseprices.com/sold/view/ACT/341502307/4+Mcritchie+Circuit%2C+Nicholls+ACT/
409,2913,Nicholls,54,https://www.auhouseprices.com/sold/list/ACT/2913/Nicholls/,1/17 Freda Bennett Circuit ,-35.1801300,149.1034900,townhouse,3,2,2,"$429,000",https://www.auhouseprices.com/sold/view/ACT/341208507/1-17+Freda+Bennett+Circuit%2C+Nicholls+ACT/
410,2913,Nicholls,54,https://www.auhouseprices.com/sold/list/ACT/2913/Nicholls/,17 Clemenger Street ,-35.1798360,149.0872800,house,5,2,2,"$800,000",https://www.auhouseprices.com/sold/view/ACT/341302107/17+Clemenger+Street%2C+Nicholls+ACT/
411,2913,Nicholls,54,https://www.auhouseprices.com/sold/list/ACT/2913/Nicholls/,79 Lexcen Avenue ,-35.1867900,149.0997600,house,5,2,3,"$835,000",https://www.auhouseprices.com/sold/view/ACT/341080007/79+Lexcen+Avenue%2C+Nicholls+ACT/
412,2913,Nicholls,54,https://www.auhouseprices.com/sold/list/ACT/2913/Nicholls/,7 Minter Place ,-35.1806830,149.0853900,house,4,2,2,"$675,000",https://www.auhouseprices.com/sold/view/ACT/341068007/7+Minter+Place%2C+Nicholls+ACT/
413,2913,Nicholls,54,https://www.auhouseprices.com/sold/list/ACT/2913/Nicholls/,2/17 Freda Bennett Circuit ,-35.1801300,149.1034900,townhouse,3,2,2,"$416,000",https://www.auhouseprices.com/sold/view/ACT/341852007/2-17+Freda+Bennett+Circuit%2C+Nicholls+ACT/
414,2913,Nicholls,54,https://www.auhouseprices.com/sold/list/ACT/2913/Nicholls/,17 Sutcliffe Street ,-35.1908720,149.0916400,house,5,3,3,"$1,300,000",https://www.auhouseprices.com/sold/view/ACT/341348907/17+Sutcliffe+Street%2C+Nicholls+ACT/
415,2913,Nicholls,54,https://www.auhouseprices.com/sold/list/ACT/2913/Nicholls/,3/16 Monaghan Place ,-35.1841620,149.1025400,townhouse,3,2,2,"$440,000",https://www.auhouseprices.com/sold/view/ACT/341943007/3-16+Monaghan+Place%2C+Nicholls+ACT/
416,2913,Nicholls,54,https://www.auhouseprices.com/sold/list/ACT/2913/Nicholls/,8 Ayers Fowler Street ,-35.1840800,149.0855700,house,5,2,2,"$777,500",https://www.auhouseprices.com/sold/view/ACT/341692807/8+Ayers+Fowler+Street%2C+Nicholls+ACT/
417,2913,Nicholls,54,https://www.auhouseprices.com/sold/list/ACT/2913/Nicholls/,3 Monfries Place ,-35.1818660,149.1025400,house,4,1,2,"$726,500",https://www.auhouseprices.com/sold/view/ACT/341200007/3+Monfries+Place%2C+Nicholls+ACT/
418,2913,Nicholls,54,https://www.auhouseprices.com/sold/list/ACT/2913/Nicholls/,2 Lindwall Place ,-35.1906620,149.1024600,house,4,3,2,"$850,000",https://www.auhouseprices.com/sold/view/ACT/341918607/2+Lindwall+Place%2C+Nicholls+ACT/
419,2913,Nicholls,54,https://www.auhouseprices.com/sold/list/ACT/2913/Nicholls/,14 Blacklock Close ,-35.1859050,149.1053500,house,7,3,2,"$850,000",https://www.auhouseprices.com/sold/view/ACT/341554607/14+Blacklock+Close%2C+Nicholls+ACT/
420,2913,Nicholls,54,https://www.auhouseprices.com/sold/list/ACT/2913/Nicholls/,11 Seaborn Place ,-35.1809500,149.0926000,house,4,2,2,"$665,000",https://www.auhouseprices.com/sold/view/ACT/341669607/11+Seaborn+Place%2C+Nicholls+ACT/
