,Postcode,Suburb Name,Recent Sales,Suburb Link,Street Address,Latitude,Longitude,Property Type,Beds,Baths,Cars,Sold Price,Property Link
0,2906,Banks,81,https://www.auhouseprices.com/sold/list/ACT/2906/Banks/,49 Paperbark Street ,-35.4709116,149.1039936,house,4,2,2,"$860,000",https://www.auhouseprices.com/sold/view/ACT/341831470/49+Paperbark+Street%2C+Banks+ACT/
1,2906,Banks,81,https://www.auhouseprices.com/sold/list/ACT/2906/Banks/,14/6 Kettlewell Crescent ,-35.4687897,149.1063050,townhouse,3,2,2,"$575,000",https://www.auhouseprices.com/sold/view/ACT/341887370/14-6+Kettlewell+Crescent%2C+Banks+ACT/
2,2906,Banks,81,https://www.auhouseprices.com/sold/list/ACT/2906/Banks/,35 Galbraith Street ,-35.4743979,149.1036106,house,4,2,2,,https://www.auhouseprices.com/sold/view/ACT/341679270/35+Galbraith+Street%2C+Banks+ACT/
3,2906,Banks,81,https://www.auhouseprices.com/sold/list/ACT/2906/Banks/,10 White Place ,-35.4731760,149.0940464,house,3,1,2,"$640,000",https://www.auhouseprices.com/sold/view/ACT/341500170/10+White+Place%2C+Banks+ACT/
4,2906,Banks,81,https://www.auhouseprices.com/sold/list/ACT/2906/Banks/,2/51 Bellchambers Crescent ,-35.4776709,149.0974113,house,3,1,1,,https://www.auhouseprices.com/sold/view/ACT/341040070/2-51+Bellchambers+Crescent%2C+Banks+ACT/
5,2906,Banks,81,https://www.auhouseprices.com/sold/list/ACT/2906/Banks/,16 House Circuit ,-35.4675157,149.0929520,house,3,1,2,"$563,000",https://www.auhouseprices.com/sold/view/ACT/341999970/16+House+Circuit%2C+Banks+ACT/
6,2906,Banks,81,https://www.auhouseprices.com/sold/list/ACT/2906/Banks/,3 Alison Ashby Crescent ,-35.4743736,149.1024198,house,4,3,2,,https://www.auhouseprices.com/sold/view/ACT/341620970/3+Alison+Ashby+Crescent%2C+Banks+ACT/
7,2906,Banks,81,https://www.auhouseprices.com/sold/list/ACT/2906/Banks/,57 Forsythe Street ,-35.4765820,149.1003614,house,4,2,2,"$870,000",https://www.auhouseprices.com/sold/view/ACT/341729770/57+Forsythe+Street%2C+Banks+ACT/
8,2906,Banks,81,https://www.auhouseprices.com/sold/list/ACT/2906/Banks/,7 Fern Place ,-35.4695055,149.0967282,house,3,1,1,,https://www.auhouseprices.com/sold/view/ACT/341482870/7+Fern+Place%2C+Banks+ACT/
9,2906,Banks,81,https://www.auhouseprices.com/sold/list/ACT/2906/Banks/,5 Brittlebank Circuit ,-35.4677586,149.1028316,house,4,2,2,"$685,000",https://www.auhouseprices.com/sold/view/ACT/341546360/5+Brittlebank+Circuit%2C+Banks+ACT/
10,2906,Banks,81,https://www.auhouseprices.com/sold/list/ACT/2906/Banks/,30 Thomas Hart Street ,-35.4663451,149.0975497,house,3,1,3,"$572,000",https://www.auhouseprices.com/sold/view/ACT/341721360/30+Thomas+Hart+Street%2C+Banks+ACT/
11,2906,Banks,81,https://www.auhouseprices.com/sold/list/ACT/2906/Banks/,23 McLuckie Crescent ,-35.4673004,149.0985993,house,3,1,2,"$575,000",https://www.auhouseprices.com/sold/view/ACT/341712260/23+McLuckie+Crescent%2C+Banks+ACT/
12,2906,Banks,81,https://www.auhouseprices.com/sold/list/ACT/2906/Banks/,5 Moore Place ,-35.4742268,149.0994626,house,3,2,2,"$670,000",https://www.auhouseprices.com/sold/view/ACT/341281260/5+Moore+Place%2C+Banks+ACT/
13,2906,Banks,81,https://www.auhouseprices.com/sold/list/ACT/2906/Banks/,1 Carter Place ,-35.4732078,149.1007350,house,3,1,2,,https://www.auhouseprices.com/sold/view/ACT/341785160/1+Carter+Place%2C+Banks+ACT/
14,2906,Banks,81,https://www.auhouseprices.com/sold/list/ACT/2906/Banks/,17a Troughton Street ,-35.4709231,149.1005107,house,3,1,1,"$455,000",https://www.auhouseprices.com/sold/view/ACT/341806160/17a+Troughton+Street%2C+Banks+ACT/
15,2906,Banks,81,https://www.auhouseprices.com/sold/list/ACT/2906/Banks/,33 Wittunga Crescent ,-35.4791027,149.1010772,house,4,2,3,"$815,000",https://www.auhouseprices.com/sold/view/ACT/341744160/33+Wittunga+Crescent%2C+Banks+ACT/
16,2906,Banks,81,https://www.auhouseprices.com/sold/list/ACT/2906/Banks/,42 Smeaton Circuit ,-35.4757363,149.0995005,house,3,1,2,"$530,000",https://www.auhouseprices.com/sold/view/ACT/341742960/42+Smeaton+Circuit%2C+Banks+ACT/
17,2906,Banks,81,https://www.auhouseprices.com/sold/list/ACT/2906/Banks/,26 Galbraith Close ,-35.4737494,149.1030648,house,5,3,2,"$1,187,500",https://www.auhouseprices.com/sold/view/ACT/341165860/26+Galbraith+Close%2C+Banks+ACT/
18,2906,Banks,81,https://www.auhouseprices.com/sold/list/ACT/2906/Banks/,13 Betty Maloney Crescent ,-35.4713971,149.0937027,house,4,2,2,"$665,124",https://www.auhouseprices.com/sold/view/ACT/341865860/13+Betty+Maloney+Crescent%2C+Banks+ACT/
19,2906,Banks,81,https://www.auhouseprices.com/sold/list/ACT/2906/Banks/,11 Abercrombie Circuit ,-35.4652219,149.0931900,house,3,2,2,"$550,000",https://www.auhouseprices.com/sold/view/ACT/341782760/11+Abercrombie+Circuit%2C+Banks+ACT/
20,2906,Banks,81,https://www.auhouseprices.com/sold/list/ACT/2906/Banks/,20 Perrin Circuit ,-35.4668604,149.0969460,house,3,1,1,,https://www.auhouseprices.com/sold/view/ACT/341586660/20+Perrin+Circuit%2C+Banks+ACT/
21,2906,Banks,81,https://www.auhouseprices.com/sold/list/ACT/2906/Banks/,6 Bartels Place ,-35.4737244,149.0951737,house,3,1,1,"$510,000",https://www.auhouseprices.com/sold/view/ACT/341152660/6+Bartels+Place%2C+Banks+ACT/
22,2906,Banks,81,https://www.auhouseprices.com/sold/list/ACT/2906/Banks/,5/48 Betty Maloney Crescent ,-35.4708246,149.0954451,townhouse,3,2,2,"$525,000",https://www.auhouseprices.com/sold/view/ACT/341231450/5-48+Betty+Maloney+Crescent%2C+Banks+ACT/
23,2906,Banks,81,https://www.auhouseprices.com/sold/list/ACT/2906/Banks/,20 Mattingley Court ,-35.4759010,149.0970155,house,4,2,2,,https://www.auhouseprices.com/sold/view/ACT/341214450/20+Mattingley+Court%2C+Banks+ACT/
24,2906,Banks,81,https://www.auhouseprices.com/sold/list/ACT/2906/Banks/,3 Bick Place ,-35.4684675,149.0947287,house,5,1,1,"$650,000",https://www.auhouseprices.com/sold/view/ACT/341167350/3+Bick+Place%2C+Banks+ACT/
25,2906,Banks,81,https://www.auhouseprices.com/sold/list/ACT/2906/Banks/,56 Abercrombie Circuit ,-35.4657630,149.0926531,house,3,1,2,"$535,000",https://www.auhouseprices.com/sold/view/ACT/341201250/56+Abercrombie+Circuit%2C+Banks+ACT/
26,2906,Banks,81,https://www.auhouseprices.com/sold/list/ACT/2906/Banks/,15 Tregellas Crescent ,-35.4690311,149.0944568,house,4,2,3,"$665,000",https://www.auhouseprices.com/sold/view/ACT/341564150/15+Tregellas+Crescent%2C+Banks+ACT/
27,2906,Banks,81,https://www.auhouseprices.com/sold/list/ACT/2906/Banks/,29 Alison Ashby Crescent ,-35.4766182,149.1029411,house,3,2,2,"$780,000",https://www.auhouseprices.com/sold/view/ACT/341535150/29+Alison+Ashby+Crescent%2C+Banks+ACT/
28,2906,Banks,81,https://www.auhouseprices.com/sold/list/ACT/2906/Banks/,8/35 Brockway Circuit ,-35.4717306,149.0951828,townhouse,4,2,2,"$610,000",https://www.auhouseprices.com/sold/view/ACT/341743250/8-35+Brockway+Circuit%2C+Banks+ACT/
29,2906,Banks,81,https://www.auhouseprices.com/sold/list/ACT/2906/Banks/,6 Bick Place ,-35.4687143,149.0950547,house,3,2,3,"$655,000",https://www.auhouseprices.com/sold/view/ACT/341708050/6+Bick+Place%2C+Banks+ACT/
30,2906,Banks,81,https://www.auhouseprices.com/sold/list/ACT/2906/Banks/,8 Stead Place ,-35.4730282,149.0994424,house,4,2,2,"$770,000",https://www.auhouseprices.com/sold/view/ACT/341248050/8+Stead+Place%2C+Banks+ACT/
31,2906,Banks,81,https://www.auhouseprices.com/sold/list/ACT/2906/Banks/,11 Orange Thorn Crescent ,-35.4702158,149.1077002,house,4,2,2,,https://www.auhouseprices.com/sold/view/ACT/341572050/11+Orange+Thorn+Crescent%2C+Banks+ACT/
32,2906,Banks,81,https://www.auhouseprices.com/sold/list/ACT/2906/Banks/,14 Olive Pink Crescent ,-35.4773759,149.1008449,house,4,2,2,"$845,000",https://www.auhouseprices.com/sold/view/ACT/341862050/14+Olive+Pink+Crescent%2C+Banks+ACT/
33,2906,Banks,81,https://www.auhouseprices.com/sold/list/ACT/2906/Banks/,6/27 Paperbark Street ,-35.4695339,149.1051164,townhouse,3,2,2,"$585,000",https://www.auhouseprices.com/sold/view/ACT/341468650/6-27+Paperbark+Street%2C+Banks+ACT/
34,2906,Banks,81,https://www.auhouseprices.com/sold/list/ACT/2906/Banks/,5/27 Paperbark Street ,-35.4695339,149.1051164,townhouse,3,2,2,"$530,000",https://www.auhouseprices.com/sold/view/ACT/341717650/5-27+Paperbark+Street%2C+Banks+ACT/
35,2906,Banks,81,https://www.auhouseprices.com/sold/list/ACT/2906/Banks/,1/35 Bellchambers Crescent ,-35.4761654,149.0963789,house,3,1,0,"$490,000",https://www.auhouseprices.com/sold/view/ACT/341552650/1-35+Bellchambers+Crescent%2C+Banks+ACT/
36,2906,Banks,81,https://www.auhouseprices.com/sold/list/ACT/2906/Banks/,24 Forsythe Street ,-35.4750107,149.0968932,house,5,2,2,"$780,000",https://www.auhouseprices.com/sold/view/ACT/341092650/24+Forsythe+Street%2C+Banks+ACT/
37,2906,Banks,81,https://www.auhouseprices.com/sold/list/ACT/2906/Banks/,14 Notting Court ,-35.4734437,149.0962794,house,3,1,1,"$532,000",https://www.auhouseprices.com/sold/view/ACT/341579550/14+Notting+Court%2C+Banks+ACT/
38,2906,Banks,81,https://www.auhouseprices.com/sold/list/ACT/2906/Banks/,2/48 Betty Maloney Crescent ,-35.4708246,149.0954451,townhouse,3,2,2,"$515,500",https://www.auhouseprices.com/sold/view/ACT/341191550/2-48+Betty+Maloney+Crescent%2C+Banks+ACT/
39,2906,Banks,81,https://www.auhouseprices.com/sold/list/ACT/2906/Banks/,14 Alison Ashby Crescent ,-35.4753111,149.1029401,house,5,3,2,"$872,650",https://www.auhouseprices.com/sold/view/ACT/341397340/14+Alison+Ashby+Crescent%2C+Banks+ACT/
40,2906,Banks,81,https://www.auhouseprices.com/sold/list/ACT/2906/Banks/,14 Alison Ashby Crescent ,-35.4753111,149.1029401,house,5,3,2,"$872,650",https://www.auhouseprices.com/sold/view/ACT/341015160/14+Alison+Ashby+Crescent%2C+Banks+ACT/
41,2906,Banks,81,https://www.auhouseprices.com/sold/list/ACT/2906/Banks/,8 Luckman Place ,-35.4729463,149.0932580,house,3,1,1,"$539,000",https://www.auhouseprices.com/sold/view/ACT/341153240/8+Luckman+Place%2C+Banks+ACT/
42,2906,Banks,81,https://www.auhouseprices.com/sold/list/ACT/2906/Banks/,32 Tregellas Crescent ,-35.4694249,149.0951393,house,3,1,2,"$540,000",https://www.auhouseprices.com/sold/view/ACT/341633140/32+Tregellas+Crescent%2C+Banks+ACT/
43,2906,Banks,81,https://www.auhouseprices.com/sold/list/ACT/2906/Banks/,1/55 Bellchambers Crescent ,-35.4776159,149.0979812,other,3,1,2,"$445,000",https://www.auhouseprices.com/sold/view/ACT/341780040/1-55+Bellchambers+Crescent%2C+Banks+ACT/
44,2906,Banks,81,https://www.auhouseprices.com/sold/list/ACT/2906/Banks/,23 House Circuit ,-35.4675789,149.0919068,house,3,1,1,"$520,000",https://www.auhouseprices.com/sold/view/ACT/341979040/23+House+Circuit%2C+Banks+ACT/
45,2906,Banks,81,https://www.auhouseprices.com/sold/list/ACT/2906/Banks/,35 Mcluckie Crescent ,-35.4673173,149.0997016,house,3,1,2,"$590,000",https://www.auhouseprices.com/sold/view/ACT/341749550/35+Mcluckie+Crescent%2C+Banks+ACT/
46,2906,Banks,81,https://www.auhouseprices.com/sold/list/ACT/2906/Banks/,9 Luckman Place ,-35.4731507,149.0934286,house,3,1,2,"$560,000",https://www.auhouseprices.com/sold/view/ACT/341878940/9+Luckman+Place%2C+Banks+ACT/
47,2906,Banks,81,https://www.auhouseprices.com/sold/list/ACT/2906/Banks/,9/30 Betty Maloney Crescent ,-35.4704634,149.0945700,townhouse,3,2,2,"$535,000",https://www.auhouseprices.com/sold/view/ACT/341518940/9-30+Betty+Maloney+Crescent%2C+Banks+ACT/
48,2906,Banks,81,https://www.auhouseprices.com/sold/list/ACT/2906/Banks/,59 Forsythe Street ,-35.4763878,149.1006429,house,5,2,2,"$885,000",https://www.auhouseprices.com/sold/view/ACT/341420940/59+Forsythe+Street%2C+Banks+ACT/
49,2906,Banks,81,https://www.auhouseprices.com/sold/list/ACT/2906/Banks/,130 Pockett Avenue ,-35.4738543,149.0934028,house,3,1,1,"$510,250",https://www.auhouseprices.com/sold/view/ACT/341730840/130+Pockett+Avenue%2C+Banks+ACT/
50,2906,Banks,81,https://www.auhouseprices.com/sold/list/ACT/2906/Banks/,7 Forsythe Street ,-35.4743781,149.0949041,house,3,1,2,"$523,000",https://www.auhouseprices.com/sold/view/ACT/341637740/7+Forsythe+Street%2C+Banks+ACT/
51,2906,Banks,81,https://www.auhouseprices.com/sold/list/ACT/2906/Banks/,9/4-10 Wilson Crescent ,-35.4715432,149.0978324,townhouse,3,1,2,"$415,000",https://www.auhouseprices.com/sold/view/ACT/341255540/9-4-10+Wilson+Crescent%2C+Banks+ACT/
52,2906,Banks,81,https://www.auhouseprices.com/sold/list/ACT/2906/Banks/,23 Thomas Hart Street ,-35.4656373,149.0962641,house,3,1,2,"$488,000",https://www.auhouseprices.com/sold/view/ACT/341223529/23+Thomas+Hart+Street%2C+Banks+ACT/
53,2906,Banks,81,https://www.auhouseprices.com/sold/list/ACT/2906/Banks/,4 Peron Place ,-35.4759083,149.0934781,residential land,3,1,2,"$350,000",https://www.auhouseprices.com/sold/view/ACT/341152429/4+Peron+Place%2C+Banks+ACT/
54,2906,Banks,81,https://www.auhouseprices.com/sold/list/ACT/2906/Banks/,10 Kettlewell Crescent ,-35.4690813,149.1071085,house,4,2,2,"$735,000",https://www.auhouseprices.com/sold/view/ACT/341536329/10+Kettlewell+Crescent%2C+Banks+ACT/
55,2906,Banks,81,https://www.auhouseprices.com/sold/list/ACT/2906/Banks/,28 Wilson Crescent ,-35.4722063,149.0999800,house,3,1,2,,https://www.auhouseprices.com/sold/view/ACT/341357229/28+Wilson+Crescent%2C+Banks+ACT/
56,2906,Banks,81,https://www.auhouseprices.com/sold/list/ACT/2906/Banks/,9/35 Brockway Circuit ,-35.4717306,149.0951828,house,4,2,2,"$523,000",https://www.auhouseprices.com/sold/view/ACT/341565329/9-35+Brockway+Circuit%2C+Banks+ACT/
57,2906,Banks,81,https://www.auhouseprices.com/sold/list/ACT/2906/Banks/,47b Wilson Crescent ,-35.4729975,149.1012931,house,3,1,2,,https://www.auhouseprices.com/sold/view/ACT/341334540/47b+Wilson+Crescent%2C+Banks+ACT/
58,2906,Banks,81,https://www.auhouseprices.com/sold/list/ACT/2906/Banks/,31 Perrin Circuit ,-35.4671028,149.0975253,house,3,2,2,"$535,000",https://www.auhouseprices.com/sold/view/ACT/341315029/31+Perrin+Circuit%2C+Banks+ACT/
59,2906,Banks,81,https://www.auhouseprices.com/sold/list/ACT/2906/Banks/,2 Reader Court ,-35.4722708,149.0927005,house,3,1,1,"$463,000",https://www.auhouseprices.com/sold/view/ACT/341783029/2+Reader+Court%2C+Banks+ACT/
60,2906,Banks,81,https://www.auhouseprices.com/sold/list/ACT/2906/Banks/,6 Crespin Place ,-35.4797043,149.1012141,house,5,3,3,"$820,000",https://www.auhouseprices.com/sold/view/ACT/341665929/6+Crespin+Place%2C+Banks+ACT/
61,2906,Banks,81,https://www.auhouseprices.com/sold/list/ACT/2906/Banks/,78 Bellchambers Cresent ,-35.4765151,149.0985082,house,3,2,2,"$654,500",https://www.auhouseprices.com/sold/view/ACT/341214929/78+Bellchambers+Cresent%2C+Banks+ACT/
62,2906,Banks,81,https://www.auhouseprices.com/sold/list/ACT/2906/Banks/,13 Chalker Circuit ,-35.4751163,149.0934025,house,3,1,2,"$470,000",https://www.auhouseprices.com/sold/view/ACT/341670929/13+Chalker+Circuit%2C+Banks+ACT/
63,2906,Banks,81,https://www.auhouseprices.com/sold/list/ACT/2906/Banks/,124 Pockett Avenue ,-35.4737828,149.0938858,house,3,1,2,"$465,000",https://www.auhouseprices.com/sold/view/ACT/341152929/124+Pockett+Avenue%2C+Banks+ACT/
64,2906,Banks,81,https://www.auhouseprices.com/sold/list/ACT/2906/Banks/,13 Mattingley Court ,-35.4770653,149.0974535,house,4,2,2,"$665,000",https://www.auhouseprices.com/sold/view/ACT/341661829/13+Mattingley+Court%2C+Banks+ACT/
65,2906,Banks,81,https://www.auhouseprices.com/sold/list/ACT/2906/Banks/,7 Carter Place ,-35.4736746,149.1001094,house,4,1,2,"$650,000",https://www.auhouseprices.com/sold/view/ACT/341108629/7+Carter+Place%2C+Banks+ACT/
66,2906,Banks,81,https://www.auhouseprices.com/sold/list/ACT/2906/Banks/,19 Smeaton Circuit ,-35.4738354,149.0970831,house,3,2,2,"$610,000",https://www.auhouseprices.com/sold/view/ACT/341801629/19+Smeaton+Circuit%2C+Banks+ACT/
67,2906,Banks,81,https://www.auhouseprices.com/sold/list/ACT/2906/Banks/,3/3 Peron Place ,-35.4756168,149.0940976,house,3,1,2,"$427,500",https://www.auhouseprices.com/sold/view/ACT/341822519/3-3+Peron+Place%2C+Banks+ACT/
68,2906,Banks,81,https://www.auhouseprices.com/sold/list/ACT/2906/Banks/,50 Olive Pink Crescent ,-35.4772747,149.0999276,house,4,2,2,"$706,000",https://www.auhouseprices.com/sold/view/ACT/341031519/50+Olive+Pink+Crescent%2C+Banks+ACT/
69,2906,Banks,81,https://www.auhouseprices.com/sold/list/ACT/2906/Banks/,16 Olive Pink Circuit ,-35.4775227,149.1006944,house,4,2,2,"$776,000",https://www.auhouseprices.com/sold/view/ACT/341465729/16+Olive+Pink+Circuit%2C+Banks+ACT/
70,2906,Banks,81,https://www.auhouseprices.com/sold/list/ACT/2906/Banks/,45 Paperbark Street ,-35.4706362,149.1042730,house,6,3,3,"$780,000",https://www.auhouseprices.com/sold/view/ACT/341447319/45+Paperbark+Street%2C+Banks+ACT/
71,2906,Banks,81,https://www.auhouseprices.com/sold/list/ACT/2906/Banks/,40 Mcluckie Crescent ,-35.4675990,149.0995893,house,3,1,2,"$490,000",https://www.auhouseprices.com/sold/view/ACT/341909019/40+Mcluckie+Crescent%2C+Banks+ACT/
72,2906,Banks,81,https://www.auhouseprices.com/sold/list/ACT/2906/Banks/,6 Notting Court ,-35.4728425,149.0966385,house,3,1,2,"$487,000",https://www.auhouseprices.com/sold/view/ACT/341380319/6+Notting+Court%2C+Banks+ACT/
73,2906,Banks,81,https://www.auhouseprices.com/sold/list/ACT/2906/Banks/,58 Bellchambers Crescent ,-35.4779631,149.0976642,house,4,2,4,"$675,000",https://www.auhouseprices.com/sold/view/ACT/341128819/58+Bellchambers+Crescent%2C+Banks+ACT/
74,2906,Banks,81,https://www.auhouseprices.com/sold/list/ACT/2906/Banks/,9/41 Wiburd Street ,-35.4682880,149.1002590,townhouse,3,1,4,,https://www.auhouseprices.com/sold/view/ACT/341300919/9-41+Wiburd+Street%2C+Banks+ACT/
75,2906,Banks,81,https://www.auhouseprices.com/sold/list/ACT/2906/Banks/,4/94 Pocket Avenue ,-35.4719589,149.0957839,house,3,2,2,,https://www.auhouseprices.com/sold/view/ACT/341980219/4-94+Pocket+Avenue%2C+Banks+ACT/
76,2906,Banks,81,https://www.auhouseprices.com/sold/list/ACT/2906/Banks/,1/51 Bellchambers Crescent ,-35.4776709,149.0974113,house,3,1,2,"$440,000",https://www.auhouseprices.com/sold/view/ACT/341744019/1-51+Bellchambers+Crescent%2C+Banks+ACT/
77,2906,Banks,81,https://www.auhouseprices.com/sold/list/ACT/2906/Banks/,2/2 McLuckie Crescent ,-35.4663837,149.0996118,house,3,1,2,,https://www.auhouseprices.com/sold/view/ACT/341087919/2-2+McLuckie+Crescent%2C+Banks+ACT/
78,2906,Banks,81,https://www.auhouseprices.com/sold/list/ACT/2906/Banks/,6 Olive Pink Crescent ,-35.4767612,149.1014571,house,4,2,4,"$700,000",https://www.auhouseprices.com/sold/view/ACT/341232719/6+Olive+Pink+Crescent%2C+Banks+ACT/
79,2906,Banks,81,https://www.auhouseprices.com/sold/list/ACT/2906/Banks/,2 Smeaton Circuit ,-35.4745051,149.0957680,house,2,1,1,"$420,000",https://www.auhouseprices.com/sold/view/ACT/341487619/2+Smeaton+Circuit%2C+Banks+ACT/
80,2906,Banks,81,https://www.auhouseprices.com/sold/list/ACT/2906/Banks/,2/40 Wilson Crescent ,-35.4732260,149.1008998,house,3,1,1,,https://www.auhouseprices.com/sold/view/ACT/341683719/2-40+Wilson+Crescent%2C+Banks+ACT/
81,2906,Banks,81,https://www.auhouseprices.com/sold/list/ACT/2906/Banks/,6 Prentice Place ,-35.4662711,149.0986937,house,3,1,1,"$510,000",https://www.auhouseprices.com/sold/view/ACT/341862819/6+Prentice+Place%2C+Banks+ACT/
82,2906,Banks,81,https://www.auhouseprices.com/sold/list/ACT/2906/Banks/,37 House Circuit ,-35.4681645,149.0929688,house,3,1,1,"$455,000",https://www.auhouseprices.com/sold/view/ACT/341973509/37+House+Circuit%2C+Banks+ACT/
83,2906,Banks,81,https://www.auhouseprices.com/sold/list/ACT/2906/Banks/,56 Pockett Avenue ,-35.4688198,149.0967655,house,3,2,2,"$630,000",https://www.auhouseprices.com/sold/view/ACT/341176309/56+Pockett+Avenue%2C+Banks+ACT/
84,2906,Banks,81,https://www.auhouseprices.com/sold/list/ACT/2906/Banks/,15 Bellchambers Crescent ,-35.4753026,149.0946195,house,3,2,2,"$565,000",https://www.auhouseprices.com/sold/view/ACT/341075009/15+Bellchambers+Crescent%2C+Banks+ACT/
85,2906,Banks,81,https://www.auhouseprices.com/sold/list/ACT/2906/Banks/,12/35 Brockway Circuit ,-35.4717306,149.0951828,house,4,2,2,"$527,000",https://www.auhouseprices.com/sold/view/ACT/341497009/12-35+Brockway+Circuit%2C+Banks+ACT/
86,2906,Banks,81,https://www.auhouseprices.com/sold/list/ACT/2906/Banks/,47 Brittlebank Circuit ,-35.4692427,149.1009528,house,4,1,0,"$515,000",https://www.auhouseprices.com/sold/view/ACT/341228009/47+Brittlebank+Circuit%2C+Banks+ACT/
87,2906,Banks,81,https://www.auhouseprices.com/sold/list/ACT/2906/Banks/,17 Smeaton Circuit ,-35.4738316,149.0967854,house,3,2,4,"$530,000",https://www.auhouseprices.com/sold/view/ACT/341213109/17+Smeaton+Circuit%2C+Banks+ACT/
88,2906,Banks,81,https://www.auhouseprices.com/sold/list/ACT/2906/Banks/,118 Pockett Avenue ,-35.4735940,149.0943768,house,3,1,0,"$451,500",https://www.auhouseprices.com/sold/view/ACT/341225109/118+Pockett+Avenue%2C+Banks+ACT/
89,2906,Banks,81,https://www.auhouseprices.com/sold/list/ACT/2906/Banks/,17B Wheelwright Crescent ,-35.4719040,149.1022667,house,3,1,2,"$490,000",https://www.auhouseprices.com/sold/view/ACT/341630109/17B+Wheelwright+Crescent%2C+Banks+ACT/
90,2906,Banks,81,https://www.auhouseprices.com/sold/list/ACT/2906/Banks/,5 Booderee Place ,-35.4786203,149.1003042,house,4,2,2,"$729,000",https://www.auhouseprices.com/sold/view/ACT/341314909/5+Booderee+Place%2C+Banks+ACT/
91,2906,Banks,81,https://www.auhouseprices.com/sold/list/ACT/2906/Banks/,19 McLuckie Crescent ,-35.4668265,149.0983776,house,3,1,1,"$455,000",https://www.auhouseprices.com/sold/view/ACT/341844909/19+McLuckie+Crescent%2C+Banks+ACT/
92,2906,Banks,81,https://www.auhouseprices.com/sold/list/ACT/2906/Banks/,38 Tregellas Crescent ,-35.4694600,149.0956900,house,4,2,1,"$515,000",https://www.auhouseprices.com/sold/view/ACT/341090809/38+Tregellas+Crescent%2C+Banks+ACT/
93,2906,Banks,81,https://www.auhouseprices.com/sold/list/ACT/2906/Banks/,22 Brittlebank Circuit ,-35.4684252,149.1028600,house,3,1,2,"$595,000",https://www.auhouseprices.com/sold/view/ACT/341056809/22+Brittlebank+Circuit%2C+Banks+ACT/
94,2906,Banks,81,https://www.auhouseprices.com/sold/list/ACT/2906/Banks/,11 Wilson Crescent ,-35.4716234,149.0983149,house,3,1,4,"$501,000",https://www.auhouseprices.com/sold/view/ACT/341739809/11+Wilson+Crescent%2C+Banks+ACT/
95,2906,Banks,81,https://www.auhouseprices.com/sold/list/ACT/2906/Banks/,6 Brockway Circuit ,-35.4733030,149.0924408,house,3,1,1,"$452,000",https://www.auhouseprices.com/sold/view/ACT/341673709/6+Brockway+Circuit%2C+Banks+ACT/
96,2906,Banks,81,https://www.auhouseprices.com/sold/list/ACT/2906/Banks/,147 Tom Roberts Avenue ,-35.4662841,149.0994506,duplex-semi-detached,3,1,2,"$505,000",https://www.auhouseprices.com/sold/view/ACT/341838499/147+Tom+Roberts+Avenue%2C+Banks+ACT/
97,2906,Banks,81,https://www.auhouseprices.com/sold/list/ACT/2906/Banks/,48 Reader Court ,-35.4709559,149.0931513,house,3,1,1,"$520,000",https://www.auhouseprices.com/sold/view/ACT/341462499/48+Reader+Court%2C+Banks+ACT/
98,2906,Banks,81,https://www.auhouseprices.com/sold/list/ACT/2906/Banks/,3 Mattingley Court ,-35.4764815,149.0978461,house,4,2,2,"$630,000",https://www.auhouseprices.com/sold/view/ACT/341131499/3+Mattingley+Court%2C+Banks+ACT/
99,2906,Banks,81,https://www.auhouseprices.com/sold/list/ACT/2906/Banks/,6 White Place ,-35.4729049,149.0940835,house,3,1,2,"$548,000",https://www.auhouseprices.com/sold/view/ACT/341453399/6+White+Place%2C+Banks+ACT/
100,2906,Banks,81,https://www.auhouseprices.com/sold/list/ACT/2906/Banks/,40 Bastow Circuit ,-35.4669920,149.0918620,house,4,1,2,"$495,000",https://www.auhouseprices.com/sold/view/ACT/341547299/40+Bastow+Circuit%2C+Banks+ACT/
101,2906,Banks,81,https://www.auhouseprices.com/sold/list/ACT/2906/Banks/,20 Bastow Circuit ,-35.4660467,149.0918891,house,3,1,2,"$527,500",https://www.auhouseprices.com/sold/view/ACT/341266399/20+Bastow+Circuit%2C+Banks+ACT/
102,2906,Banks,81,https://www.auhouseprices.com/sold/list/ACT/2906/Banks/,15/6 Kettlewell Crescent ,-35.4687897,149.1063050,house,3,2,2,"$506,000",https://www.auhouseprices.com/sold/view/ACT/341519999/15-6+Kettlewell+Crescent%2C+Banks+ACT/
103,2906,Banks,81,https://www.auhouseprices.com/sold/list/ACT/2906/Banks/,101 Pockett Avenue ,-35.4730028,149.0957170,house,3,1,3,"$497,500",https://www.auhouseprices.com/sold/view/ACT/341817899/101+Pockett+Avenue%2C+Banks+ACT/
104,2906,Banks,81,https://www.auhouseprices.com/sold/list/ACT/2906/Banks/,14 Forsythe Street ,-35.4748716,149.0955561,house,4,2,2,"$625,000",https://www.auhouseprices.com/sold/view/ACT/341105899/14+Forsythe+Street%2C+Banks+ACT/
105,2906,Banks,81,https://www.auhouseprices.com/sold/list/ACT/2906/Banks/,16 Angell Place ,-35.4678857,149.1048514,house,4,2,2,"$615,000",https://www.auhouseprices.com/sold/view/ACT/341472099/16+Angell+Place%2C+Banks+ACT/
106,2906,Banks,81,https://www.auhouseprices.com/sold/list/ACT/2906/Banks/,Unit 4/30 Betty Maloney Cres ,-35.4706740,149.0946320,townhouse,3,2,2,"$498,000",https://www.auhouseprices.com/sold/view/ACT/341866799/Unit+4-30+Betty+Maloney+Cres%2C+Banks+ACT/
107,2906,Banks,81,https://www.auhouseprices.com/sold/list/ACT/2906/Banks/,35 Wilson Crescent ,-35.4722647,149.1003152,house,3,1,4,"$542,000",https://www.auhouseprices.com/sold/view/ACT/341511799/35+Wilson+Crescent%2C+Banks+ACT/
108,2906,Banks,81,https://www.auhouseprices.com/sold/list/ACT/2906/Banks/,1 Tregellas Crescent ,-35.4677338,149.0949301,house,3,2,8,"$615,475",https://www.auhouseprices.com/sold/view/ACT/341418699/1+Tregellas+Crescent%2C+Banks+ACT/
109,2906,Banks,81,https://www.auhouseprices.com/sold/list/ACT/2906/Banks/,89 Pockett Avenue ,-35.4723320,149.0964489,house,3,1,2,"$495,000",https://www.auhouseprices.com/sold/view/ACT/341340599/89+Pockett+Avenue%2C+Banks+ACT/
110,2906,Banks,81,https://www.auhouseprices.com/sold/list/ACT/2906/Banks/,32 Perrin Circuit ,-35.4673769,149.0967941,house,3,1,1,"$465,000",https://www.auhouseprices.com/sold/view/ACT/341587389/32+Perrin+Circuit%2C+Banks+ACT/
111,2906,Banks,81,https://www.auhouseprices.com/sold/list/ACT/2906/Banks/,92 Forsythe Street ,-35.4735603,149.1025309,house,4,3,2,"$890,000",https://www.auhouseprices.com/sold/view/ACT/341903389/92+Forsythe+Street%2C+Banks+ACT/
112,2906,Banks,81,https://www.auhouseprices.com/sold/list/ACT/2906/Banks/,3 Carter Place ,-35.4733782,149.1005645,house,3,1,2,"$541,000",https://www.auhouseprices.com/sold/view/ACT/341062389/3+Carter+Place%2C+Banks+ACT/
113,2906,Banks,81,https://www.auhouseprices.com/sold/list/ACT/2906/Banks/,16 Wheelwright Crescent ,-35.4722060,149.1020500,house,4,2,2,,https://www.auhouseprices.com/sold/view/ACT/341944389/16+Wheelwright+Crescent%2C+Banks+ACT/
114,2906,Banks,81,https://www.auhouseprices.com/sold/list/ACT/2906/Banks/,42 Wiburd Street ,-35.4692684,149.0999948,house,3,1,2,"$520,000",https://www.auhouseprices.com/sold/view/ACT/341522389/42+Wiburd+Street%2C+Banks+ACT/
115,2906,Banks,81,https://www.auhouseprices.com/sold/list/ACT/2906/Banks/,102 Pockett Avenue ,-35.4729033,149.0952185,house,3,1,0,"$420,000",https://www.auhouseprices.com/sold/view/ACT/341736289/102+Pockett+Avenue%2C+Banks+ACT/
116,2906,Banks,81,https://www.auhouseprices.com/sold/list/ACT/2906/Banks/,14/3 Peron Place ,-35.4756168,149.0940976,townhouse,3,1,1,"$447,000",https://www.auhouseprices.com/sold/view/ACT/341138089/14-3+Peron+Place%2C+Banks+ACT/
117,2906,Banks,81,https://www.auhouseprices.com/sold/list/ACT/2906/Banks/,32 Kettlewell Crescent ,-35.4698720,149.1047760,house,4,3,2,"$688,000",https://www.auhouseprices.com/sold/view/ACT/341143209/32+Kettlewell+Crescent%2C+Banks+ACT/
118,2906,Banks,81,https://www.auhouseprices.com/sold/list/ACT/2906/Banks/,8/39 Wiburd Street ,-35.4682880,149.1002590,townhouse,3,1,2,"$377,500",https://www.auhouseprices.com/sold/view/ACT/341869989/8-39+Wiburd+Street%2C+Banks+ACT/
119,2906,Banks,81,https://www.auhouseprices.com/sold/list/ACT/2906/Banks/,22 Reader Court ,-35.4715210,149.0931280,house,3,1,1,"$475,000",https://www.auhouseprices.com/sold/view/ACT/341804989/22+Reader+Court%2C+Banks+ACT/
120,2906,Banks,81,https://www.auhouseprices.com/sold/list/ACT/2906/Banks/,6/30 Betty Maloney Crescent ,-35.4706730,149.0946400,townhouse,3,2,2,"$520,000",https://www.auhouseprices.com/sold/view/ACT/341329689/6-30+Betty+Maloney+Crescent%2C+Banks+ACT/
121,2906,Banks,81,https://www.auhouseprices.com/sold/list/ACT/2906/Banks/,35 Troughton Street ,-35.4722400,149.1015300,house,3,1,2,"$450,000",https://www.auhouseprices.com/sold/view/ACT/341888689/35+Troughton+Street%2C+Banks+ACT/
122,2906,Banks,81,https://www.auhouseprices.com/sold/list/ACT/2906/Banks/,16 Ironbark Crescent ,-35.4684620,149.0990620,house,3,1,3,"$490,000",https://www.auhouseprices.com/sold/view/ACT/341744689/16+Ironbark+Crescent%2C+Banks+ACT/
123,2906,Banks,81,https://www.auhouseprices.com/sold/list/ACT/2906/Banks/,35 Troughton Street ,-35.4722390,149.1015340,house,3,1,2,"$450,000",https://www.auhouseprices.com/sold/view/ACT/341061689/35+Troughton+Street%2C+Banks+ACT/
124,2906,Banks,81,https://www.auhouseprices.com/sold/list/ACT/2906/Banks/,32 Wittunga Crescent ,-35.4777330,149.1009770,house,4,2,2,,https://www.auhouseprices.com/sold/view/ACT/341879589/32+Wittunga+Crescent%2C+Banks+ACT/
125,2906,Banks,81,https://www.auhouseprices.com/sold/list/ACT/2906/Banks/,51 Perrin Circuit ,-35.4673010,149.0960550,house,4,2,2,"$585,000",https://www.auhouseprices.com/sold/view/ACT/341160389/51+Perrin+Circuit%2C+Banks+ACT/
126,2906,Banks,81,https://www.auhouseprices.com/sold/list/ACT/2906/Banks/,23 Wittunga Crescent ,-35.4791220,149.1020600,house,4,3,2,"$980,000",https://www.auhouseprices.com/sold/view/ACT/341727479/23+Wittunga+Crescent%2C+Banks+ACT/
127,2906,Banks,81,https://www.auhouseprices.com/sold/list/ACT/2906/Banks/,7/10 Zeitz Court ,-35.4741080,149.0917580,townhouse,3,1,1,,https://www.auhouseprices.com/sold/view/ACT/341843209/7-10+Zeitz+Court%2C+Banks+ACT/
128,2906,Banks,81,https://www.auhouseprices.com/sold/list/ACT/2906/Banks/,7 Opal Street ,-35.4710780,149.0945450,townhouse,4,2,2,"$530,000",https://www.auhouseprices.com/sold/view/ACT/341073479/7+Opal+Street%2C+Banks+ACT/
129,2906,Banks,81,https://www.auhouseprices.com/sold/list/ACT/2906/Banks/,5/6 Kettlewell Crescent ,-35.4689520,149.1062500,townhouse,3,2,2,"$465,000",https://www.auhouseprices.com/sold/view/ACT/341222379/5-6+Kettlewell+Crescent%2C+Banks+ACT/
130,2906,Banks,81,https://www.auhouseprices.com/sold/list/ACT/2906/Banks/,17 Mathews Place ,-35.4703950,149.0983840,house,3,1,0,"$452,500",https://www.auhouseprices.com/sold/view/ACT/341593179/17+Mathews++Place%2C+Banks+ACT/
131,2906,Banks,81,https://www.auhouseprices.com/sold/list/ACT/2906/Banks/,9 Bellchambers Crescent ,-35.4747410,149.0942590,house,3,1,2,,https://www.auhouseprices.com/sold/view/ACT/341473179/9+Bellchambers+Crescent%2C+Banks+ACT/
132,2906,Banks,81,https://www.auhouseprices.com/sold/list/ACT/2906/Banks/,6/6 Kettlewell Crescent ,-35.4689520,149.1062500,townhouse,3,2,2,"$470,000",https://www.auhouseprices.com/sold/view/ACT/341602179/6-6+Kettlewell+Crescent%2C+Banks+ACT/
133,2906,Banks,81,https://www.auhouseprices.com/sold/list/ACT/2906/Banks/,3 Tregellas Crescent ,-35.4679170,149.0949310,house,3,1,2,"$495,000",https://www.auhouseprices.com/sold/view/ACT/341605079/3+Tregellas+Crescent%2C+Banks+ACT/
134,2906,Banks,81,https://www.auhouseprices.com/sold/list/ACT/2906/Banks/,7 Galbraith Close ,-35.4716730,149.1046340,house,7,4,4,"$1,130,000",https://www.auhouseprices.com/sold/view/ACT/341032979/7+Galbraith+Close%2C+Banks+ACT/
135,2906,Banks,81,https://www.auhouseprices.com/sold/list/ACT/2906/Banks/,18 Orange Thorn Crescent ,-35.4711270,149.1060750,house,5,3,2,"$980,000",https://www.auhouseprices.com/sold/view/ACT/341761979/18+Orange+Thorn+Crescent%2C+Banks+ACT/
136,2906,Banks,81,https://www.auhouseprices.com/sold/list/ACT/2906/Banks/,15/35 Brockway Circuit ,-35.4719710,149.0948500,house,3,2,2,"$455,000",https://www.auhouseprices.com/sold/view/ACT/341421879/15-35+Brockway+Circuit%2C+Banks+ACT/
137,2906,Banks,81,https://www.auhouseprices.com/sold/list/ACT/2906/Banks/,8/41 Bellchambers Crescent ,-35.4766220,149.0968260,townhouse,3,2,2,"$420,000",https://www.auhouseprices.com/sold/view/ACT/341172879/8-41+Bellchambers+Crescent%2C+Banks+ACT/
138,2906,Banks,81,https://www.auhouseprices.com/sold/list/ACT/2906/Banks/,5/7 Youl Court ,-35.4704770,149.1007850,townhouse,3,1,1,"$387,500",https://www.auhouseprices.com/sold/view/ACT/341284979/5-7+Youl+Court%2C+Banks+ACT/
139,2906,Banks,81,https://www.auhouseprices.com/sold/list/ACT/2906/Banks/,14/35 Brockway Circuit ,-35.4719710,149.0948500,townhouse,3,2,2,"$435,000",https://www.auhouseprices.com/sold/view/ACT/341242779/14-35+Brockway+Circuit%2C+Banks+ACT/
140,2906,Banks,81,https://www.auhouseprices.com/sold/list/ACT/2906/Banks/,30 Paperbark Street ,-35.4689520,149.1044510,house,4,2,2,"$600,000",https://www.auhouseprices.com/sold/view/ACT/341837679/30++Paperbark+Street%2C+Banks+ACT/
141,2906,Banks,81,https://www.auhouseprices.com/sold/list/ACT/2906/Banks/,8 Wilhelmi Crescent ,-35.4651020,149.0952310,house,3,1,2,"$470,000",https://www.auhouseprices.com/sold/view/ACT/341087679/8+Wilhelmi+Crescent%2C+Banks+ACT/
142,2906,Banks,81,https://www.auhouseprices.com/sold/list/ACT/2906/Banks/,9 Rumsey Place ,-35.4741320,149.1008850,house,4,2,2,"$625,000",https://www.auhouseprices.com/sold/view/ACT/341974679/9+Rumsey+Place%2C+Banks+ACT/
143,2906,Banks,81,https://www.auhouseprices.com/sold/list/ACT/2906/Banks/,19 Bastow Circuit ,-35.4663990,149.0921280,house,3,1,1,"$435,000",https://www.auhouseprices.com/sold/view/ACT/341481489/19+Bastow+Circuit%2C+Banks+ACT/
144,2906,Banks,81,https://www.auhouseprices.com/sold/list/ACT/2906/Banks/,61 Paperbark Street ,-35.4720140,149.1035830,house,4,3,2,"$935,000",https://www.auhouseprices.com/sold/view/ACT/341936579/61+Paperbark+Street%2C+Banks+ACT/
145,2906,Banks,81,https://www.auhouseprices.com/sold/list/ACT/2906/Banks/,19 Perrin Circuit ,-35.4663510,149.0966880,house,4,2,2,"$550,000",https://www.auhouseprices.com/sold/view/ACT/341804579/19+Perrin+Circuit%2C+Banks+ACT/
146,2906,Banks,81,https://www.auhouseprices.com/sold/list/ACT/2906/Banks/,1 Moore Place ,-35.4745330,149.0991700,house,3,1,2,,https://www.auhouseprices.com/sold/view/ACT/341808469/1+Moore+Place%2C+Banks+ACT/
147,2906,Banks,81,https://www.auhouseprices.com/sold/list/ACT/2906/Banks/,24 House Circuit ,-35.4673160,149.0922330,house,3,1,1,"$460,000",https://www.auhouseprices.com/sold/view/ACT/341840369/24+House+Circuit%2C+Banks+ACT/
148,2906,Banks,81,https://www.auhouseprices.com/sold/list/ACT/2906/Banks/,40B Troughton Street ,-35.4726110,149.1013690,house,3,1,2,,https://www.auhouseprices.com/sold/view/ACT/341895469/40B+Troughton+Street%2C+Banks+ACT/
149,2906,Banks,81,https://www.auhouseprices.com/sold/list/ACT/2906/Banks/,38 Brittlebank Circuit ,-35.4687830,149.1011700,house,3,2,4,"$555,000",https://www.auhouseprices.com/sold/view/ACT/341860269/38+Brittlebank+Circuit%2C+Banks+ACT/
150,2906,Banks,81,https://www.auhouseprices.com/sold/list/ACT/2906/Banks/,40A Troughton Street ,-35.4726810,149.1012500,house,2,1,1,"$383,000",https://www.auhouseprices.com/sold/view/ACT/341563269/40A+Troughton+Street%2C+Banks+ACT/
151,2906,Banks,81,https://www.auhouseprices.com/sold/list/ACT/2906/Banks/,31 Opal Street ,-35.4710820,149.0958960,townhouse,4,2,2,"$550,000",https://www.auhouseprices.com/sold/view/ACT/341077459/31+Opal+Street%2C+Banks+ACT/
152,2906,Banks,81,https://www.auhouseprices.com/sold/list/ACT/2906/Banks/,11 Chalker Circuit ,-35.4749130,149.0933450,house,3,1,2,,https://www.auhouseprices.com/sold/view/ACT/341698669/11+Chalker+Circuit%2C+Banks+ACT/
153,2906,Banks,81,https://www.auhouseprices.com/sold/list/ACT/2906/Banks/,8 Wittunga Crescent ,-35.4780010,149.1015240,house,4,1,2,"$730,000",https://www.auhouseprices.com/sold/view/ACT/341179259/8+Wittunga+Crescent%2C+Banks+ACT/
154,2906,Banks,81,https://www.auhouseprices.com/sold/list/ACT/2906/Banks/,28 Abercrombie Circuit ,-35.4647160,149.0921270,house,4,1,1,"$460,000",https://www.auhouseprices.com/sold/view/ACT/341155259/28+Abercrombie+Circuit%2C+Banks+ACT/
155,2906,Banks,81,https://www.auhouseprices.com/sold/list/ACT/2906/Banks/,5/7-9 Troughton Street ,-35.4703450,149.0997940,house,2,1,3,"$330,000",https://www.auhouseprices.com/sold/view/ACT/341014159/5-7-9+Troughton+Street%2C+Banks+ACT/
156,2906,Banks,81,https://www.auhouseprices.com/sold/list/ACT/2906/Banks/,51 Brittlebank Circuit ,-35.4692900,149.1006210,house,2,1,1,"$396,000",https://www.auhouseprices.com/sold/view/ACT/341295159/51+Brittlebank+Circuit%2C+Banks+ACT/
157,2906,Banks,81,https://www.auhouseprices.com/sold/list/ACT/2906/Banks/,50 Bastow Circuit ,-35.4671550,149.0927830,house,3,1,1,"$432,500",https://www.auhouseprices.com/sold/view/ACT/341082959/50+Bastow+Circuit%2C+Banks+ACT/
158,2906,Banks,81,https://www.auhouseprices.com/sold/list/ACT/2906/Banks/,2/17 Youl Court ,-35.4703380,149.1013810,townhouse,3,1,1,,https://www.auhouseprices.com/sold/view/ACT/341782959/2-17+Youl+Court%2C+Banks+ACT/
159,2906,Banks,81,https://www.auhouseprices.com/sold/list/ACT/2906/Banks/,7/6 Kettlewell Crescent ,-35.4689520,149.1062500,townhouse,3,2,2,"$460,000",https://www.auhouseprices.com/sold/view/ACT/341217759/7-6+Kettlewell+Crescent%2C+Banks+ACT/
160,2906,Banks,81,https://www.auhouseprices.com/sold/list/ACT/2906/Banks/,17 Wittunga Crescent ,-35.4785780,149.1022000,house,4,2,2,,https://www.auhouseprices.com/sold/view/ACT/341735759/17+Wittunga+Crescent%2C+Banks+ACT/
161,2906,Banks,81,https://www.auhouseprices.com/sold/list/ACT/2906/Banks/,10 Luckman Place ,-35.4730780,149.0930700,house,3,1,1,"$452,000",https://www.auhouseprices.com/sold/view/ACT/341143759/10+Luckman+Place%2C+Banks+ACT/
162,2906,Banks,81,https://www.auhouseprices.com/sold/list/ACT/2906/Banks/,8 Allitt Place ,-35.4695160,149.1016170,house,4,2,7,"$624,000",https://www.auhouseprices.com/sold/view/ACT/341606659/8+Allitt+Place%2C+Banks+ACT/
163,2906,Banks,81,https://www.auhouseprices.com/sold/list/ACT/2906/Banks/,19 Forsythe Street ,-35.4744670,149.0963350,house,4,2,4,"$610,000",https://www.auhouseprices.com/sold/view/ACT/341204349/19+Forsythe+Street%2C+Banks+ACT/
164,2906,Banks,81,https://www.auhouseprices.com/sold/list/ACT/2906/Banks/,50 Reader Court ,-35.4708750,149.0930110,house,3,1,1,"$446,000",https://www.auhouseprices.com/sold/view/ACT/341948249/50+Reader+Court%2C+Banks+ACT/
165,2906,Banks,81,https://www.auhouseprices.com/sold/list/ACT/2906/Banks/,15 Thomas Hart Street ,-35.4654200,149.0957500,house,3,1,1,"$427,000",https://www.auhouseprices.com/sold/view/ACT/341713249/15+Thomas+Hart+Street%2C+Banks+ACT/
166,2906,Banks,81,https://www.auhouseprices.com/sold/list/ACT/2906/Banks/,2/15 Troughton Street ,-35.4705900,149.1002440,townhouse,3,2,1,,https://www.auhouseprices.com/sold/view/ACT/341357449/2-15+Troughton+Street%2C+Banks+ACT/
167,2906,Banks,81,https://www.auhouseprices.com/sold/list/ACT/2906/Banks/,15 Chalker Circuit ,-35.4751390,149.0936060,house,3,1,4,"$470,000",https://www.auhouseprices.com/sold/view/ACT/341654149/15+Chalker+Circuit%2C+Banks+ACT/
168,2906,Banks,81,https://www.auhouseprices.com/sold/list/ACT/2906/Banks/,7 Wheelwright Crescent ,-35.4708470,149.1015350,house,4,2,2,"$540,000",https://www.auhouseprices.com/sold/view/ACT/341148649/7+Wheelwright+Crescent%2C+Banks+ACT/
169,2906,Banks,81,https://www.auhouseprices.com/sold/list/ACT/2906/Banks/,22 Chalker Circuit ,-35.4753680,149.0932060,house,3,1,1,"$450,000",https://www.auhouseprices.com/sold/view/ACT/341247339/22+Chalker+Circuit%2C+Banks+ACT/
170,2906,Banks,81,https://www.auhouseprices.com/sold/list/ACT/2906/Banks/,5 Alison Ashby Crescent ,-35.4744210,149.1026990,house,5,3,2,"$810,000",https://www.auhouseprices.com/sold/view/ACT/341309339/5+Alison+Ashby+Crescent%2C+Banks+ACT/
171,2906,Banks,81,https://www.auhouseprices.com/sold/list/ACT/2906/Banks/,10 Brockway Circuit ,-35.4730930,149.0926890,house,3,1,2,,https://www.auhouseprices.com/sold/view/ACT/341900239/10+Brockway+Circuit%2C+Banks+ACT/
172,2906,Banks,81,https://www.auhouseprices.com/sold/list/ACT/2906/Banks/,2 House Circuit ,-35.4675930,149.0944930,house,3,1,2,"$550,000",https://www.auhouseprices.com/sold/view/ACT/341598239/2+House+Circuit%2C+Banks+ACT/
173,2906,Banks,81,https://www.auhouseprices.com/sold/list/ACT/2906/Banks/,13 Smeaton Circuit ,-35.4736660,149.0962320,house,3,1,4,"$512,000",https://www.auhouseprices.com/sold/view/ACT/341150139/13+Smeaton+Circuit%2C+Banks+ACT/
174,2906,Banks,81,https://www.auhouseprices.com/sold/list/ACT/2906/Banks/,43 Wilhelmi Crescent ,-35.4650250,149.0971540,house,3,1,3,"$475,000",https://www.auhouseprices.com/sold/view/ACT/341264339/43+Wilhelmi+Crescent%2C+Banks+ACT/
175,2906,Banks,81,https://www.auhouseprices.com/sold/list/ACT/2906/Banks/,20 Bastow Circuit ,-35.4659630,149.0919000,house,3,1,2,"$487,000",https://www.auhouseprices.com/sold/view/ACT/341242039/20+Bastow+Circuit%2C+Banks+ACT/
176,2906,Banks,81,https://www.auhouseprices.com/sold/list/ACT/2906/Banks/,40 Galbraith Close ,-35.4749050,149.1035270,house,4,3,2,,https://www.auhouseprices.com/sold/view/ACT/341942039/40+Galbraith+Close%2C+Banks+ACT/
177,2906,Banks,81,https://www.auhouseprices.com/sold/list/ACT/2906/Banks/,5 Cookson Place ,-35.4768250,149.1024470,house,4,2,2,"$735,000",https://www.auhouseprices.com/sold/view/ACT/341273939/5+Cookson+Place%2C+Banks+ACT/
178,2906,Banks,81,https://www.auhouseprices.com/sold/list/ACT/2906/Banks/,7/94 Pockett Avenue ,-35.4720730,149.0957490,townhouse,3,3,2,"$580,000",https://www.auhouseprices.com/sold/view/ACT/341182939/7-94+Pockett+Avenue%2C+Banks+ACT/
179,2906,Banks,81,https://www.auhouseprices.com/sold/list/ACT/2906/Banks/,49 Reader Court ,-35.4708820,149.0916400,house,3,1,1,"$400,500",https://www.auhouseprices.com/sold/view/ACT/341510939/49+Reader+Court%2C+Banks+ACT/
180,2906,Banks,81,https://www.auhouseprices.com/sold/list/ACT/2906/Banks/,38 Wiburd Street ,-35.4689190,149.1000230,house,3,1,1,"$450,000",https://www.auhouseprices.com/sold/view/ACT/341115839/38+Wiburd+Street%2C+Banks+ACT/
181,2906,Banks,81,https://www.auhouseprices.com/sold/list/ACT/2906/Banks/,2 Fern Place ,-35.4694500,149.0959800,house,4,2,2,"$540,000",https://www.auhouseprices.com/sold/view/ACT/341832839/2+Fern+Place%2C+Banks+ACT/
182,2906,Banks,81,https://www.auhouseprices.com/sold/list/ACT/2906/Banks/,21 Orange Thorn Crescent ,-35.4709460,149.1070650,house,5,2,2,"$830,000",https://www.auhouseprices.com/sold/view/ACT/341890839/21+Orange+Thorn+Crescent%2C+Banks+ACT/
183,2906,Banks,81,https://www.auhouseprices.com/sold/list/ACT/2906/Banks/,43 Pockett Avenue ,-35.4678140,149.0962100,house,3,2,1,"$495,000",https://www.auhouseprices.com/sold/view/ACT/341329739/43+Pockett+Avenue%2C+Banks+ACT/
184,2906,Banks,81,https://www.auhouseprices.com/sold/list/ACT/2906/Banks/,18 Menzies Court ,-35.4752740,149.0961830,house,4,2,2,"$528,000",https://www.auhouseprices.com/sold/view/ACT/341732739/18+Menzies+Court%2C+Banks+ACT/
185,2906,Banks,81,https://www.auhouseprices.com/sold/list/ACT/2906/Banks/,1 Youl Court ,-35.4706500,149.1011260,house,3,1,1,"$430,000",https://www.auhouseprices.com/sold/view/ACT/341032739/1+Youl+Court%2C+Banks+ACT/
186,2906,Banks,81,https://www.auhouseprices.com/sold/list/ACT/2906/Banks/,83 Forsythe Street ,-35.4739420,149.1017550,house,4,3,2,,https://www.auhouseprices.com/sold/view/ACT/341719669/83+Forsythe+Street%2C+Banks+ACT/
187,2906,Banks,81,https://www.auhouseprices.com/sold/list/ACT/2906/Banks/,18 Paperbark Street ,-35.4682570,149.1050380,house,4,2,2,"$670,000",https://www.auhouseprices.com/sold/view/ACT/341653739/18+Paperbark+Street%2C+Banks+ACT/
188,2906,Banks,81,https://www.auhouseprices.com/sold/list/ACT/2906/Banks/,48 Bastow Circuit ,-35.4671260,149.0925980,house,3,1,1,"$496,000",https://www.auhouseprices.com/sold/view/ACT/341150528/48+Bastow+Circuit%2C+Banks+ACT/
189,2906,Banks,81,https://www.auhouseprices.com/sold/list/ACT/2906/Banks/,9 Ironbark Crescent ,-35.4679820,149.0978660,house,3,1,0,"$533,500",https://www.auhouseprices.com/sold/view/ACT/341290428/9+Ironbark+Crescent%2C+Banks+ACT/
190,2906,Banks,81,https://www.auhouseprices.com/sold/list/ACT/2906/Banks/,3/30 Betty Maloney Crescent ,-35.4706740,149.0946320,townhouse,3,2,2,"$495,000",https://www.auhouseprices.com/sold/view/ACT/341117428/3-30+Betty+Maloney+Crescent%2C+Banks+ACT/
191,2906,Banks,81,https://www.auhouseprices.com/sold/list/ACT/2906/Banks/,30 Wiburd Street ,-35.4684480,149.0999820,house,3,1,0,"$415,000",https://www.auhouseprices.com/sold/view/ACT/341029328/30+Wiburd+Street%2C+Banks+ACT/
192,2906,Banks,81,https://www.auhouseprices.com/sold/list/ACT/2906/Banks/,17 Opal Street ,-35.4710770,149.0951080,townhouse,4,2,2,"$527,500",https://www.auhouseprices.com/sold/view/ACT/341259669/17+Opal+Street%2C+Banks+ACT/
193,2906,Banks,81,https://www.auhouseprices.com/sold/list/ACT/2906/Banks/,24 Forsythe Street ,-35.4750620,149.0968760,house,5,2,2,"$708,000",https://www.auhouseprices.com/sold/view/ACT/341456328/24+Forsythe+Street%2C+Banks+ACT/
194,2906,Banks,81,https://www.auhouseprices.com/sold/list/ACT/2906/Banks/,7/30 Betty Maloney Crescent ,-35.4706740,149.0946320,townhouse,3,2,2,"$457,500",https://www.auhouseprices.com/sold/view/ACT/341205528/7-30+Betty+Maloney+Crescent%2C+Banks+ACT/
195,2906,Banks,81,https://www.auhouseprices.com/sold/list/ACT/2906/Banks/,9 Thomas Hart Street ,-35.4653810,149.0952310,house,3,1,1,"$470,000",https://www.auhouseprices.com/sold/view/ACT/341871328/9+Thomas+Hart+Street%2C+Banks+ACT/
196,2906,Banks,81,https://www.auhouseprices.com/sold/list/ACT/2906/Banks/,2/45 Wilson Crescent ,-35.4729030,149.1011580,house,3,1,1,"$442,500",https://www.auhouseprices.com/sold/view/ACT/341879528/2-45+Wilson+Crescent%2C+Banks+ACT/
197,2906,Banks,81,https://www.auhouseprices.com/sold/list/ACT/2906/Banks/,27 McLuckie Crescent ,-35.4672010,149.0989390,house,3,1,2,,https://www.auhouseprices.com/sold/view/ACT/341435228/27+McLuckie+Crescent%2C+Banks+ACT/
198,2906,Banks,81,https://www.auhouseprices.com/sold/list/ACT/2906/Banks/,13 Zeitz Court ,-35.4755390,149.0922300,house,3,1,4,"$435,000",https://www.auhouseprices.com/sold/view/ACT/341816228/13+Zeitz+Court%2C+Banks+ACT/
199,2906,Banks,81,https://www.auhouseprices.com/sold/list/ACT/2906/Banks/,33 Notting Court ,-35.4728480,149.0974860,house,3,1,0,"$412,000",https://www.auhouseprices.com/sold/view/ACT/341146428/33+Notting+Court%2C+Banks+ACT/
200,2906,Banks,81,https://www.auhouseprices.com/sold/list/ACT/2906/Banks/,29 Tregellas Crescent ,-35.4685450,149.0956850,house,3,1,2,"$503,500",https://www.auhouseprices.com/sold/view/ACT/341182128/29+Tregellas+Crescent%2C+Banks+ACT/
201,2906,Banks,81,https://www.auhouseprices.com/sold/list/ACT/2906/Banks/,33 Wilson Crescent ,-35.4720730,149.1003970,house,3,1,0,"$440,000",https://www.auhouseprices.com/sold/view/ACT/341659928/33+Wilson+Crescent%2C+Banks+ACT/
202,2906,Banks,81,https://www.auhouseprices.com/sold/list/ACT/2906/Banks/,33 Notting Court ,-35.4728480,149.0974860,house,3,1,0,"$412,000",https://www.auhouseprices.com/sold/view/ACT/341398928/33+Notting+Court%2C+Banks+ACT/
203,2906,Banks,81,https://www.auhouseprices.com/sold/list/ACT/2906/Banks/,24 Wilson Crescent ,-35.4718870,149.0996870,house,3,1,2,,https://www.auhouseprices.com/sold/view/ACT/341849828/24+Wilson+Crescent%2C+Banks+ACT/
204,2906,Banks,81,https://www.auhouseprices.com/sold/list/ACT/2906/Banks/,16 Galbraith Close ,-35.4729230,149.1035620,house,4,2,2,"$747,000",https://www.auhouseprices.com/sold/view/ACT/341429669/16+Galbraith+Close%2C+Banks+ACT/
205,2906,Banks,81,https://www.auhouseprices.com/sold/list/ACT/2906/Banks/,6/94 Pockett Avenue ,-35.4720730,149.0957490,townhouse,3,2,2,,https://www.auhouseprices.com/sold/view/ACT/341150728/6-94+Pockett+Avenue%2C+Banks+ACT/
206,2906,Banks,81,https://www.auhouseprices.com/sold/list/ACT/2906/Banks/,33 Bastow Circuit ,-35.4667640,149.0928070,house,3,1,1,"$453,500",https://www.auhouseprices.com/sold/view/ACT/341165628/33+Bastow+Circuit%2C+Banks+ACT/
207,2906,Banks,81,https://www.auhouseprices.com/sold/list/ACT/2906/Banks/,2/15 Forsythe Street ,-35.4744900,149.0959090,house,2,1,1,,https://www.auhouseprices.com/sold/view/ACT/341385518/2-15+Forsythe+Street%2C+Banks+ACT/
208,2906,Banks,81,https://www.auhouseprices.com/sold/list/ACT/2906/Banks/,84 Forsythe Street ,-35.4742000,149.1023100,house,4,3,2,"$850,000",https://www.auhouseprices.com/sold/view/ACT/341447518/84+Forsythe+Street%2C+Banks+ACT/
209,2906,Banks,81,https://www.auhouseprices.com/sold/list/ACT/2906/Banks/,116 Pockett Avenue ,-35.4734510,149.0944640,house,3,1,1,"$410,000",https://www.auhouseprices.com/sold/view/ACT/341578318/116+Pockett+Avenue%2C+Banks+ACT/
210,2906,Banks,81,https://www.auhouseprices.com/sold/list/ACT/2906/Banks/,2/58-60 Betty Maloney Crescent ,-35.4719440,149.0959330,townhouse,3,2,2,,https://www.auhouseprices.com/sold/view/ACT/341370828/2-58-60+Betty+Maloney+Crescent%2C+Banks+ACT/
211,2906,Banks,81,https://www.auhouseprices.com/sold/list/ACT/2906/Banks/,7/39 Thomas Hart Street ,-35.4660310,149.0977650,townhouse,3,2,1,"$420,000",https://www.auhouseprices.com/sold/view/ACT/341680118/7-39+Thomas+Hart+Street%2C+Banks+ACT/
212,2906,Banks,81,https://www.auhouseprices.com/sold/list/ACT/2906/Banks/,16 Menzies Court ,-35.4752700,149.0964710,house,4,2,2,,https://www.auhouseprices.com/sold/view/ACT/341759118/16+Menzies+Court%2C+Banks+ACT/
213,2906,Banks,81,https://www.auhouseprices.com/sold/list/ACT/2906/Banks/,30 Galbraith Close ,-35.4740640,149.1028760,house,6,2,2,"$875,000",https://www.auhouseprices.com/sold/view/ACT/341205118/30+Galbraith+Close%2C+Banks+ACT/
214,2906,Banks,81,https://www.auhouseprices.com/sold/list/ACT/2906/Banks/,19 Reader Court ,-35.4720980,149.0922140,house,3,1,2,"$470,500",https://www.auhouseprices.com/sold/view/ACT/341963118/19+Reader+Court%2C+Banks+ACT/
215,2906,Banks,81,https://www.auhouseprices.com/sold/list/ACT/2906/Banks/,17 Betty Maloney Crescent ,-35.4711200,149.0935970,house,4,2,2,,https://www.auhouseprices.com/sold/view/ACT/341254018/17+Betty+Maloney+Crescent%2C+Banks+ACT/
216,2906,Banks,81,https://www.auhouseprices.com/sold/list/ACT/2906/Banks/,10 Betty Maloney Crescent ,-35.4717120,149.0941020,house,4,2,5,"$610,000",https://www.auhouseprices.com/sold/view/ACT/341457118/10+Betty+Maloney+Crescent%2C+Banks+ACT/
217,2906,Banks,81,https://www.auhouseprices.com/sold/list/ACT/2906/Banks/,10/27 Paperbark Street ,-35.4693470,149.1053140,townhouse,4,2,2,"$512,000",https://www.auhouseprices.com/sold/view/ACT/341012818/10-27+Paperbark+Street%2C+Banks+ACT/
218,2906,Banks,81,https://www.auhouseprices.com/sold/list/ACT/2906/Banks/,6 Wheelwright Crescent ,-35.4711410,149.1013910,house,3,1,2,"$500,000",https://www.auhouseprices.com/sold/view/ACT/341996718/6+Wheelwright+Crescent%2C+Banks+ACT/
219,2906,Banks,81,https://www.auhouseprices.com/sold/list/ACT/2906/Banks/,2/3 Peron Place ,-35.4766530,149.0939820,townhouse,3,1,1,"$355,000",https://www.auhouseprices.com/sold/view/ACT/341143618/2-3+Peron+Place%2C+Banks+ACT/
220,2906,Banks,81,https://www.auhouseprices.com/sold/list/ACT/2906/Banks/,3/6 Kettlewell Crescent ,-35.4689520,149.1062500,townhouse,3,2,2,"$527,500",https://www.auhouseprices.com/sold/view/ACT/341739508/3-6+Kettlewell+Crescent%2C+Banks+ACT/
221,2906,Banks,81,https://www.auhouseprices.com/sold/list/ACT/2906/Banks/,22 Perrin Circuit ,-35.4670040,149.0969790,house,3,1,5,"$450,000",https://www.auhouseprices.com/sold/view/ACT/341073508/22+Perrin+Circuit%2C+Banks+ACT/
222,2906,Banks,81,https://www.auhouseprices.com/sold/list/ACT/2906/Banks/,29 Smeaton Circuit ,-35.4741340,149.0982340,house,3,1,1,"$410,000",https://www.auhouseprices.com/sold/view/ACT/341126408/29+Smeaton+Circuit%2C+Banks+ACT/
223,2906,Banks,81,https://www.auhouseprices.com/sold/list/ACT/2906/Banks/,3/13 Troughton Street ,-35.4705900,149.1002690,townhouse,3,1,3,,https://www.auhouseprices.com/sold/view/ACT/341850408/3-13+Troughton+Street%2C+Banks+ACT/
224,2906,Banks,81,https://www.auhouseprices.com/sold/list/ACT/2906/Banks/,13 Angell Place ,-35.4674040,149.1051070,house,3,2,0,"$547,500",https://www.auhouseprices.com/sold/view/ACT/341383408/13+Angell+Place%2C+Banks+ACT/
225,2906,Banks,81,https://www.auhouseprices.com/sold/list/ACT/2906/Banks/,15 Tregellas Crescent ,-35.4689870,149.0945590,house,4,2,2,"$545,000",https://www.auhouseprices.com/sold/view/ACT/341266308/15+Tregellas+Crescent%2C+Banks+ACT/
226,2906,Banks,81,https://www.auhouseprices.com/sold/list/ACT/2906/Banks/,11 Thomas Hart Street ,-35.4653710,149.0954310,house,3,1,1,"$445,000",https://www.auhouseprices.com/sold/view/ACT/341345308/11+Thomas+Hart+Street%2C+Banks+ACT/
227,2906,Banks,81,https://www.auhouseprices.com/sold/list/ACT/2906/Banks/,16 Alison Ashby Crescent ,-35.4755220,149.1030090,house,4,3,2,"$836,000",https://www.auhouseprices.com/sold/view/ACT/341890208/16+Alison+Ashby+Crescent%2C+Banks+ACT/
228,2906,Banks,81,https://www.auhouseprices.com/sold/list/ACT/2906/Banks/,36 Forsythe Street ,-35.4757230,149.0982380,house,4,2,2,"$655,000",https://www.auhouseprices.com/sold/view/ACT/341306008/36+Forsythe+Street%2C+Banks+ACT/
229,2906,Banks,81,https://www.auhouseprices.com/sold/list/ACT/2906/Banks/,40 Wiburd Street ,-35.4690460,149.0999480,house,3,1,4,"$477,000",https://www.auhouseprices.com/sold/view/ACT/341548908/40+Wiburd+Street%2C+Banks+ACT/
230,2906,Banks,81,https://www.auhouseprices.com/sold/list/ACT/2906/Banks/,46 Olive Pink Crescent ,-35.4776000,149.0997630,house,4,2,2,"$620,000",https://www.auhouseprices.com/sold/view/ACT/341639908/46+Olive+Pink+Crescent%2C+Banks+ACT/
231,2906,Banks,81,https://www.auhouseprices.com/sold/list/ACT/2906/Banks/,9 Cookson Place ,-35.4771770,149.1026630,house,5,3,4,"$837,000",https://www.auhouseprices.com/sold/view/ACT/341849708/9+Cookson+Place%2C+Banks+ACT/
232,2906,Banks,81,https://www.auhouseprices.com/sold/list/ACT/2906/Banks/,34 Tregellas Crescent ,-35.4695820,149.0953060,house,3,2,1,"$542,000",https://www.auhouseprices.com/sold/view/ACT/341219608/34+Tregellas+Crescent%2C+Banks+ACT/
233,2906,Banks,81,https://www.auhouseprices.com/sold/list/ACT/2906/Banks/,1/10 Zeitz Court ,-35.4741080,149.0917580,house,3,1,2,"$379,000",https://www.auhouseprices.com/sold/view/ACT/341212608/1-10+Zeitz+Court%2C+Banks+ACT/
234,2906,Banks,81,https://www.auhouseprices.com/sold/list/ACT/2906/Banks/,20 Tregellas Crescent ,-35.4691150,149.0939850,house,3,1,0,"$475,000",https://www.auhouseprices.com/sold/view/ACT/341842498/20+Tregellas+Crescent%2C+Banks+ACT/
235,2906,Banks,81,https://www.auhouseprices.com/sold/list/ACT/2906/Banks/,8/6 Kettlewell Crescent ,-35.4689520,149.1062500,townhouse,3,2,2,"$510,000",https://www.auhouseprices.com/sold/view/ACT/341473498/8-6+Kettlewell+Crescent%2C+Banks+ACT/
236,2906,Banks,81,https://www.auhouseprices.com/sold/list/ACT/2906/Banks/,35 Olive Pink Crescent ,-35.4788810,149.0996870,house,5,2,2,"$760,000",https://www.auhouseprices.com/sold/view/ACT/341622398/35+Olive+Pink+Crescent%2C+Banks+ACT/
237,2906,Banks,81,https://www.auhouseprices.com/sold/list/ACT/2906/Banks/,12 Bastow Circuit ,-35.4661090,149.0927130,house,3,1,2,,https://www.auhouseprices.com/sold/view/ACT/341599298/12++Bastow+Circuit%2C+Banks+ACT/
238,2906,Banks,81,https://www.auhouseprices.com/sold/list/ACT/2906/Banks/,36 Abercrombie Circuit ,-35.4649500,149.0914860,house,3,1,2,"$450,000",https://www.auhouseprices.com/sold/view/ACT/341874608/36+Abercrombie+Circuit%2C+Banks+ACT/
239,2906,Banks,81,https://www.auhouseprices.com/sold/list/ACT/2906/Banks/,41 Pockett Avenue ,-35.4676830,149.0960200,house,3,1,2,"$500,000",https://www.auhouseprices.com/sold/view/ACT/341760198/41+Pockett+Avenue%2C+Banks+ACT/
240,2906,Banks,81,https://www.auhouseprices.com/sold/list/ACT/2906/Banks/,69 Paperbark Street ,-35.4727220,149.1033260,house,5,4,2,"$830,000",https://www.auhouseprices.com/sold/view/ACT/341041198/69+Paperbark+Street%2C+Banks+ACT/
241,2906,Banks,81,https://www.auhouseprices.com/sold/list/ACT/2906/Banks/,5 Mathews Place ,-35.4712070,149.0986340,house,3,1,2,"$450,000",https://www.auhouseprices.com/sold/view/ACT/341516098/5+Mathews+Place%2C+Banks+ACT/
242,2906,Banks,81,https://www.auhouseprices.com/sold/list/ACT/2906/Banks/,85 Forsythe Street ,-35.4737380,149.1018800,house,4,2,2,"$715,000",https://www.auhouseprices.com/sold/view/ACT/341800528/85+Forsythe+Street%2C+Banks+ACT/
243,2906,Banks,81,https://www.auhouseprices.com/sold/list/ACT/2906/Banks/,12/39 Thomas Hart St ,-35.4660310,149.0977650,townhouse,3,2,1,"$405,000",https://www.auhouseprices.com/sold/view/ACT/341991708/12-39+Thomas+Hart+St%2C+Banks+ACT/
244,2906,Banks,81,https://www.auhouseprices.com/sold/list/ACT/2906/Banks/,2/2 McLuckie Crescent ,-35.4663740,149.0996120,house,3,1,2,"$380,000",https://www.auhouseprices.com/sold/view/ACT/341110539/2-2+McLuckie+Crescent%2C+Banks+ACT/
245,2906,Banks,81,https://www.auhouseprices.com/sold/list/ACT/2906/Banks/,7/3 Peron Place ,-35.4766530,149.0939820,townhouse,3,1,2,"$337,000",https://www.auhouseprices.com/sold/view/ACT/341312998/7-3+Peron+Place%2C+Banks+ACT/
246,2906,Banks,81,https://www.auhouseprices.com/sold/list/ACT/2906/Banks/,48 Tregellas Crescent ,-35.4687560,149.0961710,house,5,2,2,"$650,000",https://www.auhouseprices.com/sold/view/ACT/341168669/48+Tregellas+Crescent%2C+Banks+ACT/
247,2906,Banks,81,https://www.auhouseprices.com/sold/list/ACT/2906/Banks/,31 Brittlebank Circuit ,-35.4686760,149.1023710,house,4,2,2,"$565,000",https://www.auhouseprices.com/sold/view/ACT/341101998/31+Brittlebank+Circuit%2C+Banks+ACT/
248,2906,Banks,81,https://www.auhouseprices.com/sold/list/ACT/2906/Banks/,50 Reader Court ,-35.4708750,149.0930110,house,3,1,1,"$419,000",https://www.auhouseprices.com/sold/view/ACT/341560898/50+Reader+Court%2C+Banks+ACT/
249,2906,Banks,81,https://www.auhouseprices.com/sold/list/ACT/2906/Banks/,15/35 Brockway Circuit ,-35.4719710,149.0948500,townhouse,3,2,2,"$435,000",https://www.auhouseprices.com/sold/view/ACT/341915798/15-35+Brockway+Circuit%2C+Banks+ACT/
250,2906,Banks,81,https://www.auhouseprices.com/sold/list/ACT/2906/Banks/,25 Alison Ashby Crescent ,-35.4761930,149.1031850,house,4,3,4,"$855,000",https://www.auhouseprices.com/sold/view/ACT/341563798/25+Alison+Ashby+Crescent%2C+Banks+ACT/
251,2906,Banks,81,https://www.auhouseprices.com/sold/list/ACT/2906/Banks/,27 Reader Court ,-35.4719760,149.0917390,house,3,1,2,"$435,000",https://www.auhouseprices.com/sold/view/ACT/341657698/27+Reader+Court%2C+Banks+ACT/
252,2906,Banks,81,https://www.auhouseprices.com/sold/list/ACT/2906/Banks/,15/3 Peron Place ,-35.4766530,149.0939820,townhouse,3,1,1,"$350,000",https://www.auhouseprices.com/sold/view/ACT/341768098/15-3+Peron+Place%2C+Banks+ACT/
253,2906,Banks,81,https://www.auhouseprices.com/sold/list/ACT/2906/Banks/,7 Stead Place ,-35.4732600,149.0995200,house,4,2,2,"$635,000",https://www.auhouseprices.com/sold/view/ACT/341586598/7+Stead+Place%2C+Banks+ACT/
254,2906,Banks,81,https://www.auhouseprices.com/sold/list/ACT/2906/Banks/,21 Paperbark Street ,-35.4688560,149.1051500,house,4,3,2,"$725,000",https://www.auhouseprices.com/sold/view/ACT/341739388/21+Paperbark+Street%2C+Banks+ACT/
255,2906,Banks,81,https://www.auhouseprices.com/sold/list/ACT/2906/Banks/,40 Forsythe Street ,-35.4759290,149.0987180,house,3,1,2,"$400,000",https://www.auhouseprices.com/sold/view/ACT/341176388/40+Forsythe++Street%2C+Banks+ACT/
256,2906,Banks,81,https://www.auhouseprices.com/sold/list/ACT/2906/Banks/,3/48 Betty Maloney Crescent ,-35.4706380,149.0953720,townhouse,3,2,2,"$455,000",https://www.auhouseprices.com/sold/view/ACT/341694388/3-48+Betty+Maloney+Crescent%2C+Banks+ACT/
257,2906,Banks,81,https://www.auhouseprices.com/sold/list/ACT/2906/Banks/,8 Adcock Place ,-35.4694170,149.1034530,house,3,1,2,"$493,000",https://www.auhouseprices.com/sold/view/ACT/341773388/8+Adcock+Place%2C+Banks+ACT/
258,2906,Banks,81,https://www.auhouseprices.com/sold/list/ACT/2906/Banks/,9 Reader Court ,-35.4726700,149.0919580,house,3,1,1,"$410,000",https://www.auhouseprices.com/sold/view/ACT/341044388/9+Reader+Court%2C+Banks+ACT/
259,2906,Banks,81,https://www.auhouseprices.com/sold/list/ACT/2906/Banks/,2 Smeaton Circuit ,-35.4744580,149.0957680,duplex-semi-detached,2,1,1,,https://www.auhouseprices.com/sold/view/ACT/341896288/2+Smeaton+Circuit%2C+Banks+ACT/
260,2906,Banks,81,https://www.auhouseprices.com/sold/list/ACT/2906/Banks/,7 Olive Pink Crescent ,-35.4762840,149.1019430,house,4,2,2,,https://www.auhouseprices.com/sold/view/ACT/341702188/7+Olive+Pink+Crescent%2C+Banks+ACT/
261,2906,Banks,81,https://www.auhouseprices.com/sold/list/ACT/2906/Banks/,11 Galbraith Close ,-35.4721300,149.1045000,house,5,3,2,"$880,000",https://www.auhouseprices.com/sold/view/ACT/341595988/11+Galbraith+Close%2C+Banks+ACT/
262,2906,Banks,81,https://www.auhouseprices.com/sold/list/ACT/2906/Banks/,32 Troughton Street ,-35.4721310,149.1008010,house,3,1,1,"$469,000",https://www.auhouseprices.com/sold/view/ACT/341245088/32+Troughton+Street%2C+Banks+ACT/
263,2906,Banks,81,https://www.auhouseprices.com/sold/list/ACT/2906/Banks/,2/41 Wilson Crescent ,-35.4726030,149.1006930,townhouse,3,1,1,,https://www.auhouseprices.com/sold/view/ACT/341768888/2-41+Wilson+Crescent%2C+Banks+ACT/
264,2906,Banks,81,https://www.auhouseprices.com/sold/list/ACT/2906/Banks/,4 Prentice Place ,-35.4664080,149.0988160,house,3,1,2,"$440,000",https://www.auhouseprices.com/sold/view/ACT/341058588/4+Prentice+Place%2C+Banks+ACT/
265,2906,Banks,81,https://www.auhouseprices.com/sold/list/ACT/2906/Banks/,5 Wittunga Crescent ,-35.4774390,149.1018580,house,4,2,2,"$710,000",https://www.auhouseprices.com/sold/view/ACT/341863688/5+Wittunga+Crescent%2C+Banks+ACT/
266,2906,Banks,81,https://www.auhouseprices.com/sold/list/ACT/2906/Banks/,27 Galbraith Close ,-35.4736870,149.1036060,house,6,3,3,"$970,000",https://www.auhouseprices.com/sold/view/ACT/341959669/27+Galbraith+Close%2C+Banks+ACT/
267,2906,Banks,81,https://www.auhouseprices.com/sold/list/ACT/2906/Banks/,4 Betty Maloney Crescent ,-35.4721190,149.0941020,house,4,2,2,"$620,000",https://www.auhouseprices.com/sold/view/ACT/341770378/4+Betty+Maloney+Crescent%2C+Banks+ACT/
268,2906,Banks,81,https://www.auhouseprices.com/sold/list/ACT/2906/Banks/,5 Olive Pink Crescent ,-35.4761140,149.1017980,house,5,2,2,"$710,000",https://www.auhouseprices.com/sold/view/ACT/341312378/5+Olive+Pink+Crescent%2C+Banks+ACT/
269,2906,Banks,81,https://www.auhouseprices.com/sold/list/ACT/2906/Banks/,10/6 Kettlewell Crescent ,-35.4689520,149.1062500,townhouse,3,2,2,"$460,000",https://www.auhouseprices.com/sold/view/ACT/341422988/10-6+Kettlewell+Crescent%2C+Banks+ACT/
270,2906,Banks,81,https://www.auhouseprices.com/sold/list/ACT/2906/Banks/,13 Paperbark Street ,-35.4685500,149.1059220,house,3,2,2,"$556,000",https://www.auhouseprices.com/sold/view/ACT/341936278/13+Paperbark+Street%2C+Banks+ACT/
271,2906,Banks,81,https://www.auhouseprices.com/sold/list/ACT/2906/Banks/,49 Wilhelmi Crescent ,-35.4653710,149.0973250,house,3,1,4,"$433,000",https://www.auhouseprices.com/sold/view/ACT/341692278/49+Wilhelmi+Crescent%2C+Banks+ACT/
272,2906,Banks,81,https://www.auhouseprices.com/sold/list/ACT/2906/Banks/,4/41 Bellchambers Crescent ,-35.4766220,149.0968260,house,3,2,2,"$464,500",https://www.auhouseprices.com/sold/view/ACT/341804278/4-41+Bellchambers+Crescent%2C+Banks+ACT/
273,2906,Banks,81,https://www.auhouseprices.com/sold/list/ACT/2906/Banks/,15 Ironbark Crescent ,-35.4680300,149.0985750,house,3,1,2,"$448,000",https://www.auhouseprices.com/sold/view/ACT/341276078/15+Ironbark+Crescent%2C+Banks+ACT/
274,2906,Banks,81,https://www.auhouseprices.com/sold/list/ACT/2906/Banks/,3 Hill Place ,-35.4722030,149.0985210,house,2,1,2,"$400,000",https://www.auhouseprices.com/sold/view/ACT/341657078/3+Hill+Place%2C+Banks+ACT/
275,2906,Banks,81,https://www.auhouseprices.com/sold/list/ACT/2906/Banks/,2 Littler Place ,-35.4719640,149.0995260,house,3,1,0,"$390,000",https://www.auhouseprices.com/sold/view/ACT/341372078/2+Littler+Place%2C+Banks+ACT/
276,2906,Banks,81,https://www.auhouseprices.com/sold/list/ACT/2906/Banks/,36 Bellchambers Crescent ,-35.4765900,149.0957230,house,4,2,2,"$645,000",https://www.auhouseprices.com/sold/view/ACT/341331078/36+Bellchambers+Crescent%2C+Banks+ACT/
277,2906,Banks,81,https://www.auhouseprices.com/sold/list/ACT/2906/Banks/,5/8 Wilson Crescent ,-35.4720340,149.0978830,townhouse,3,1,2,"$360,000",https://www.auhouseprices.com/sold/view/ACT/341419978/5-8+Wilson+Crescent%2C+Banks+ACT/
278,2906,Banks,81,https://www.auhouseprices.com/sold/list/ACT/2906/Banks/,5 Osborn Place ,-35.4757930,149.0930020,house,3,2,3,"$460,000",https://www.auhouseprices.com/sold/view/ACT/341412978/5+Osborn+Place%2C+Banks+ACT/
279,2906,Banks,81,https://www.auhouseprices.com/sold/list/ACT/2906/Banks/,9 Abercrombie Circuit ,-35.4654610,149.0932610,house,3,1,0,"$408,000",https://www.auhouseprices.com/sold/view/ACT/341916878/9+Abercrombie+Circuit%2C+Banks+ACT/
280,2906,Banks,81,https://www.auhouseprices.com/sold/list/ACT/2906/Banks/,16 Alison Ashby Crescent ,-35.4755220,149.1030090,house,4,2,2,"$823,000",https://www.auhouseprices.com/sold/view/ACT/341327778/16+Alison+Ashby+Crescent%2C+Banks+ACT/
281,2906,Banks,81,https://www.auhouseprices.com/sold/list/ACT/2906/Banks/,20 Kettlewell Crescent ,-35.4696030,149.1060900,house,4,2,2,"$600,000",https://www.auhouseprices.com/sold/view/ACT/341276578/20+Kettlewell+Crescent%2C+Banks+ACT/
282,2906,Banks,81,https://www.auhouseprices.com/sold/list/ACT/2906/Banks/,18 Cookson Place ,-35.4782780,149.1023810,house,4,2,2,"$800,000",https://www.auhouseprices.com/sold/view/ACT/341695468/18+Cookson+Place%2C+Banks+ACT/
283,2906,Banks,81,https://www.auhouseprices.com/sold/list/ACT/2906/Banks/,38 Galbraith Close ,-35.4747030,149.1033720,house,4,2,2,"$875,999",https://www.auhouseprices.com/sold/view/ACT/341384578/38+Galbraith+Close%2C+Banks+ACT/
284,2906,Banks,81,https://www.auhouseprices.com/sold/list/ACT/2906/Banks/,45A 45A Bellchambers Crescent ,-35.4769910,149.0968670,house,3,1,1,,https://www.auhouseprices.com/sold/view/ACT/341534468/45A++45A+Bellchambers+Crescent%2C+Banks+ACT/
285,2906,Banks,81,https://www.auhouseprices.com/sold/list/ACT/2906/Banks/,27 Smeaton Circuit ,-35.4740310,149.0981210,house,3,1,2,"$375,000",https://www.auhouseprices.com/sold/view/ACT/341827368/27+Smeaton+Circuit%2C+Banks+ACT/
286,2906,Banks,81,https://www.auhouseprices.com/sold/list/ACT/2906/Banks/,24 Abercrombie Circuit ,-35.4647790,149.0924940,house,3,2,1,,https://www.auhouseprices.com/sold/view/ACT/341859268/24+Abercrombie+Circuit%2C+Banks+ACT/
287,2906,Banks,81,https://www.auhouseprices.com/sold/list/ACT/2906/Banks/,9 Wheelwright Crescent ,-35.4709410,149.1017950,house,3,2,6,"$510,000",https://www.auhouseprices.com/sold/view/ACT/341922168/9+Wheelwright+Crescent%2C+Banks+ACT/
288,2906,Banks,81,https://www.auhouseprices.com/sold/list/ACT/2906/Banks/,10/39 Thomas Hart Street ,-35.4660310,149.0977650,townhouse,3,2,1,"$369,000",https://www.auhouseprices.com/sold/view/ACT/341143168/10-39+Thomas+Hart+Street%2C+Banks+ACT/
289,2906,Banks,81,https://www.auhouseprices.com/sold/list/ACT/2906/Banks/,38 Olive Pink Crescent ,-35.4781470,149.0992800,house,4,2,2,"$632,000",https://www.auhouseprices.com/sold/view/ACT/341988669/38+Olive+Pink+Crescent%2C+Banks+ACT/
290,2906,Banks,81,https://www.auhouseprices.com/sold/list/ACT/2906/Banks/,14 House Circuit ,-35.4674400,149.0931620,house,3,1,2,"$445,500",https://www.auhouseprices.com/sold/view/ACT/341519168/14+House+Circuit%2C+Banks+ACT/
291,2906,Banks,81,https://www.auhouseprices.com/sold/list/ACT/2906/Banks/,52 House Circuit ,-35.4683660,149.0923150,house,3,1,1,"$435,000",https://www.auhouseprices.com/sold/view/ACT/341148968/52+House+Circuit%2C+Banks+ACT/
292,2906,Banks,81,https://www.auhouseprices.com/sold/list/ACT/2906/Banks/,37 Wilson Crescent ,-35.4723450,149.1004900,house,3,1,2,"$465,000",https://www.auhouseprices.com/sold/view/ACT/341288669/37+Wilson+Crescent%2C+Banks+ACT/
293,2906,Banks,81,https://www.auhouseprices.com/sold/list/ACT/2906/Banks/,9/27 Paperbark Street ,-35.4693450,149.1053200,townhouse,4,2,2,"$450,000",https://www.auhouseprices.com/sold/view/ACT/341744768/9-27+Paperbark++Street%2C+Banks+ACT/
294,2906,Banks,81,https://www.auhouseprices.com/sold/list/ACT/2906/Banks/,3/7 Youl Court ,-35.4704780,149.1007800,townhouse,3,1,1,"$320,000",https://www.auhouseprices.com/sold/view/ACT/341565668/3-7++Youl+Court%2C+Banks+ACT/
295,2906,Banks,81,https://www.auhouseprices.com/sold/list/ACT/2906/Banks/,53 Forsythe Street ,-35.4762070,149.0999160,house,4,2,2,,https://www.auhouseprices.com/sold/view/ACT/341577668/53+Forsythe+Street%2C+Banks+ACT/
296,2906,Banks,81,https://www.auhouseprices.com/sold/list/ACT/2906/Banks/,15 Smeaton Circuit ,-35.4736950,149.0965120,house,4,2,2,"$537,500",https://www.auhouseprices.com/sold/view/ACT/341867668/15+Smeaton++Circuit%2C+Banks+ACT/
297,2906,Banks,81,https://www.auhouseprices.com/sold/list/ACT/2906/Banks/,56 Reader Court ,-35.4708760,149.0925790,house,3,1,1,"$395,000",https://www.auhouseprices.com/sold/view/ACT/341419568/56++Reader++Court%2C+Banks+ACT/
298,2906,Banks,81,https://www.auhouseprices.com/sold/list/ACT/2906/Banks/,26/3 Peron Place ,-35.4761400,149.0934800,townhouse,3,2,2,"$400,000",https://www.auhouseprices.com/sold/view/ACT/341019669/26-3+Peron+Place%2C+Banks+ACT/
299,2906,Banks,81,https://www.auhouseprices.com/sold/list/ACT/2906/Banks/,21 Wittunga Crescent ,-35.4789330,149.1021880,house,5,2,2,"$762,000",https://www.auhouseprices.com/sold/view/ACT/341630358/21+Wittunga+Crescent%2C+Banks+ACT/
300,2906,Banks,81,https://www.auhouseprices.com/sold/list/ACT/2906/Banks/,1 Tregellas Crescent ,-35.4677670,149.0950780,house,3,1,2,"$440,500",https://www.auhouseprices.com/sold/view/ACT/341119968/1+Tregellas+Crescent%2C+Banks+ACT/
301,2906,Banks,81,https://www.auhouseprices.com/sold/list/ACT/2906/Banks/,33 Reader Court ,-35.4715150,149.0918680,house,3,1,2,"$400,000",https://www.auhouseprices.com/sold/view/ACT/341667258/33+Reader++Court%2C+Banks+ACT/
302,2906,Banks,81,https://www.auhouseprices.com/sold/list/ACT/2906/Banks/,28 Pockett Avenue ,-35.4667770,149.0941420,house,3,1,1,"$422,000",https://www.auhouseprices.com/sold/view/ACT/341512458/28+Pockett+Avenue%2C+Banks+ACT/
303,2906,Banks,81,https://www.auhouseprices.com/sold/list/ACT/2906/Banks/,62 Paperbark Street ,-35.4724890,149.1028330,house,5,4,3,"$835,000",https://www.auhouseprices.com/sold/view/ACT/341717258/62+Paperbark+Street%2C+Banks+ACT/
304,2906,Banks,81,https://www.auhouseprices.com/sold/list/ACT/2906/Banks/,54 Pockett Avenue ,-35.4687640,149.0965070,house,4,2,2,"$547,000",https://www.auhouseprices.com/sold/view/ACT/341933258/54+Pockett+Avenue%2C+Banks+ACT/
305,2906,Banks,81,https://www.auhouseprices.com/sold/list/ACT/2906/Banks/,1/7 Youl Court ,-35.4704770,149.1007850,townhouse,3,1,1,"$375,000",https://www.auhouseprices.com/sold/view/ACT/341303158/1-7+Youl+Court%2C+Banks+ACT/
306,2906,Banks,81,https://www.auhouseprices.com/sold/list/ACT/2906/Banks/,18 Thomas Hart Street ,-35.4660130,149.0964950,house,3,1,1,,https://www.auhouseprices.com/sold/view/ACT/341505058/18+Thomas+Hart++Street%2C+Banks+ACT/
307,2906,Banks,81,https://www.auhouseprices.com/sold/list/ACT/2906/Banks/,7 Reader Court ,-35.4725790,149.0920620,house,3,1,2,"$411,500",https://www.auhouseprices.com/sold/view/ACT/341402058/7+Reader+Court%2C+Banks+ACT/
308,2906,Banks,81,https://www.auhouseprices.com/sold/list/ACT/2906/Banks/,20 Wilson Crescent ,-35.4717860,149.0992560,house,3,1,2,"$455,000",https://www.auhouseprices.com/sold/view/ACT/341309669/20+Wilson+Crescent%2C+Banks+ACT/
309,2906,Banks,81,https://www.auhouseprices.com/sold/list/ACT/2906/Banks/,25 Pockett Avenue ,-35.4665520,149.0948220,house,4,2,2,"$525,000",https://www.auhouseprices.com/sold/view/ACT/341748669/25+Pockett+Avenue%2C+Banks+ACT/
310,2906,Banks,81,https://www.auhouseprices.com/sold/list/ACT/2906/Banks/,7 Orange Thorn Crescent ,-35.4698330,149.1079700,house,4,2,2,"$715,000",https://www.auhouseprices.com/sold/view/ACT/341318558/7+Orange+Thorn+Crescent%2C+Banks+ACT/
311,2906,Banks,81,https://www.auhouseprices.com/sold/list/ACT/2906/Banks/,7 Wiburd Street ,-35.4674350,149.1008060,house,3,1,1,,https://www.auhouseprices.com/sold/view/ACT/341339448/7+Wiburd+Street%2C+Banks+ACT/
312,2906,Banks,81,https://www.auhouseprices.com/sold/list/ACT/2906/Banks/,5/94 Pockett Avenue ,-35.4720730,149.0957490,townhouse,3,2,2,,https://www.auhouseprices.com/sold/view/ACT/341048669/5-94+Pockett+Avenue%2C+Banks+ACT/
313,2906,Banks,81,https://www.auhouseprices.com/sold/list/ACT/2906/Banks/,8/94 Pockett Avenue ,-35.4720730,149.0957490,apartment,3,2,2,,https://www.auhouseprices.com/sold/view/ACT/341628669/8-94+Pockett+Avenue%2C+Banks+ACT/
314,2906,Banks,81,https://www.auhouseprices.com/sold/list/ACT/2906/Banks/,1/94 Pockett Avenue ,-35.4720730,149.0957490,townhouse,3,2,2,,https://www.auhouseprices.com/sold/view/ACT/341338669/1-94+Pockett+Avenue%2C+Banks+ACT/
315,2906,Banks,81,https://www.auhouseprices.com/sold/list/ACT/2906/Banks/,9 White Place ,-35.4731290,149.0944610,house,3,1,1,"$395,000",https://www.auhouseprices.com/sold/view/ACT/341628248/9+White+Place%2C+Banks+ACT/
316,2906,Banks,81,https://www.auhouseprices.com/sold/list/ACT/2906/Banks/,40 Betty Maloney Crescent ,-35.4706380,149.0953720,townhouse,3,2,2,"$460,000",https://www.auhouseprices.com/sold/view/ACT/341047048/40+Betty+Maloney+Crescent%2C+Banks+ACT/
317,2906,Banks,81,https://www.auhouseprices.com/sold/list/ACT/2906/Banks/,20 Olive Pink Crescent ,-35.4776860,149.1002310,house,5,3,2,"$720,000",https://www.auhouseprices.com/sold/view/ACT/341145948/20+Olive+Pink+Crescent%2C+Banks+ACT/
318,2906,Banks,81,https://www.auhouseprices.com/sold/list/ACT/2906/Banks/,7 Nernst Place ,-35.4663180,149.0951800,townhouse,3,1,1,,https://www.auhouseprices.com/sold/view/ACT/341839669/7+Nernst+Place%2C+Banks+ACT/
319,2906,Banks,81,https://www.auhouseprices.com/sold/list/ACT/2906/Banks/,2 Perrin Circuit ,-35.4670230,149.0952020,house,4,1,0,"$580,000",https://www.auhouseprices.com/sold/view/ACT/341376848/2+Perrin+Circuit%2C+Banks+ACT/
320,2906,Banks,81,https://www.auhouseprices.com/sold/list/ACT/2906/Banks/,2 West Place ,-35.4752810,149.1000740,house,3,1,1,"$390,000",https://www.auhouseprices.com/sold/view/ACT/341961848/2+West+Place%2C+Banks+ACT/
321,2906,Banks,81,https://www.auhouseprices.com/sold/list/ACT/2906/Banks/,7 Betty Maloney Crescent ,-35.4718240,149.0935960,house,4,2,2,"$555,000",https://www.auhouseprices.com/sold/view/ACT/341868669/7+Betty+Maloney+Crescent%2C+Banks+ACT/
322,2906,Banks,81,https://www.auhouseprices.com/sold/list/ACT/2906/Banks/,28 Brittlebank Circuit ,-35.4682790,149.1021190,house,3,2,4,,https://www.auhouseprices.com/sold/view/ACT/341346148/28+Brittlebank+Circuit%2C+Banks+ACT/
323,2906,Banks,81,https://www.auhouseprices.com/sold/list/ACT/2906/Banks/,46 Reader Court ,-35.4708850,149.0933050,house,3,1,1,"$405,000",https://www.auhouseprices.com/sold/view/ACT/341139669/46+Reader+Court%2C+Banks+ACT/
324,2906,Banks,81,https://www.auhouseprices.com/sold/list/ACT/2906/Banks/,17 Thomas Hart Street ,-35.4654500,149.0958820,house,3,2,1,"$408,000",https://www.auhouseprices.com/sold/view/ACT/341893648/17+Thomas+Hart+Street%2C+Banks+ACT/
325,2906,Banks,81,https://www.auhouseprices.com/sold/list/ACT/2906/Banks/,1 Zeitz Court ,-35.4748280,149.0925910,house,3,1,1,"$434,500",https://www.auhouseprices.com/sold/view/ACT/341458669/1+Zeitz+Court%2C+Banks+ACT/
326,2906,Banks,81,https://www.auhouseprices.com/sold/list/ACT/2906/Banks/,2 Peron Place ,-35.4757140,149.0934770,house,3,1,1,"$360,000",https://www.auhouseprices.com/sold/view/ACT/341811648/2+Peron+Place%2C+Banks+ACT/
327,2906,Banks,81,https://www.auhouseprices.com/sold/list/ACT/2906/Banks/,2 Peron Place ,-35.4757140,149.0934770,house,3,1,1,"$360,000",https://www.auhouseprices.com/sold/view/ACT/341624268/2+Peron+Place%2C+Banks+ACT/
328,2906,Banks,81,https://www.auhouseprices.com/sold/list/ACT/2906/Banks/,13/6 Kettlewell Crescent ,-35.4689520,149.1062500,townhouse,3,2,2,"$410,000",https://www.auhouseprices.com/sold/view/ACT/341428548/13-6+Kettlewell+Crescent%2C+Banks+ACT/
329,2906,Banks,81,https://www.auhouseprices.com/sold/list/ACT/2906/Banks/,5/6 Kettlewell Crescent ,-35.4689520,149.1062500,townhouse,3,2,2,"$440,000",https://www.auhouseprices.com/sold/view/ACT/341578669/5-6+Kettlewell+Crescent%2C+Banks+ACT/
330,2906,Banks,81,https://www.auhouseprices.com/sold/list/ACT/2906/Banks/,5A Mattingley Court ,-35.4766150,149.0976120,house,3,1,2,"$350,000",https://www.auhouseprices.com/sold/view/ACT/341905548/5A+Mattingley+Court%2C+Banks+ACT/
331,2906,Banks,81,https://www.auhouseprices.com/sold/list/ACT/2906/Banks/,13 Orange Thorn Crescent ,-35.4704590,149.1078100,house,4,3,3,"$825,000",https://www.auhouseprices.com/sold/view/ACT/341573238/13+Orange+Thorn+Crescent%2C+Banks+ACT/
332,2906,Banks,81,https://www.auhouseprices.com/sold/list/ACT/2906/Banks/,15 Reader Court ,-35.4722280,149.0917710,house,3,1,2,"$372,500",https://www.auhouseprices.com/sold/view/ACT/341453238/15+Reader+Court%2C+Banks+ACT/
333,2906,Banks,81,https://www.auhouseprices.com/sold/list/ACT/2906/Banks/,55 Smeaton Circuit ,-35.4759230,149.0999960,house,5,2,2,"$660,000",https://www.auhouseprices.com/sold/view/ACT/341598938/55+Smeaton+Circuit%2C+Banks+ACT/
334,2906,Banks,81,https://www.auhouseprices.com/sold/list/ACT/2906/Banks/,39 House Circuit ,-35.4681250,149.0932310,house,3,1,1,"$386,000",https://www.auhouseprices.com/sold/view/ACT/341549669/39+House+Circuit%2C+Banks+ACT/
335,2906,Banks,81,https://www.auhouseprices.com/sold/list/ACT/2906/Banks/,38 McLuckie Crescent ,-35.4676630,149.0993980,house,3,1,2,"$435,000",https://www.auhouseprices.com/sold/view/ACT/341181938/38+McLuckie+Crescent%2C+Banks+ACT/
336,2906,Banks,81,https://www.auhouseprices.com/sold/list/ACT/2906/Banks/,89 Pockett Avenue ,-35.4723450,149.0965280,house,3,1,2,"$421,000",https://www.auhouseprices.com/sold/view/ACT/341152938/89+Pockett+Avenue%2C+Banks+ACT/
337,2906,Banks,81,https://www.auhouseprices.com/sold/list/ACT/2906/Banks/,4 Angell Place ,-35.4676180,149.1039950,house,4,2,2,"$665,000",https://www.auhouseprices.com/sold/view/ACT/341018548/4+Angell+Place%2C+Banks+ACT/
338,2906,Banks,81,https://www.auhouseprices.com/sold/list/ACT/2906/Banks/,16 Orange Thorn Crescent ,-35.4709060,149.1063130,house,4,2,3,"$855,000",https://www.auhouseprices.com/sold/view/ACT/341910838/16+Orange+Thorn+Crescent%2C+Banks+ACT/
339,2906,Banks,81,https://www.auhouseprices.com/sold/list/ACT/2906/Banks/,12/6 Kettlewell Crescent ,-35.4689520,149.1062500,townhouse,3,2,2,"$450,000",https://www.auhouseprices.com/sold/view/ACT/341922838/12-6+Kettlewell+Crescent%2C+Banks+ACT/
340,2906,Banks,81,https://www.auhouseprices.com/sold/list/ACT/2906/Banks/,6/23 Youl Court ,-35.4699830,149.1015540,townhouse,3,1,1,"$315,000",https://www.auhouseprices.com/sold/view/ACT/341319638/6-23+Youl+Court%2C+Banks+ACT/
341,2906,Banks,81,https://www.auhouseprices.com/sold/list/ACT/2906/Banks/,2/7-9 Troughton Street ,-35.4705640,149.0995030,townhouse,2,1,1,"$297,000",https://www.auhouseprices.com/sold/view/ACT/341696638/2-7-9+Troughton+Street%2C+Banks+ACT/
342,2906,Banks,81,https://www.auhouseprices.com/sold/list/ACT/2906/Banks/,6/8 Wilson Crescent ,-35.4720340,149.0978830,townhouse,3,1,2,"$355,000",https://www.auhouseprices.com/sold/view/ACT/341461638/6-8+Wilson+Crescent%2C+Banks+ACT/
343,2906,Banks,81,https://www.auhouseprices.com/sold/list/ACT/2906/Banks/,54 Wiburd Street ,-35.4696610,149.0990390,house,3,1,1,"$380,000",https://www.auhouseprices.com/sold/view/ACT/341294538/54+Wiburd+Street%2C+Banks+ACT/
344,2906,Banks,81,https://www.auhouseprices.com/sold/list/ACT/2906/Banks/,13 Mathews Place ,-35.4706960,149.0983410,house,3,1,1,"$355,000",https://www.auhouseprices.com/sold/view/ACT/341270538/13+Mathews+Place%2C+Banks+ACT/
345,2906,Banks,81,https://www.auhouseprices.com/sold/list/ACT/2906/Banks/,6 Bastow Circuit ,-35.4661350,149.0933410,house,3,1,2,"$355,500",https://www.auhouseprices.com/sold/view/ACT/341108527/6+Bastow+Circuit%2C+Banks+ACT/
346,2906,Banks,81,https://www.auhouseprices.com/sold/list/ACT/2906/Banks/,3 Littler Crescent ,-35.4723760,149.0995900,house,3,2,1,,https://www.auhouseprices.com/sold/view/ACT/341683327/3+Littler+Crescent%2C+Banks+ACT/
347,2906,Banks,81,https://www.auhouseprices.com/sold/list/ACT/2906/Banks/,16 Mathews Place ,-35.4703990,149.0988600,house,4,2,4,"$490,000",https://www.auhouseprices.com/sold/view/ACT/341616727/16+Mathews+Place%2C+Banks+ACT/
348,2906,Banks,81,https://www.auhouseprices.com/sold/list/ACT/2906/Banks/,79 Forsythe Street ,-35.4741870,149.1013250,house,5,2,2,"$735,000",https://www.auhouseprices.com/sold/view/ACT/341642827/79+Forsythe+Street%2C+Banks+ACT/
349,2906,Banks,81,https://www.auhouseprices.com/sold/list/ACT/2906/Banks/,32 Wiburd Street ,-35.4685630,149.0999950,house,3,1,1,"$390,000",https://www.auhouseprices.com/sold/view/ACT/341206727/32+Wiburd+Street%2C+Banks+ACT/
350,2906,Banks,81,https://www.auhouseprices.com/sold/list/ACT/2906/Banks/,44 Wiburd Street ,-35.4693200,149.0997690,house,3,1,1,"$357,500",https://www.auhouseprices.com/sold/view/ACT/341554227/44+Wiburd+Street%2C+Banks+ACT/
351,2906,Banks,81,https://www.auhouseprices.com/sold/list/ACT/2906/Banks/,3 Bate Place ,-35.4689870,149.1031500,house,3,1,4,"$416,000",https://www.auhouseprices.com/sold/view/ACT/341607417/3+Bate+Place%2C+Banks+ACT/
352,2906,Banks,81,https://www.auhouseprices.com/sold/list/ACT/2906/Banks/,20 Wilhelmi Crescent ,-35.4652440,149.0962500,house,3,1,3,"$368,000",https://www.auhouseprices.com/sold/view/ACT/341559117/20+Wilhelmi+Crescent%2C+Banks+ACT/
353,2906,Banks,81,https://www.auhouseprices.com/sold/list/ACT/2906/Banks/,121 Pockett Avenue ,-35.4741670,149.0940400,house,3,1,2,"$364,000",https://www.auhouseprices.com/sold/view/ACT/341636917/121+Pockett+Avenue%2C+Banks+ACT/
354,2906,Banks,81,https://www.auhouseprices.com/sold/list/ACT/2906/Banks/,18 Smeaton Circuit ,-35.4741500,149.0975600,house,5,3,2,"$565,000",https://www.auhouseprices.com/sold/view/ACT/341638117/18+Smeaton+Circuit%2C+Banks+ACT/
355,2906,Banks,81,https://www.auhouseprices.com/sold/list/ACT/2906/Banks/,27 Mcluckie Crescent ,-35.4672000,149.0989400,house,3,1,2,"$368,500",https://www.auhouseprices.com/sold/view/ACT/341603817/27+Mcluckie+Crescent%2C+Banks+ACT/
356,2906,Banks,81,https://www.auhouseprices.com/sold/list/ACT/2906/Banks/,8 Booderee Place ,-35.4793600,149.1001100,house,4,3,2,"$830,000",https://www.auhouseprices.com/sold/view/ACT/341058617/8+Booderee+Place%2C+Banks+ACT/
357,2906,Banks,81,https://www.auhouseprices.com/sold/list/ACT/2906/Banks/,19 Betty Maloney Crescent ,-35.4709800,149.0936000,house,4,2,2,"$560,000",https://www.auhouseprices.com/sold/view/ACT/341895617/19+Betty+Maloney+Crescent%2C+Banks+ACT/
358,2906,Banks,81,https://www.auhouseprices.com/sold/list/ACT/2906/Banks/,8 Zietz Court ,-35.4740520,149.0931000,house,3,1,2,"$402,600",https://www.auhouseprices.com/sold/view/ACT/341249717/8+Zietz+Court%2C+Banks+ACT/
359,2906,Banks,81,https://www.auhouseprices.com/sold/list/ACT/2906/Banks/,22 Wiburd Street ,-35.4679870,149.0999300,house,3,1,2,"$399,000",https://www.auhouseprices.com/sold/view/ACT/341908717/22+Wiburd+Street%2C+Banks+ACT/
360,2906,Banks,81,https://www.auhouseprices.com/sold/list/ACT/2906/Banks/,5 Prentice Place ,-35.4662130,149.0982400,house,3,1,0,"$385,000",https://www.auhouseprices.com/sold/view/ACT/341456617/5+Prentice+Place%2C+Banks+ACT/
361,2906,Banks,81,https://www.auhouseprices.com/sold/list/ACT/2906/Banks/,5 Opal Street ,-35.4710770,149.0944500,house,4,2,2,"$477,500",https://www.auhouseprices.com/sold/view/ACT/341979417/5+Opal+Street%2C+Banks+ACT/
362,2906,Banks,81,https://www.auhouseprices.com/sold/list/ACT/2906/Banks/,49 Smeaton Circuit ,-35.4753300,149.1006000,house,3,1,1,"$414,000",https://www.auhouseprices.com/sold/view/ACT/341391507/49+Smeaton+Circuit%2C+Banks+ACT/
363,2906,Banks,81,https://www.auhouseprices.com/sold/list/ACT/2906/Banks/,24 House Circuit ,-35.4673160,149.0922400,house,3,1,1,"$375,000",https://www.auhouseprices.com/sold/view/ACT/341828307/24+House+Circuit%2C+Banks+ACT/
364,2906,Banks,81,https://www.auhouseprices.com/sold/list/ACT/2906/Banks/,20 Kettlewell Crescent ,-35.4696040,149.1061000,house,4,2,2,"$596,000",https://www.auhouseprices.com/sold/view/ACT/341476307/20+Kettlewell+Crescent%2C+Banks+ACT/
365,2906,Banks,81,https://www.auhouseprices.com/sold/list/ACT/2906/Banks/,57a Bellchambers Crescent ,-35.4774550,149.0981300,other,3,1,2,"$348,000",https://www.auhouseprices.com/sold/view/ACT/341240407/57a+Bellchambers+Crescent%2C+Banks+ACT/
366,2906,Banks,81,https://www.auhouseprices.com/sold/list/ACT/2906/Banks/,8 Smeaton Circuit ,-35.4741100,149.0963100,house,4,2,4,"$529,000",https://www.auhouseprices.com/sold/view/ACT/341821307/8+Smeaton+Circuit%2C+Banks+ACT/
367,2906,Banks,81,https://www.auhouseprices.com/sold/list/ACT/2906/Banks/,4/6 Kettlewell Crescent ,-35.4689520,149.1062500,house,3,2,2,,https://www.auhouseprices.com/sold/view/ACT/341431207/4-6+Kettlewell+Crescent%2C+Banks+ACT/
368,2906,Banks,81,https://www.auhouseprices.com/sold/list/ACT/2906/Banks/,1/11-15 Troughton Street ,-35.4705900,149.1002200,house,3,1,2,"$400,000",https://www.auhouseprices.com/sold/view/ACT/341470107/1-11-15+Troughton+Street%2C+Banks+ACT/
369,2906,Banks,81,https://www.auhouseprices.com/sold/list/ACT/2906/Banks/,12 Alison Ashby Circuit ,-35.4752000,149.1027200,house,4,2,2,,https://www.auhouseprices.com/sold/view/ACT/341665007/12+Alison+Ashby+Circuit%2C+Banks+ACT/
370,2906,Banks,81,https://www.auhouseprices.com/sold/list/ACT/2906/Banks/,1/6 Kettlewell Crescent ,-35.4689520,149.1062500,townhouse,3,2,2,"$390,000",https://www.auhouseprices.com/sold/view/ACT/341936807/1-6+Kettlewell+Crescent%2C+Banks+ACT/
371,2906,Banks,81,https://www.auhouseprices.com/sold/list/ACT/2906/Banks/,2 Wiburd Street ,-35.4667780,149.1006300,house,3,2,2,"$390,000",https://www.auhouseprices.com/sold/view/ACT/341315807/2+Wiburd+Street%2C+Banks+ACT/
372,2906,Banks,81,https://www.auhouseprices.com/sold/list/ACT/2906/Banks/,51 Smeaton Circuit ,-35.4755600,149.1003700,house,5,2,4,"$750,000",https://www.auhouseprices.com/sold/view/ACT/341819707/51+Smeaton+Circuit%2C+Banks+ACT/
373,2906,Banks,81,https://www.auhouseprices.com/sold/list/ACT/2906/Banks/,4 Ising Place ,-35.4682100,149.1014100,house,3,2,3,"$465,000",https://www.auhouseprices.com/sold/view/ACT/341695707/4+Ising+Place%2C+Banks+ACT/
374,2906,Banks,81,https://www.auhouseprices.com/sold/list/ACT/2906/Banks/,1/20 Opal Street ,-35.4715230,149.0957600,townhouse,3,2,2,,https://www.auhouseprices.com/sold/view/ACT/341124707/1-20+Opal+Street%2C+Banks+ACT/
375,2906,Banks,81,https://www.auhouseprices.com/sold/list/ACT/2906/Banks/,59 Olive Pink Crescent ,-35.4778000,149.0988900,house,4,2,2,"$575,000",https://www.auhouseprices.com/sold/view/ACT/341119707/59+Olive+Pink+Crescent%2C+Banks+ACT/
376,2906,Banks,81,https://www.auhouseprices.com/sold/list/ACT/2906/Banks/,2/58-60 Betty Maloney Crescent ,-35.4719430,149.0959300,townhouse,3,2,2,"$422,500",https://www.auhouseprices.com/sold/view/ACT/341982807/2-58-60+Betty+Maloney+Crescent%2C+Banks+ACT/
377,2906,Banks,81,https://www.auhouseprices.com/sold/list/ACT/2906/Banks/,6 Zeitz Place ,-35.4745000,149.0921800,house,3,1,3,"$415,000",https://www.auhouseprices.com/sold/view/ACT/341914297/6+Zeitz+Place%2C+Banks+ACT/
378,2906,Banks,81,https://www.auhouseprices.com/sold/list/ACT/2906/Banks/,44 Bellchambers Crescent ,-35.4771580,149.0962800,house,5,2,2,"$650,000",https://www.auhouseprices.com/sold/view/ACT/341741397/44+Bellchambers+Crescent%2C+Banks+ACT/
379,2906,Banks,81,https://www.auhouseprices.com/sold/list/ACT/2906/Banks/,19 Chalker Circuit ,-35.4752000,149.0938900,house,3,1,2,,https://www.auhouseprices.com/sold/view/ACT/341908597/19+Chalker+Circuit%2C+Banks+ACT/
380,2906,Banks,81,https://www.auhouseprices.com/sold/list/ACT/2906/Banks/,8 Allitt Place ,-35.4695170,149.1016200,house,4,2,5,"$530,000",https://www.auhouseprices.com/sold/view/ACT/341237597/8+Allitt+Place%2C+Banks+ACT/
381,2906,Banks,81,https://www.auhouseprices.com/sold/list/ACT/2906/Banks/,5/7 Nernst Place ,-35.4663160,149.0951800,townhouse,3,1,1,,https://www.auhouseprices.com/sold/view/ACT/341970807/5-7+Nernst+Place%2C+Banks+ACT/
382,2906,Banks,81,https://www.auhouseprices.com/sold/list/ACT/2906/Banks/,3 Booderee Place ,-35.4783900,149.1004000,house,5,2,3,"$762,000",https://www.auhouseprices.com/sold/view/ACT/341951487/3+Booderee+Place%2C+Banks+ACT/
383,2906,Banks,81,https://www.auhouseprices.com/sold/list/ACT/2906/Banks/,19 Opal Street ,-35.4710770,149.0952000,house,4,2,2,"$457,500",https://www.auhouseprices.com/sold/view/ACT/341503597/19+Opal+Street%2C+Banks+ACT/
384,2906,Banks,81,https://www.auhouseprices.com/sold/list/ACT/2906/Banks/,2 Bellchambers Circuit ,-35.4742850,149.0932500,house,3,1,2,"$435,000",https://www.auhouseprices.com/sold/view/ACT/341283387/2+Bellchambers+Circuit%2C+Banks+ACT/
385,2906,Banks,81,https://www.auhouseprices.com/sold/list/ACT/2906/Banks/,21 Wittunga Crescent ,-35.4789300,149.1021900,house,5,3,2,,https://www.auhouseprices.com/sold/view/ACT/341837287/21+Wittunga+Crescent%2C+Banks+ACT/
386,2906,Banks,81,https://www.auhouseprices.com/sold/list/ACT/2906/Banks/,2/35 Bellchambers Crescent ,-35.4762150,149.0963100,house,3,1,2,"$357,500",https://www.auhouseprices.com/sold/view/ACT/341353287/2-35+Bellchambers+Crescent%2C+Banks+ACT/
387,2906,Banks,81,https://www.auhouseprices.com/sold/list/ACT/2906/Banks/,22 Orange Thorn Crescent ,-35.4709200,149.1058300,house,4,2,2,"$795,000",https://www.auhouseprices.com/sold/view/ACT/341397187/22+Orange+Thorn+Crescent%2C+Banks+ACT/
388,2906,Banks,81,https://www.auhouseprices.com/sold/list/ACT/2906/Banks/,13 Luckman Place ,-35.4734800,149.0934100,house,3,1,1,"$400,000",https://www.auhouseprices.com/sold/view/ACT/341464187/13+Luckman+Place%2C+Banks+ACT/
389,2906,Banks,81,https://www.auhouseprices.com/sold/list/ACT/2906/Banks/,14 Reader Court ,-35.4719430,149.0930600,house,4,2,2,"$450,000",https://www.auhouseprices.com/sold/view/ACT/341687187/14+Reader+Court%2C+Banks+ACT/
390,2906,Banks,81,https://www.auhouseprices.com/sold/list/ACT/2906/Banks/,20 Chalker Circuit ,-35.4752600,149.0931100,house,3,1,0,"$400,000",https://www.auhouseprices.com/sold/view/ACT/341153087/20+Chalker+Circuit%2C+Banks+ACT/
391,2906,Banks,81,https://www.auhouseprices.com/sold/list/ACT/2906/Banks/,1 Bick Place ,-35.4683760,149.0944800,house,3,1,2,"$430,000",https://www.auhouseprices.com/sold/view/ACT/341532887/1+Bick+Place%2C+Banks+ACT/
392,2906,Banks,81,https://www.auhouseprices.com/sold/list/ACT/2906/Banks/,21 Pockett Avenue ,-35.4662360,149.0946700,house,3,1,4,"$420,000",https://www.auhouseprices.com/sold/view/ACT/341829887/21+Pockett+Avenue%2C+Banks+ACT/
393,2906,Banks,81,https://www.auhouseprices.com/sold/list/ACT/2906/Banks/,31 Perrin Circuit ,-35.4671060,149.0976300,house,3,2,2,"$462,500",https://www.auhouseprices.com/sold/view/ACT/341556887/31+Perrin+Circuit%2C+Banks+ACT/
394,2906,Banks,81,https://www.auhouseprices.com/sold/list/ACT/2906/Banks/,6 Wollemi Place ,-35.4722140,149.1060800,house,3,3,4,"$920,000",https://www.auhouseprices.com/sold/view/ACT/341195787/6+Wollemi+Place%2C+Banks+ACT/
395,2906,Banks,81,https://www.auhouseprices.com/sold/list/ACT/2906/Banks/,92 Pockett Avenue ,-35.4719200,149.0960700,house,3,2,2,,https://www.auhouseprices.com/sold/view/ACT/341845687/92+Pockett+Avenue%2C+Banks+ACT/
396,2906,Banks,81,https://www.auhouseprices.com/sold/list/ACT/2906/Banks/,13 Rumsey Place ,-35.4742800,149.1004000,house,3,1,2,"$410,000",https://www.auhouseprices.com/sold/view/ACT/341529587/13+Rumsey+Place%2C+Banks+ACT/
397,2906,Banks,81,https://www.auhouseprices.com/sold/list/ACT/2906/Banks/,10 Galbraith Close ,-35.4723400,149.1038400,house,4,2,2,"$670,000",https://www.auhouseprices.com/sold/view/ACT/341074587/10+Galbraith+Close%2C+Banks+ACT/
398,2906,Banks,81,https://www.auhouseprices.com/sold/list/ACT/2906/Banks/,60 Wiburd Street ,-35.4696460,149.0985100,house,3,1,2,"$386,000",https://www.auhouseprices.com/sold/view/ACT/341498317/60+Wiburd+Street%2C+Banks+ACT/
399,2906,Banks,81,https://www.auhouseprices.com/sold/list/ACT/2906/Banks/,8/6 Kettlewell Crescent ,-35.4689520,149.1062500,townhouse,3,2,2,"$478,000",https://www.auhouseprices.com/sold/view/ACT/341692477/8-6+Kettlewell+Crescent%2C+Banks+ACT/
400,2906,Banks,81,https://www.auhouseprices.com/sold/list/ACT/2906/Banks/,1/32 Smeaton Circuit ,-35.4749950,149.0990900,house,3,1,1,"$315,000",https://www.auhouseprices.com/sold/view/ACT/341509687/1-32+Smeaton+Circuit%2C+Banks+ACT/
401,2906,Banks,81,https://www.auhouseprices.com/sold/list/ACT/2906/Banks/,10 Brittlebank Circuit ,-35.4680300,149.1025400,house,3,2,2,"$385,000",https://www.auhouseprices.com/sold/view/ACT/341774377/10+Brittlebank+Circuit%2C+Banks+ACT/
402,2906,Banks,81,https://www.auhouseprices.com/sold/list/ACT/2906/Banks/,104 Pockett Avenue ,-35.4729200,149.0950500,house,3,1,0,"$369,000",https://www.auhouseprices.com/sold/view/ACT/341340587/104+Pockett+Avenue%2C+Banks+ACT/
403,2906,Banks,81,https://www.auhouseprices.com/sold/list/ACT/2906/Banks/,16 Chalker Circuit ,-35.4750600,149.0929100,house,5,2,4,"$477,500",https://www.auhouseprices.com/sold/view/ACT/341331277/16+Chalker+Circuit%2C+Banks+ACT/
404,2906,Banks,81,https://www.auhouseprices.com/sold/list/ACT/2906/Banks/,3/3 Brockway Circuit ,-35.4731140,149.0918900,house,3,1,1,"$345,000",https://www.auhouseprices.com/sold/view/ACT/341756177/3-3+Brockway+Circuit%2C+Banks+ACT/
405,2906,Banks,81,https://www.auhouseprices.com/sold/list/ACT/2906/Banks/,2/35 Brockway Circuit ,-35.4719700,149.0948500,townhouse,4,2,2,"$458,000",https://www.auhouseprices.com/sold/view/ACT/341706077/2-35+Brockway+Circuit%2C+Banks+ACT/
406,2906,Banks,81,https://www.auhouseprices.com/sold/list/ACT/2906/Banks/,10 Wheelwright Crescent ,-35.4715960,149.1015500,house,4,2,4,"$505,000",https://www.auhouseprices.com/sold/view/ACT/341622977/10+Wheelwright+Crescent%2C+Banks+ACT/
407,2906,Banks,81,https://www.auhouseprices.com/sold/list/ACT/2906/Banks/,8 Abercrombie Circuit ,-35.4654000,149.0936900,house,4,2,2,"$465,000",https://www.auhouseprices.com/sold/view/ACT/341347877/8+Abercrombie+Circuit%2C+Banks+ACT/
408,2906,Banks,81,https://www.auhouseprices.com/sold/list/ACT/2906/Banks/,149 Tom Roberts Avenue ,-35.4661640,149.0991800,house,3,1,2,"$412,000",https://www.auhouseprices.com/sold/view/ACT/341923777/149+Tom+Roberts+Avenue%2C+Banks+ACT/
409,2906,Banks,81,https://www.auhouseprices.com/sold/list/ACT/2906/Banks/,1/45 Forsythe Street ,-35.4757160,149.0991700,house,3,1,2,"$372,000",https://www.auhouseprices.com/sold/view/ACT/341914677/1-45+Forsythe+Street%2C+Banks+ACT/
410,2906,Banks,81,https://www.auhouseprices.com/sold/list/ACT/2906/Banks/,59 Bellchambers Crescent ,-35.4772600,149.0982400,house,3,2,1,"$457,500",https://www.auhouseprices.com/sold/view/ACT/341545467/59+Bellchambers+Crescent%2C+Banks+ACT/
411,2906,Banks,81,https://www.auhouseprices.com/sold/list/ACT/2906/Banks/,22 Wilson Crescent ,-35.4717200,149.0994400,house,3,1,2,"$385,000",https://www.auhouseprices.com/sold/view/ACT/341504467/22+Wilson+Crescent%2C+Banks+ACT/
412,2906,Banks,81,https://www.auhouseprices.com/sold/list/ACT/2906/Banks/,41 Alison Ashby Crescent ,-35.4756400,149.1020800,house,4,2,2,"$622,000",https://www.auhouseprices.com/sold/view/ACT/341272467/41+Alison+Ashby+Crescent%2C+Banks+ACT/
413,2906,Banks,81,https://www.auhouseprices.com/sold/list/ACT/2906/Banks/,56 Paperbark Street ,-35.4717000,149.1029800,house,4,2,2,"$565,000",https://www.auhouseprices.com/sold/view/ACT/341926467/56+Paperbark+Street%2C+Banks+ACT/
414,2906,Banks,81,https://www.auhouseprices.com/sold/list/ACT/2906/Banks/,56 Wiburd Street ,-35.4696500,149.0988600,house,3,1,2,"$360,000",https://www.auhouseprices.com/sold/view/ACT/341917367/56+Wiburd+Street%2C+Banks+ACT/
415,2906,Banks,81,https://www.auhouseprices.com/sold/list/ACT/2906/Banks/,17 Alison Ashby Crescent ,-35.4752800,149.1035800,house,5,3,3,,https://www.auhouseprices.com/sold/view/ACT/341576167/17+Alison+Ashby+Crescent%2C+Banks+ACT/
416,2906,Banks,81,https://www.auhouseprices.com/sold/list/ACT/2906/Banks/,3 Mckeown Place ,-35.4710100,149.1021000,house,4,2,2,"$510,000",https://www.auhouseprices.com/sold/view/ACT/341415167/3+Mckeown+Place%2C+Banks+ACT/
417,2906,Banks,81,https://www.auhouseprices.com/sold/list/ACT/2906/Banks/,11 Bellchambers Crescent ,-35.4748570,149.0943900,house,3,1,2,"$455,000",https://www.auhouseprices.com/sold/view/ACT/341360167/11+Bellchambers+Crescent%2C+Banks+ACT/
418,2906,Banks,81,https://www.auhouseprices.com/sold/list/ACT/2906/Banks/,36 Bastow Circuit ,-35.4669530,149.0914000,house,3,1,4,"$422,000",https://www.auhouseprices.com/sold/view/ACT/341345267/36+Bastow+Circuit%2C+Banks+ACT/
419,2906,Banks,81,https://www.auhouseprices.com/sold/list/ACT/2906/Banks/,83 Pockett Avenue ,-35.4720000,149.0968800,house,3,1,1,"$440,000",https://www.auhouseprices.com/sold/view/ACT/341201267/83+Pockett+Avenue%2C+Banks+ACT/
420,2906,Banks,81,https://www.auhouseprices.com/sold/list/ACT/2906/Banks/,65 Olive Pink Crescent ,-35.4773370,149.0993000,house,4,2,2,"$625,000",https://www.auhouseprices.com/sold/view/ACT/341574967/65+Olive+Pink+Crescent%2C+Banks+ACT/
421,2906,Banks,81,https://www.auhouseprices.com/sold/list/ACT/2906/Banks/,8 Orange Thorn Crescent ,-35.4702600,149.1072500,house,4,2,2,"$587,000",https://www.auhouseprices.com/sold/view/ACT/341659267/8+Orange+Thorn+Crescent%2C+Banks+ACT/
422,2906,Banks,81,https://www.auhouseprices.com/sold/list/ACT/2906/Banks/,57 Forsythe Street ,-35.4765050,149.1003300,house,4,2,2,"$650,000",https://www.auhouseprices.com/sold/view/ACT/341761967/57+Forsythe+Street%2C+Banks+ACT/
423,2906,Banks,81,https://www.auhouseprices.com/sold/list/ACT/2906/Banks/,97 Pockett Avenue ,-35.4727750,149.0960400,house,3,1,1,"$368,000",https://www.auhouseprices.com/sold/view/ACT/341693267/97+Pockett+Avenue%2C+Banks+ACT/
424,2906,Banks,81,https://www.auhouseprices.com/sold/list/ACT/2906/Banks/,16 Kettlewell Crescent ,-35.4694020,149.1064600,house,4,2,2,"$571,500",https://www.auhouseprices.com/sold/view/ACT/341825547/16+Kettlewell+Crescent%2C+Banks+ACT/
425,2906,Banks,81,https://www.auhouseprices.com/sold/list/ACT/2906/Banks/,59 Paperbark Street ,-35.4717640,149.1035600,house,4,2,2,,https://www.auhouseprices.com/sold/view/ACT/341234867/59+Paperbark+Street%2C+Banks+ACT/
426,2906,Banks,81,https://www.auhouseprices.com/sold/list/ACT/2906/Banks/,21/35 Brockway Circuit ,-35.4719700,149.0948500,townhouse,3,2,2,"$417,500",https://www.auhouseprices.com/sold/view/ACT/341105437/21-35+Brockway+Circuit%2C+Banks+ACT/
427,2906,Banks,81,https://www.auhouseprices.com/sold/list/ACT/2906/Banks/,14 Wheelwright Crescent ,-35.4720600,149.1017900,house,5,2,2,,https://www.auhouseprices.com/sold/view/ACT/341830547/14+Wheelwright+Crescent%2C+Banks+ACT/
428,2906,Banks,81,https://www.auhouseprices.com/sold/list/ACT/2906/Banks/,15 Galbraith Close ,-35.4725700,149.1043700,house,5,4,3,"$970,000",https://www.auhouseprices.com/sold/view/ACT/341499947/15+Galbraith+Close%2C+Banks+ACT/
429,2906,Banks,81,https://www.auhouseprices.com/sold/list/ACT/2906/Banks/,18 Tregellas Crescent ,-35.4689200,149.0940000,house,4,2,1,"$442,000",https://www.auhouseprices.com/sold/view/ACT/341067437/18+Tregellas+Crescent%2C+Banks+ACT/
430,2906,Banks,81,https://www.auhouseprices.com/sold/list/ACT/2906/Banks/,26 House Circuit ,-35.4672850,149.0920600,house,3,1,1,"$375,000",https://www.auhouseprices.com/sold/view/ACT/341450867/26+House+Circuit%2C+Banks+ACT/
431,2906,Banks,81,https://www.auhouseprices.com/sold/list/ACT/2906/Banks/,18 Tregellas Crescent ,-35.4689220,149.0939930,House,3,1,2,"$442,000",https://www.auhouseprices.com/sold/view/ACT/331197816/18+Tregellas+Crescent%2C+Banks+ACT/
432,2906,Banks,81,https://www.auhouseprices.com/sold/list/ACT/2906/Banks/,7 Chalker Circuit ,-35.4746890,149.0930860,house,3,1,4,"$400,000",https://www.auhouseprices.com/sold/view/ACT/331979716/7+Chalker+Circuit%2C+Banks+ACT/
433,2906,Banks,81,https://www.auhouseprices.com/sold/list/ACT/2906/Banks/,23 Opal Street ,-35.4710770,149.0954600,house,4,3,2,"$485,000",https://www.auhouseprices.com/sold/view/ACT/341160867/23+Opal+Street%2C+Banks+ACT/
434,2906,Banks,81,https://www.auhouseprices.com/sold/list/ACT/2906/Banks/,16 Menzies Court ,-35.4752700,149.0964700,house,3,1,2,"$400,000",https://www.auhouseprices.com/sold/view/ACT/341945547/16+Menzies+Court%2C+Banks+ACT/
435,2906,Banks,81,https://www.auhouseprices.com/sold/list/ACT/2906/Banks/,1 Fern Place ,-35.4691140,149.0962880,house,3,2,2,"$420,000",https://www.auhouseprices.com/sold/view/ACT/331202506/1+Fern+Place%2C+Banks+ACT/
