,Postcode,Suburb Name,Recent Sales,Suburb Link,Street Address,Latitude,Longitude,Property Type,Beds,Baths,Cars,Sold Price,Property Link
0,2615,Holt,77,https://www.auhouseprices.com/sold/list/ACT/2615/Holt/,4 Southam Place ,-35.2214263,149.0246621,house,3,2,2,"$782,500",https://www.auhouseprices.com/sold/view/ACT/341922470/4+Southam+Place%2C+Holt+ACT/
1,2615,Holt,77,https://www.auhouseprices.com/sold/list/ACT/2615/Holt/,14/131 Britten-Jones Drive ,-35.2276934,149.0038485,townhouse,3,2,2,,https://www.auhouseprices.com/sold/view/ACT/341518270/14-131+Britten-Jones+Drive%2C+Holt+ACT/
2,2615,Holt,77,https://www.auhouseprices.com/sold/list/ACT/2615/Holt/,1 Trott Place ,-35.2248931,149.0081365,house,3,1,2,,https://www.auhouseprices.com/sold/view/ACT/341034270/1+Trott+Place%2C+Holt+ACT/
3,2615,Holt,77,https://www.auhouseprices.com/sold/list/ACT/2615/Holt/,23 Mockridge Crescent ,-35.2291623,149.0159657,house,4,1,3,"$730,000",https://www.auhouseprices.com/sold/view/ACT/341683070/23+Mockridge+Crescent%2C+Holt+ACT/
4,2615,Holt,77,https://www.auhouseprices.com/sold/list/ACT/2615/Holt/,16 Cavill Close ,-35.2245577,149.0066121,house,3,1,0,"$650,000",https://www.auhouseprices.com/sold/view/ACT/341462970/16+Cavill+Close%2C+Holt+ACT/
5,2615,Holt,77,https://www.auhouseprices.com/sold/list/ACT/2615/Holt/,12 Beaurepaire Crescent ,-35.2267556,149.0154008,house,4,2,4,"$855,000",https://www.auhouseprices.com/sold/view/ACT/341963970/12+Beaurepaire+Crescent%2C+Holt+ACT/
6,2615,Holt,77,https://www.auhouseprices.com/sold/list/ACT/2615/Holt/,3 Kieran Place ,-35.2219626,149.0103385,house,3,1,2,,https://www.auhouseprices.com/sold/view/ACT/341685970/3+Kieran+Place%2C+Holt+ACT/
7,2615,Holt,77,https://www.auhouseprices.com/sold/list/ACT/2615/Holt/,11/68 Lorraway Street ,-35.2275328,148.9977314,townhouse,3,2,2,,https://www.auhouseprices.com/sold/view/ACT/341005770/11-68+Lorraway+Street%2C+Holt+ACT/
8,2615,Holt,77,https://www.auhouseprices.com/sold/list/ACT/2615/Holt/,19 Brownlow Place ,-35.2261702,149.0196931,house,3,2,2,"$612,000",https://www.auhouseprices.com/sold/view/ACT/341617670/19+Brownlow+Place%2C+Holt+ACT/
9,2615,Holt,77,https://www.auhouseprices.com/sold/list/ACT/2615/Holt/,40 Blackham Street ,-35.2230252,149.0271034,townhouse,2,1,1,"$425,000",https://www.auhouseprices.com/sold/view/ACT/341452670/40+Blackham+Street%2C+Holt+ACT/
10,2615,Holt,77,https://www.auhouseprices.com/sold/list/ACT/2615/Holt/,34 Trumper Street ,-35.2231917,149.0150380,house,3,1,2,,https://www.auhouseprices.com/sold/view/ACT/341666570/34+Trumper+Street%2C+Holt+ACT/
11,2615,Holt,77,https://www.auhouseprices.com/sold/list/ACT/2615/Holt/,4 Bunton Place ,-35.2222788,149.0108406,house,3,1,2,"$730,000",https://www.auhouseprices.com/sold/view/ACT/341853570/4+Bunton+Place%2C+Holt+ACT/
12,2615,Holt,77,https://www.auhouseprices.com/sold/list/ACT/2615/Holt/,54/23 Blackham Street ,-35.2245267,149.0271279,townhouse,3,1,1,"$465,000",https://www.auhouseprices.com/sold/view/ACT/341791570/54-23+Blackham+Street%2C+Holt+ACT/
13,2615,Holt,77,https://www.auhouseprices.com/sold/list/ACT/2615/Holt/,69 Lionel Rose ,-35.2268339,148.9987178,house,3,2,2,,https://www.auhouseprices.com/sold/view/ACT/341050570/69+Lionel+Rose%2C+Holt+ACT/
14,2615,Holt,77,https://www.auhouseprices.com/sold/list/ACT/2615/Holt/,8 Kellermann Close ,-35.2252138,149.0181203,house,3,1,2,"$435,000",https://www.auhouseprices.com/sold/view/ACT/341833460/8+Kellermann+Close%2C+Holt+ACT/
15,2615,Holt,77,https://www.auhouseprices.com/sold/list/ACT/2615/Holt/,11 Eaves Street ,-35.2283796,149.0142434,house,5,2,4,"$780,000",https://www.auhouseprices.com/sold/view/ACT/341042460/11+Eaves+Street%2C+Holt+ACT/
16,2615,Holt,77,https://www.auhouseprices.com/sold/list/ACT/2615/Holt/,7 Trumper Street ,-35.2245744,149.0142921,house,3,1,2,,https://www.auhouseprices.com/sold/view/ACT/341121460/7+Trumper+Street%2C+Holt+ACT/
17,2615,Holt,77,https://www.auhouseprices.com/sold/list/ACT/2615/Holt/,6 Giltinan Place ,-35.2242579,149.0299949,townhouse,2,1,1,,https://www.auhouseprices.com/sold/view/ACT/341939360/6+Giltinan+Place%2C+Holt+ACT/
18,2615,Holt,77,https://www.auhouseprices.com/sold/list/ACT/2615/Holt/,81 Lionel Rose Street ,-35.2260877,148.9985896,house,4,3,2,"$700,000",https://www.auhouseprices.com/sold/view/ACT/341451260/81+Lionel+Rose+Street%2C+Holt+ACT/
19,2615,Holt,77,https://www.auhouseprices.com/sold/list/ACT/2615/Holt/,17 Slight Place ,-35.2229902,149.0011024,house,3,1,2,"$578,000",https://www.auhouseprices.com/sold/view/ACT/341334160/17+Slight+Place%2C+Holt+ACT/
20,2615,Holt,77,https://www.auhouseprices.com/sold/list/ACT/2615/Holt/,6 Trickett Street ,-35.2298318,149.0106298,townhouse,4,2,2,"$520,000",https://www.auhouseprices.com/sold/view/ACT/341442160/6+Trickett+Street%2C+Holt+ACT/
21,2615,Holt,77,https://www.auhouseprices.com/sold/list/ACT/2615/Holt/,126 Pro Hart Avenue ,-35.2304569,148.9955104,house,4,2,2,"$640,000",https://www.auhouseprices.com/sold/view/ACT/341639060/126+Pro+Hart+Avenue%2C+Holt+ACT/
22,2615,Holt,77,https://www.auhouseprices.com/sold/list/ACT/2615/Holt/,7/49 Fullston Way ,-35.2287033,148.9987690,townhouse,4,2,2,"$642,000",https://www.auhouseprices.com/sold/view/ACT/341537760/7-49+Fullston+Way%2C+Holt+ACT/
23,2615,Holt,77,https://www.auhouseprices.com/sold/list/ACT/2615/Holt/,12/23 Chave Street ,-35.2236400,149.0259715,townhouse,3,1,1,"$443,975",https://www.auhouseprices.com/sold/view/ACT/341557660/12-23+Chave+Street%2C+Holt+ACT/
24,2615,Holt,77,https://www.auhouseprices.com/sold/list/ACT/2615/Holt/,6 Southam Place ,-35.2213237,149.0248682,house,3,1,4,,https://www.auhouseprices.com/sold/view/ACT/341425660/6+Southam+Place%2C+Holt+ACT/
25,2615,Holt,77,https://www.auhouseprices.com/sold/list/ACT/2615/Holt/,58/68 Hardwick Crescent ,-35.2203995,149.0192026,unit,2,2,1,"$310,000",https://www.auhouseprices.com/sold/view/ACT/341164660/58-68+Hardwick+Crescent%2C+Holt+ACT/
26,2615,Holt,77,https://www.auhouseprices.com/sold/list/ACT/2615/Holt/,23 McCabe Crescent ,-35.2285743,149.0171707,house,4,1,1,,https://www.auhouseprices.com/sold/view/ACT/341591660/23+McCabe+Crescent%2C+Holt+ACT/
27,2615,Holt,77,https://www.auhouseprices.com/sold/list/ACT/2615/Holt/,5 Bardsley Place ,-35.2276240,149.0098080,house,3,1,1,,https://www.auhouseprices.com/sold/view/ACT/341627560/5+Bardsley+Place%2C+Holt+ACT/
28,2615,Holt,77,https://www.auhouseprices.com/sold/list/ACT/2615/Holt/,3 Beach Place ,-35.2204913,149.0115326,house,5,3,3,"$820,000",https://www.auhouseprices.com/sold/view/ACT/341673560/3+Beach+Place%2C+Holt+ACT/
29,2615,Holt,77,https://www.auhouseprices.com/sold/list/ACT/2615/Holt/,10 Chester Close ,-35.2242918,148.9981610,house,3,2,2,,https://www.auhouseprices.com/sold/view/ACT/341682450/10+Chester+Close%2C+Holt+ACT/
30,2615,Holt,77,https://www.auhouseprices.com/sold/list/ACT/2615/Holt/,79 Lorraway Street ,-35.2256483,148.9973593,house,4,2,2,"$685,000",https://www.auhouseprices.com/sold/view/ACT/341706350/79+Lorraway+Street%2C+Holt+ACT/
31,2615,Holt,77,https://www.auhouseprices.com/sold/list/ACT/2615/Holt/,1/154 Drake-Brockman Drive ,-35.2304375,149.0115921,apartment,3,1,1,,https://www.auhouseprices.com/sold/view/ACT/341079250/1-154+Drake-Brockman+Drive%2C+Holt+ACT/
32,2615,Holt,77,https://www.auhouseprices.com/sold/list/ACT/2615/Holt/,6/96 Britten-Jones Drive ,-35.2248423,149.0024854,house,3,2,2,"$540,000",https://www.auhouseprices.com/sold/view/ACT/341038250/6-96+Britten-Jones+Drive%2C+Holt+ACT/
33,2615,Holt,77,https://www.auhouseprices.com/sold/list/ACT/2615/Holt/,25 Postle Circuit ,-35.2206743,149.0243468,house,3,2,3,"$660,000",https://www.auhouseprices.com/sold/view/ACT/341237250/25+Postle+Circuit%2C+Holt+ACT/
34,2615,Holt,77,https://www.auhouseprices.com/sold/list/ACT/2615/Holt/,4 Blandon Place ,-35.2226411,149.0271152,townhouse,2,1,1,"$430,000",https://www.auhouseprices.com/sold/view/ACT/341146250/4+Blandon+Place%2C+Holt+ACT/
35,2615,Holt,77,https://www.auhouseprices.com/sold/list/ACT/2615/Holt/,8/64 Hardwick Crescent ,-35.2207780,149.0192120,unit,1,1,1,"$290,000",https://www.auhouseprices.com/sold/view/ACT/341685350/8-64+Hardwick+Crescent%2C+Holt+ACT/
36,2615,Holt,77,https://www.auhouseprices.com/sold/list/ACT/2615/Holt/,22 Lionel Rose Street ,-35.2298574,148.9996050,residential land,1,1,1,"$605,000",https://www.auhouseprices.com/sold/view/ACT/341197260/22+Lionel+Rose+Street%2C+Holt+ACT/
37,2615,Holt,77,https://www.auhouseprices.com/sold/list/ACT/2615/Holt/,3 McCabe Crescent ,-35.2277722,149.0160742,house,5,2,4,"$757,000",https://www.auhouseprices.com/sold/view/ACT/341090050/3+McCabe+Crescent%2C+Holt+ACT/
38,2615,Holt,77,https://www.auhouseprices.com/sold/list/ACT/2615/Holt/,34 Lionel Rose Street ,-35.2291921,148.9994898,house,3,2,2,"$616,000",https://www.auhouseprices.com/sold/view/ACT/341543050/34+Lionel+Rose+Street%2C+Holt+ACT/
39,2615,Holt,77,https://www.auhouseprices.com/sold/list/ACT/2615/Holt/,14 Fullston Way ,-35.2291322,149.0014770,residential land,3,2,2,,https://www.auhouseprices.com/sold/view/ACT/341584050/14+Fullston+Way%2C+Holt+ACT/
40,2615,Holt,77,https://www.auhouseprices.com/sold/list/ACT/2615/Holt/,2/3 Fullston Way ,-35.2288984,149.0012122,townhouse,3,2,2,"$550,000",https://www.auhouseprices.com/sold/view/ACT/341018560/2-3+Fullston+Way%2C+Holt+ACT/
41,2615,Holt,77,https://www.auhouseprices.com/sold/list/ACT/2615/Holt/,8/3 Fullston Way ,-35.2288984,149.0012122,townhouse,4,2,2,"$555,000",https://www.auhouseprices.com/sold/view/ACT/341452050/8-3+Fullston+Way%2C+Holt+ACT/
42,2615,Holt,77,https://www.auhouseprices.com/sold/list/ACT/2615/Holt/,10/96 Britten-Jones Drive ,-35.2248423,149.0024854,townhouse,3,1,1,"$486,000",https://www.auhouseprices.com/sold/view/ACT/341469850/10-96+Britten-Jones+Drive%2C+Holt+ACT/
43,2615,Holt,77,https://www.auhouseprices.com/sold/list/ACT/2615/Holt/,11 Messenger Street ,-35.2235680,149.0070382,house,3,2,2,"$720,000",https://www.auhouseprices.com/sold/view/ACT/341076850/11+Messenger+Street%2C+Holt+ACT/
44,2615,Holt,77,https://www.auhouseprices.com/sold/list/ACT/2615/Holt/,57/68 Hardwick Crescent ,-35.2203995,149.0192026,apartment,2,2,1,"$310,000",https://www.auhouseprices.com/sold/view/ACT/341138850/57-68+Hardwick+Crescent%2C+Holt+ACT/
45,2615,Holt,77,https://www.auhouseprices.com/sold/list/ACT/2615/Holt/,44 Pickworth Street ,-35.2229415,149.0159876,house,3,1,2,"$630,000",https://www.auhouseprices.com/sold/view/ACT/341779750/44+Pickworth+Street%2C+Holt+ACT/
46,2615,Holt,77,https://www.auhouseprices.com/sold/list/ACT/2615/Holt/,98/68 Hardwick Crescent ,-35.2203995,149.0192026,apartment,1,1,1,"$275,000",https://www.auhouseprices.com/sold/view/ACT/341158750/98-68+Hardwick+Crescent%2C+Holt+ACT/
47,2615,Holt,77,https://www.auhouseprices.com/sold/list/ACT/2615/Holt/,6 Bardsley Place ,-35.2277201,149.0094478,house,4,1,1,,https://www.auhouseprices.com/sold/view/ACT/341316750/6+Bardsley+Place%2C+Holt+ACT/
48,2615,Holt,77,https://www.auhouseprices.com/sold/list/ACT/2615/Holt/,14 Beaurepaire Crescent ,-35.2267599,149.0151482,house,4,1,2,"$627,000",https://www.auhouseprices.com/sold/view/ACT/341494750/14+Beaurepaire+Crescent%2C+Holt+ACT/
49,2615,Holt,77,https://www.auhouseprices.com/sold/list/ACT/2615/Holt/,8 Chave Street ,-35.2220123,149.0262806,house,3,1,2,"$645,000",https://www.auhouseprices.com/sold/view/ACT/341377650/8+Chave+Street%2C+Holt+ACT/
50,2615,Holt,77,https://www.auhouseprices.com/sold/list/ACT/2615/Holt/,28 Lionel Rose Street ,-35.2295247,148.9995529,house,3,2,2,"$601,000",https://www.auhouseprices.com/sold/view/ACT/341842650/28+Lionel+Rose+Street%2C+Holt+ACT/
51,2615,Holt,77,https://www.auhouseprices.com/sold/list/ACT/2615/Holt/,3/11 Flack Street ,-35.2234476,149.0212298,unit,2,1,1,"$339,000",https://www.auhouseprices.com/sold/view/ACT/341540650/3-11+Flack+Street%2C+Holt+ACT/
52,2615,Holt,77,https://www.auhouseprices.com/sold/list/ACT/2615/Holt/,1 Watchorn Close ,-35.2234544,149.0030144,house,3,1,1,"$499,000",https://www.auhouseprices.com/sold/view/ACT/341701550/1+Watchorn+Close%2C+Holt+ACT/
53,2615,Holt,77,https://www.auhouseprices.com/sold/list/ACT/2615/Holt/,17 Lindrum Crescent ,-35.2269940,149.0102400,house,4,2,7,"$700,000",https://www.auhouseprices.com/sold/view/ACT/341679440/17+Lindrum+Crescent%2C+Holt+ACT/
54,2615,Holt,77,https://www.auhouseprices.com/sold/list/ACT/2615/Holt/,22 Lorraway Street ,-35.2293188,148.9983722,house,4,2,2,"$676,000",https://www.auhouseprices.com/sold/view/ACT/341547440/22+Lorraway+Street%2C+Holt+ACT/
55,2615,Holt,77,https://www.auhouseprices.com/sold/list/ACT/2615/Holt/,30 Paterick Place ,-35.2226830,149.0288700,house,2,1,1,"$518,000",https://www.auhouseprices.com/sold/view/ACT/341496240/30+Paterick+Place%2C+Holt+ACT/
56,2615,Holt,77,https://www.auhouseprices.com/sold/list/ACT/2615/Holt/,96B Spofforth St ,-35.2203138,149.0074388,duplex-semi-detached,3,2,4,,https://www.auhouseprices.com/sold/view/ACT/341144140/96B++Spofforth+St%2C+Holt+ACT/
57,2615,Holt,77,https://www.auhouseprices.com/sold/list/ACT/2615/Holt/,39 McCabe Crescent ,-35.2299986,149.0166347,house,3,1,1,"$577,000",https://www.auhouseprices.com/sold/view/ACT/341417140/39+McCabe+Crescent%2C+Holt+ACT/
58,2615,Holt,77,https://www.auhouseprices.com/sold/list/ACT/2615/Holt/,33/158 Starke Street ,-35.2238240,149.0182200,townhouse,3,1,1,"$380,000",https://www.auhouseprices.com/sold/view/ACT/341864040/33-158+Starke+Street%2C+Holt+ACT/
59,2615,Holt,77,https://www.auhouseprices.com/sold/list/ACT/2615/Holt/,2 Biggs Place ,-35.2260072,149.0186563,house,2,1,1,"$450,000",https://www.auhouseprices.com/sold/view/ACT/341010940/2+Biggs+Place%2C+Holt+ACT/
60,2615,Holt,77,https://www.auhouseprices.com/sold/list/ACT/2615/Holt/,23 Griffiths Street ,-35.2277760,149.0126200,house,3,1,4,"$652,000",https://www.auhouseprices.com/sold/view/ACT/341083840/23+Griffiths+Street%2C+Holt+ACT/
61,2615,Holt,77,https://www.auhouseprices.com/sold/list/ACT/2615/Holt/,16/74 Britten-Jones Drive ,-35.2237691,149.0020999,townhouse,3,2,1,"$536,000",https://www.auhouseprices.com/sold/view/ACT/341359740/16-74+Britten-Jones+Drive%2C+Holt+ACT/
62,2615,Holt,77,https://www.auhouseprices.com/sold/list/ACT/2615/Holt/,1 Sellwood Street ,-35.2200439,149.0091596,house,4,2,2,,https://www.auhouseprices.com/sold/view/ACT/341757740/1+Sellwood+Street%2C+Holt+ACT/
63,2615,Holt,77,https://www.auhouseprices.com/sold/list/ACT/2615/Holt/,2 Bushby Place ,-35.2220538,149.0032107,duplex-semi-detached,3,2,1,"$535,500",https://www.auhouseprices.com/sold/view/ACT/341036640/2+Bushby+Place%2C+Holt+ACT/
64,2615,Holt,77,https://www.auhouseprices.com/sold/list/ACT/2615/Holt/,23 Eaves Street ,-35.2287264,149.0156144,house,3,1,2,"$600,000",https://www.auhouseprices.com/sold/view/ACT/341699840/23+Eaves+Street%2C+Holt+ACT/
65,2615,Holt,77,https://www.auhouseprices.com/sold/list/ACT/2615/Holt/,6/49 Fullston Way ,-35.2287033,148.9987690,townhouse,4,2,2,"$616,750",https://www.auhouseprices.com/sold/view/ACT/341582329/6-49+Fullston+Way%2C+Holt+ACT/
66,2615,Holt,77,https://www.auhouseprices.com/sold/list/ACT/2615/Holt/,45 Lorraway Street ,-35.2279878,148.9976254,house,4,2,2,"$745,000",https://www.auhouseprices.com/sold/view/ACT/341647229/45+Lorraway+Street%2C+Holt+ACT/
67,2615,Holt,77,https://www.auhouseprices.com/sold/list/ACT/2615/Holt/,12 Fullston Way ,-35.2292297,149.0015783,house,5,4,2,"$895,000",https://www.auhouseprices.com/sold/view/ACT/341822229/12+Fullston+Way%2C+Holt+ACT/
68,2615,Holt,77,https://www.auhouseprices.com/sold/list/ACT/2615/Holt/,1 Worrall Street ,-35.2207800,149.0085000,house,3,2,2,"$540,000",https://www.auhouseprices.com/sold/view/ACT/341480129/1+Worrall+Street%2C+Holt+ACT/
69,2615,Holt,77,https://www.auhouseprices.com/sold/list/ACT/2615/Holt/,60 Mockridge Crescent ,-35.2294055,149.0116428,house,4,1,1,"$631,000",https://www.auhouseprices.com/sold/view/ACT/341758129/60+Mockridge+Crescent%2C+Holt+ACT/
70,2615,Holt,77,https://www.auhouseprices.com/sold/list/ACT/2615/Holt/,57 Mockridge Crescent ,-35.2301341,149.0128255,house,3,2,2,"$602,000",https://www.auhouseprices.com/sold/view/ACT/341257129/57+Mockridge+Crescent%2C+Holt+ACT/
71,2615,Holt,77,https://www.auhouseprices.com/sold/list/ACT/2615/Holt/,43 McCabe Crescent ,-35.2303704,149.0165011,house,4,2,2,"$622,000",https://www.auhouseprices.com/sold/view/ACT/341328229/43+McCabe+Crescent%2C+Holt+ACT/
72,2615,Holt,77,https://www.auhouseprices.com/sold/list/ACT/2615/Holt/,3/89 Britten-Jones Drive ,-35.2250150,149.0029456,house,3,2,1,"$463,000",https://www.auhouseprices.com/sold/view/ACT/341425929/3-89+Britten-Jones+Drive%2C+Holt+ACT/
73,2615,Holt,77,https://www.auhouseprices.com/sold/list/ACT/2615/Holt/,153 Starke Street ,-35.2243561,149.0165719,house,3,1,1,"$580,000",https://www.auhouseprices.com/sold/view/ACT/341296929/153+Starke+Street%2C+Holt+ACT/
74,2615,Holt,77,https://www.auhouseprices.com/sold/list/ACT/2615/Holt/,6 Kieran Place ,-35.2216503,149.0101440,house,4,2,1,"$580,500",https://www.auhouseprices.com/sold/view/ACT/341767729/6+Kieran+Place%2C+Holt+ACT/
75,2615,Holt,77,https://www.auhouseprices.com/sold/list/ACT/2615/Holt/,6 Bushby Place ,-35.2219686,149.0029120,house,3,2,1,"$519,500",https://www.auhouseprices.com/sold/view/ACT/341150840/6+Bushby+Place%2C+Holt+ACT/
76,2615,Holt,77,https://www.auhouseprices.com/sold/list/ACT/2615/Holt/,3/1 MacNaughton Street ,-35.2316979,149.0164968,house,3,2,2,"$530,000",https://www.auhouseprices.com/sold/view/ACT/341017629/3-1+MacNaughton+Street%2C+Holt+ACT/
77,2615,Holt,77,https://www.auhouseprices.com/sold/list/ACT/2615/Holt/,12 Sellwood Street ,-35.2191589,149.0087093,house,4,2,1,"$610,000",https://www.auhouseprices.com/sold/view/ACT/341700519/12+Sellwood+Street%2C+Holt+ACT/
78,2615,Holt,77,https://www.auhouseprices.com/sold/list/ACT/2615/Holt/,10 Worrall Street ,-35.2203891,149.0079157,house,3,1,2,"$641,000",https://www.auhouseprices.com/sold/view/ACT/341369519/10+Worrall+Street%2C+Holt+ACT/
79,2615,Holt,77,https://www.auhouseprices.com/sold/list/ACT/2615/Holt/,2/106 Britten Jones Drive ,-35.2257550,149.0024080,townhouse,3,1,1,"$465,000",https://www.auhouseprices.com/sold/view/ACT/341120419/2-106+Britten+Jones+Drive%2C+Holt+ACT/
80,2615,Holt,77,https://www.auhouseprices.com/sold/list/ACT/2615/Holt/,114/68 Hardwick Cr ,-35.2203995,149.0192026,apartment,2,2,3,"$320,000",https://www.auhouseprices.com/sold/view/ACT/341837419/114-68+Hardwick+Cr%2C+Holt+ACT/
81,2615,Holt,77,https://www.auhouseprices.com/sold/list/ACT/2615/Holt/,10 Cazaly Close ,-35.2292670,149.0145510,house,4,2,2,"$616,000",https://www.auhouseprices.com/sold/view/ACT/341058419/10+Cazaly+Close%2C+Holt+ACT/
82,2615,Holt,77,https://www.auhouseprices.com/sold/list/ACT/2615/Holt/,3/69 Mockridge Crescent ,-35.2298968,149.0115053,townhouse,2,1,1,"$360,000",https://www.auhouseprices.com/sold/view/ACT/341998419/3-69+Mockridge+Crescent%2C+Holt+ACT/
83,2615,Holt,77,https://www.auhouseprices.com/sold/list/ACT/2615/Holt/,19 Goddard Crescent ,-35.2231008,149.0276974,house,2,1,1,"$385,000",https://www.auhouseprices.com/sold/view/ACT/341684419/19+Goddard+Crescent%2C+Holt+ACT/
84,2615,Holt,77,https://www.auhouseprices.com/sold/list/ACT/2615/Holt/,41 Cavill Close ,-35.2246601,149.0075046,house,4,3,2,"$823,000",https://www.auhouseprices.com/sold/view/ACT/341169319/41+Cavill+Close%2C+Holt+ACT/
85,2615,Holt,77,https://www.auhouseprices.com/sold/list/ACT/2615/Holt/,78 Lionel Rose Street ,-35.2263784,148.9990032,house,3,2,2,"$570,169",https://www.auhouseprices.com/sold/view/ACT/341769219/78+Lionel+Rose+Street%2C+Holt+ACT/
86,2615,Holt,77,https://www.auhouseprices.com/sold/list/ACT/2615/Holt/,16 Mockridge Crescent ,-35.2284360,149.0157280,house,3,1,1,"$560,000",https://www.auhouseprices.com/sold/view/ACT/341645119/16+Mockridge+Crescent%2C+Holt+ACT/
87,2615,Holt,77,https://www.auhouseprices.com/sold/list/ACT/2615/Holt/,11 Bunton Place ,-35.2214422,149.0107321,house,3,1,0,"$487,000",https://www.auhouseprices.com/sold/view/ACT/341712119/11+Bunton+Place%2C+Holt+ACT/
88,2615,Holt,77,https://www.auhouseprices.com/sold/list/ACT/2615/Holt/,70 Armstrong Crescent ,-35.2227350,149.0099730,house,3,2,2,"$660,000",https://www.auhouseprices.com/sold/view/ACT/341535919/70+Armstrong+Crescent%2C+Holt+ACT/
89,2615,Holt,77,https://www.auhouseprices.com/sold/list/ACT/2615/Holt/,17 Trickett Street ,-35.2283556,149.0102655,house,3,1,1,"$555,000",https://www.auhouseprices.com/sold/view/ACT/341353919/17+Trickett+Street%2C+Holt+ACT/
90,2615,Holt,77,https://www.auhouseprices.com/sold/list/ACT/2615/Holt/,5 Allen Place ,-35.2225984,149.0018947,house,3,2,1,"$543,000",https://www.auhouseprices.com/sold/view/ACT/341991919/5+Allen+Place%2C+Holt+ACT/
91,2615,Holt,77,https://www.auhouseprices.com/sold/list/ACT/2615/Holt/,40 McCabe Crescent ,-35.2304868,149.0154711,house,3,2,1,"$620,000",https://www.auhouseprices.com/sold/view/ACT/341078819/40+McCabe+Crescent%2C+Holt+ACT/
92,2615,Holt,77,https://www.auhouseprices.com/sold/list/ACT/2615/Holt/,16 Sellwood Street ,-35.2192570,149.0092500,house,3,1,2,"$496,000",https://www.auhouseprices.com/sold/view/ACT/341016719/16+Sellwood+Street%2C+Holt+ACT/
93,2615,Holt,77,https://www.auhouseprices.com/sold/list/ACT/2615/Holt/,12/64 Hardwick Crescent ,-35.2207780,149.0192120,apartment,1,1,1,"$275,000",https://www.auhouseprices.com/sold/view/ACT/341320819/12-64+Hardwick+Crescent%2C+Holt+ACT/
94,2615,Holt,77,https://www.auhouseprices.com/sold/list/ACT/2615/Holt/,11/131 Britten-Jones Drive ,-35.2276934,149.0038485,townhouse,3,2,2,"$543,000",https://www.auhouseprices.com/sold/view/ACT/341268719/11-131+Britten-Jones+Drive%2C+Holt+ACT/
95,2615,Holt,77,https://www.auhouseprices.com/sold/list/ACT/2615/Holt/,11 Slight Place ,-35.2231367,149.0015124,house,2,1,1,"$512,500",https://www.auhouseprices.com/sold/view/ACT/341696629/11+Slight+Place%2C+Holt+ACT/
96,2615,Holt,77,https://www.auhouseprices.com/sold/list/ACT/2615/Holt/,10 Rice Place ,-35.2256100,149.0133500,house,3,1,3,"$595,000",https://www.auhouseprices.com/sold/view/ACT/341185619/10+Rice+Place%2C+Holt+ACT/
97,2615,Holt,77,https://www.auhouseprices.com/sold/list/ACT/2615/Holt/,7 Watchorn Close ,-35.2235102,149.0034552,house,3,2,1,,https://www.auhouseprices.com/sold/view/ACT/341463119/7+Watchorn+Close%2C+Holt+ACT/
98,2615,Holt,77,https://www.auhouseprices.com/sold/list/ACT/2615/Holt/,58 Armstrong Crescent ,-35.2221228,149.0088373,house,5,2,2,"$645,000",https://www.auhouseprices.com/sold/view/ACT/341353009/58+Armstrong+Crescent%2C+Holt+ACT/
99,2615,Holt,77,https://www.auhouseprices.com/sold/list/ACT/2615/Holt/,20 Eaves Street ,-35.2286400,149.0143048,house,3,1,1,"$575,000",https://www.auhouseprices.com/sold/view/ACT/341974009/20+Eaves+Street%2C+Holt+ACT/
100,2615,Holt,77,https://www.auhouseprices.com/sold/list/ACT/2615/Holt/,56 Britten Jones Drive ,-35.2225614,149.0024911,house,3,2,1,"$495,000",https://www.auhouseprices.com/sold/view/ACT/341348009/56+Britten+Jones+Drive%2C+Holt+ACT/
101,2615,Holt,77,https://www.auhouseprices.com/sold/list/ACT/2615/Holt/,3/131 Britten Jones Drive ,-35.2276934,149.0038485,house,3,2,2,"$485,000",https://www.auhouseprices.com/sold/view/ACT/341758009/3-131+Britten+Jones+Drive%2C+Holt+ACT/
102,2615,Holt,77,https://www.auhouseprices.com/sold/list/ACT/2615/Holt/,6 Searle Place ,-35.2283900,149.0114529,house,3,1,2,,https://www.auhouseprices.com/sold/view/ACT/341268509/6+Searle+Place%2C+Holt+ACT/
103,2615,Holt,77,https://www.auhouseprices.com/sold/list/ACT/2615/Holt/,85 Lionel Rose Street ,-35.2258360,148.9985505,house,4,2,4,"$647,000",https://www.auhouseprices.com/sold/view/ACT/341323509/85+Lionel+Rose+Street%2C+Holt+ACT/
104,2615,Holt,77,https://www.auhouseprices.com/sold/list/ACT/2615/Holt/,38/158 Starke Street ,-35.2238237,149.0182183,townhouse,3,1,1,"$370,000",https://www.auhouseprices.com/sold/view/ACT/341475909/38-158+Starke+Street%2C+Holt+ACT/
105,2615,Holt,77,https://www.auhouseprices.com/sold/list/ACT/2615/Holt/,30 Mockridge Crescent ,-35.2299211,149.0153363,house,3,2,7,"$605,000",https://www.auhouseprices.com/sold/view/ACT/341952909/30+Mockridge+Crescent%2C+Holt+ACT/
106,2615,Holt,77,https://www.auhouseprices.com/sold/list/ACT/2615/Holt/,67/68 Hardwick Crescent ,-35.2203995,149.0192026,unit,2,2,2,"$319,000",https://www.auhouseprices.com/sold/view/ACT/341876809/67-68+Hardwick+Crescent%2C+Holt+ACT/
107,2615,Holt,77,https://www.auhouseprices.com/sold/list/ACT/2615/Holt/,6 Eaves Street ,-35.2276545,149.0144782,house,4,1,2,"$490,000",https://www.auhouseprices.com/sold/view/ACT/341217709/6+Eaves+Street%2C+Holt+ACT/
108,2615,Holt,77,https://www.auhouseprices.com/sold/list/ACT/2615/Holt/,62/68 Hardwick Crescent ,-35.2203995,149.0192026,apartment,2,2,2,"$322,000",https://www.auhouseprices.com/sold/view/ACT/341371499/62-68+Hardwick+Crescent%2C+Holt+ACT/
109,2615,Holt,77,https://www.auhouseprices.com/sold/list/ACT/2615/Holt/,3 Trickett Street ,-35.2296917,149.0101556,house,4,2,1,"$610,000",https://www.auhouseprices.com/sold/view/ACT/341779399/3+Trickett+Street%2C+Holt+ACT/
110,2615,Holt,77,https://www.auhouseprices.com/sold/list/ACT/2615/Holt/,1/1 MacNaughton Street ,-35.2316979,149.0164968,townhouse,3,2,2,"$620,000",https://www.auhouseprices.com/sold/view/ACT/341949399/1-1+MacNaughton+Street%2C+Holt+ACT/
111,2615,Holt,77,https://www.auhouseprices.com/sold/list/ACT/2615/Holt/,3 Trickett Street ,-35.2296917,149.0101556,house,4,2,1,"$610,000",https://www.auhouseprices.com/sold/view/ACT/341452819/3+Trickett+Street%2C+Holt+ACT/
112,2615,Holt,77,https://www.auhouseprices.com/sold/list/ACT/2615/Holt/,24 Britten-Jones Drive ,-35.2207702,149.0028646,house,2,1,1,"$400,000",https://www.auhouseprices.com/sold/view/ACT/341892399/24+Britten-Jones+Drive%2C+Holt+ACT/
113,2615,Holt,77,https://www.auhouseprices.com/sold/list/ACT/2615/Holt/,55 Lindrum Crescent ,-35.2251378,149.0069670,house,4,1,2,"$602,000",https://www.auhouseprices.com/sold/view/ACT/341530299/55+Lindrum+Crescent%2C+Holt+ACT/
114,2615,Holt,77,https://www.auhouseprices.com/sold/list/ACT/2615/Holt/,118 Britten-Jones Drive ,-35.2264412,149.0028392,house,3,2,2,"$490,000",https://www.auhouseprices.com/sold/view/ACT/341075299/118+Britten-Jones+Drive%2C+Holt+ACT/
115,2615,Holt,77,https://www.auhouseprices.com/sold/list/ACT/2615/Holt/,177 Starke Street ,-35.2220420,149.0168900,house,4,1,1,"$580,000",https://www.auhouseprices.com/sold/view/ACT/341432299/177+Starke+Street%2C+Holt+ACT/
116,2615,Holt,77,https://www.auhouseprices.com/sold/list/ACT/2615/Holt/,10 Laycock Place ,-35.2215754,149.0162724,house,4,2,1,"$625,000",https://www.auhouseprices.com/sold/view/ACT/341869199/10+Laycock+Place%2C+Holt+ACT/
117,2615,Holt,77,https://www.auhouseprices.com/sold/list/ACT/2615/Holt/,35/23 Blackham Street ,-35.2245267,149.0271279,townhouse,3,2,2,"$455,000",https://www.auhouseprices.com/sold/view/ACT/341579199/35-23+Blackham++Street%2C+Holt+ACT/
118,2615,Holt,77,https://www.auhouseprices.com/sold/list/ACT/2615/Holt/,97/68 Hardwick Crescent ,-35.2203995,149.0192026,unit,1,1,1,"$235,000",https://www.auhouseprices.com/sold/view/ACT/341438099/97-68+Hardwick+Crescent%2C+Holt+ACT/
119,2615,Holt,77,https://www.auhouseprices.com/sold/list/ACT/2615/Holt/,112/68 Hardwick Crescent ,-35.2203995,149.0192026,apartment,2,2,2,"$325,000",https://www.auhouseprices.com/sold/view/ACT/341637099/112-68+Hardwick+Crescent%2C+Holt+ACT/
120,2615,Holt,77,https://www.auhouseprices.com/sold/list/ACT/2615/Holt/,3 Scobie Place ,-35.2263572,149.0187529,house,2,1,1,"$358,000",https://www.auhouseprices.com/sold/view/ACT/341354999/3+Scobie+Place%2C+Holt+ACT/
121,2615,Holt,77,https://www.auhouseprices.com/sold/list/ACT/2615/Holt/,19 Blandon Place ,-35.2219577,149.0273888,townhouse,2,1,1,"$420,500",https://www.auhouseprices.com/sold/view/ACT/341747999/19+Blandon+Place%2C+Holt+ACT/
122,2615,Holt,77,https://www.auhouseprices.com/sold/list/ACT/2615/Holt/,110 Lionel Rose Street ,-35.2247435,148.9975568,house,3,2,2,"$615,000",https://www.auhouseprices.com/sold/view/ACT/341117899/110++Lionel+Rose+Street%2C+Holt+ACT/
123,2615,Holt,77,https://www.auhouseprices.com/sold/list/ACT/2615/Holt/,1 Mullagh Place ,-35.2303497,149.0145009,house,4,1,0,"$532,000",https://www.auhouseprices.com/sold/view/ACT/341313999/1+Mullagh+Place%2C+Holt+ACT/
124,2615,Holt,77,https://www.auhouseprices.com/sold/list/ACT/2615/Holt/,8/49 Postle Circuit ,-35.2218995,149.0225023,townhouse,2,1,1,,https://www.auhouseprices.com/sold/view/ACT/341585899/8-49+Postle+Circuit%2C+Holt+ACT/
125,2615,Holt,77,https://www.auhouseprices.com/sold/list/ACT/2615/Holt/,343 Southern Cross Drive ,-35.2190740,149.0116290,house,3,2,2,"$540,000",https://www.auhouseprices.com/sold/view/ACT/341925899/343+Southern+Cross+Drive%2C+Holt+ACT/
126,2615,Holt,77,https://www.auhouseprices.com/sold/list/ACT/2615/Holt/,2/18 Beaurepaire Cresecent ,-35.2266980,149.0145314,house,4,2,2,"$711,250",https://www.auhouseprices.com/sold/view/ACT/341822899/2-18+Beaurepaire+Cresecent%2C+Holt+ACT/
127,2615,Holt,77,https://www.auhouseprices.com/sold/list/ACT/2615/Holt/,10/49 Fullston Way ,-35.2284440,148.9985220,townhouse,3,1,4,"$569,000",https://www.auhouseprices.com/sold/view/ACT/341760899/10-49+Fullston+Way%2C+Holt+ACT/
128,2615,Holt,77,https://www.auhouseprices.com/sold/list/ACT/2615/Holt/,10 Southam Place ,-35.2211201,149.0251818,house,2,1,1,"$490,000",https://www.auhouseprices.com/sold/view/ACT/341878799/10+Southam+Place%2C+Holt+ACT/
129,2615,Holt,77,https://www.auhouseprices.com/sold/list/ACT/2615/Holt/,6/74 Britten-Jones Drive ,-35.2237691,149.0020999,townhouse,3,1,1,"$501,000",https://www.auhouseprices.com/sold/view/ACT/341386899/6-74+Britten-Jones+Drive%2C+Holt+ACT/
130,2615,Holt,77,https://www.auhouseprices.com/sold/list/ACT/2615/Holt/,24/131 Britten-Jones Drive ,-35.2276934,149.0038485,house,3,2,2,"$540,000",https://www.auhouseprices.com/sold/view/ACT/341655799/24-131+Britten-Jones+Drive%2C+Holt+ACT/
131,2615,Holt,77,https://www.auhouseprices.com/sold/list/ACT/2615/Holt/,19 Blandon Place ,-35.2219577,149.0273888,townhouse,2,1,1,"$420,500",https://www.auhouseprices.com/sold/view/ACT/341261509/19+Blandon+Place%2C+Holt+ACT/
132,2615,Holt,77,https://www.auhouseprices.com/sold/list/ACT/2615/Holt/,43/131 Britten Jones Drive ,-35.2276934,149.0038485,townhouse,3,2,2,"$515,000",https://www.auhouseprices.com/sold/view/ACT/341990599/43-131+Britten+Jones+Drive%2C+Holt+ACT/
133,2615,Holt,77,https://www.auhouseprices.com/sold/list/ACT/2615/Holt/,4 Carnall Close ,-35.2197132,149.0035486,house,3,1,1,"$480,000",https://www.auhouseprices.com/sold/view/ACT/341948489/4+Carnall+Close%2C+Holt+ACT/
134,2615,Holt,77,https://www.auhouseprices.com/sold/list/ACT/2615/Holt/,8 Havard Street ,-35.2284995,148.9961217,residential land,3,1,1,,https://www.auhouseprices.com/sold/view/ACT/341260489/8+Havard+Street%2C+Holt+ACT/
135,2615,Holt,77,https://www.auhouseprices.com/sold/list/ACT/2615/Holt/,25 Moyes Crescent ,-35.2223145,149.0224865,townhouse,2,1,1,"$425,000",https://www.auhouseprices.com/sold/view/ACT/341853389/25+Moyes+Crescent%2C+Holt+ACT/
136,2615,Holt,77,https://www.auhouseprices.com/sold/list/ACT/2615/Holt/,2 Watchorn Close ,-35.2238320,149.0024390,house,3,2,2,"$530,000",https://www.auhouseprices.com/sold/view/ACT/341384289/2+Watchorn+Close%2C+Holt+ACT/
137,2615,Holt,77,https://www.auhouseprices.com/sold/list/ACT/2615/Holt/,39 Cavill Close ,-35.2245272,149.0073695,house,4,1,4,"$592,000",https://www.auhouseprices.com/sold/view/ACT/341744189/39+Cavill+Close%2C+Holt+ACT/
138,2615,Holt,77,https://www.auhouseprices.com/sold/list/ACT/2615/Holt/,25 Coverdale Street ,-35.2207530,149.0024000,house,3,2,2,"$560,000",https://www.auhouseprices.com/sold/view/ACT/341471189/25+Coverdale+Street%2C+Holt+ACT/
139,2615,Holt,77,https://www.auhouseprices.com/sold/list/ACT/2615/Holt/,12 Allen Place ,-35.2222503,149.0016884,house,3,2,2,"$565,000",https://www.auhouseprices.com/sold/view/ACT/341246089/12+Allen+Place%2C+Holt+ACT/
140,2615,Holt,77,https://www.auhouseprices.com/sold/list/ACT/2615/Holt/,87 Lionel Rose Street ,-35.2257440,148.9984060,house,4,2,2,"$645,000",https://www.auhouseprices.com/sold/view/ACT/341006089/87+Lionel+Rose+Street%2C+Holt+ACT/
141,2615,Holt,77,https://www.auhouseprices.com/sold/list/ACT/2615/Holt/,62 Britten-Jones Drive ,-35.2229280,149.0022060,house,3,2,2,,https://www.auhouseprices.com/sold/view/ACT/341757889/62+Britten-Jones+Drive%2C+Holt+ACT/
142,2615,Holt,77,https://www.auhouseprices.com/sold/list/ACT/2615/Holt/,3 Blandon Place ,-35.2223530,149.0266150,house,2,1,2,"$485,000",https://www.auhouseprices.com/sold/view/ACT/341505889/3+Blandon+Place%2C+Holt+ACT/
143,2615,Holt,77,https://www.auhouseprices.com/sold/list/ACT/2615/Holt/,17/89 Britten-Jones Drive ,-35.2248530,149.0031530,townhouse,3,2,2,"$455,000",https://www.auhouseprices.com/sold/view/ACT/341083989/17-89+Britten-Jones+Drive%2C+Holt+ACT/
144,2615,Holt,77,https://www.auhouseprices.com/sold/list/ACT/2615/Holt/,108/68 Hardwick Crescent ,-35.2203680,149.0198130,unit,2,2,2,"$289,500",https://www.auhouseprices.com/sold/view/ACT/341147689/108-68+Hardwick+Crescent%2C+Holt+ACT/
145,2615,Holt,77,https://www.auhouseprices.com/sold/list/ACT/2615/Holt/,59/158 Starke Street ,-35.2235640,149.0176560,townhouse,3,1,1,"$385,000",https://www.auhouseprices.com/sold/view/ACT/341363689/59-158+Starke+Street%2C+Holt+ACT/
146,2615,Holt,77,https://www.auhouseprices.com/sold/list/ACT/2615/Holt/,23 Slight Place ,-35.2230500,149.0006460,house,4,2,2,"$650,000",https://www.auhouseprices.com/sold/view/ACT/341255689/23+Slight+Place%2C+Holt+ACT/
147,2615,Holt,77,https://www.auhouseprices.com/sold/list/ACT/2615/Holt/,9 Wardill Close ,-35.2241700,149.0262710,house,3,1,2,,https://www.auhouseprices.com/sold/view/ACT/341576179/9+Wardill+Close%2C+Holt+ACT/
148,2615,Holt,77,https://www.auhouseprices.com/sold/list/ACT/2615/Holt/,9 Wardill Close ,-35.2241700,149.0262800,townhouse,3,1,2,,https://www.auhouseprices.com/sold/view/ACT/341957179/9+Wardill+Close%2C+Holt+ACT/
149,2615,Holt,77,https://www.auhouseprices.com/sold/list/ACT/2615/Holt/,5/31 Moyes Crescent ,-35.2226430,149.0234670,townhouse,3,2,1,"$440,000",https://www.auhouseprices.com/sold/view/ACT/341063179/5-31+Moyes+Crescent%2C+Holt+ACT/
150,2615,Holt,77,https://www.auhouseprices.com/sold/list/ACT/2615/Holt/,34 Lionel Rose Street ,-35.2292090,148.9995160,house,3,2,2,"$539,000",https://www.auhouseprices.com/sold/view/ACT/341511179/34+Lionel+Rose+Street%2C+Holt+ACT/
151,2615,Holt,77,https://www.auhouseprices.com/sold/list/ACT/2615/Holt/,4 Pearce Street ,-35.2282640,149.0086500,house,4,2,1,"$660,000",https://www.auhouseprices.com/sold/view/ACT/341840079/4+Pearce+Street%2C+Holt+ACT/
152,2615,Holt,77,https://www.auhouseprices.com/sold/list/ACT/2615/Holt/,43 Sellwood Street ,-35.2195800,149.0109260,house,3,2,2,"$665,110",https://www.auhouseprices.com/sold/view/ACT/341282079/43+Sellwood+Street%2C+Holt+ACT/
153,2615,Holt,77,https://www.auhouseprices.com/sold/list/ACT/2615/Holt/,8/64 Hardwick Crescent ,-35.2207730,149.0193170,apartment,1,1,1,"$275,000",https://www.auhouseprices.com/sold/view/ACT/341823979/8-64+Hardwick+Crescent%2C+Holt+ACT/
154,2615,Holt,77,https://www.auhouseprices.com/sold/list/ACT/2615/Holt/,11 Laycock Place ,-35.2215560,149.0157430,house,4,1,2,"$615,000",https://www.auhouseprices.com/sold/view/ACT/341258879/11+Laycock+Place%2C+Holt+ACT/
155,2615,Holt,77,https://www.auhouseprices.com/sold/list/ACT/2615/Holt/,13/23 Chave Street ,-35.2234270,149.0258900,townhouse,2,1,1,,https://www.auhouseprices.com/sold/view/ACT/341371879/13-23+Chave+Street%2C+Holt+ACT/
156,2615,Holt,77,https://www.auhouseprices.com/sold/list/ACT/2615/Holt/,1 Cassidy Close ,-35.2227960,149.0033500,house,3,1,1,"$465,000",https://www.auhouseprices.com/sold/view/ACT/341160879/1+Cassidy+Close%2C+Holt+ACT/
157,2615,Holt,77,https://www.auhouseprices.com/sold/list/ACT/2615/Holt/,24 Paterick Place ,-35.2228550,149.0292200,house,2,1,1,"$412,500",https://www.auhouseprices.com/sold/view/ACT/341079779/24+Paterick+Place%2C+Holt+ACT/
158,2615,Holt,77,https://www.auhouseprices.com/sold/list/ACT/2615/Holt/,4/31 Moyes Crescent ,-35.2226450,149.0234700,townhouse,3,2,1,"$420,000",https://www.auhouseprices.com/sold/view/ACT/341129779/4-31+Moyes+Crescent%2C+Holt+ACT/
159,2615,Holt,77,https://www.auhouseprices.com/sold/list/ACT/2615/Holt/,15 Burge Close ,-35.2256020,149.0278750,house,3,2,2,"$444,000",https://www.auhouseprices.com/sold/view/ACT/341746679/15+Burge+Close%2C+Holt+ACT/
160,2615,Holt,77,https://www.auhouseprices.com/sold/list/ACT/2615/Holt/,36/131 Britten Jones Drive ,-35.2282590,149.0041390,townhouse,3,2,2,"$504,000",https://www.auhouseprices.com/sold/view/ACT/341609679/36-131+Britten+Jones+Drive%2C+Holt+ACT/
161,2615,Holt,77,https://www.auhouseprices.com/sold/list/ACT/2615/Holt/,1 Crockett Place ,-35.2263590,149.0182340,house,2,1,1,,https://www.auhouseprices.com/sold/view/ACT/341204679/1+Crockett+Place%2C+Holt+ACT/
162,2615,Holt,77,https://www.auhouseprices.com/sold/list/ACT/2615/Holt/,10B Lindrum Crescent ,-35.2257330,149.0104620,house,4,2,2,"$598,000",https://www.auhouseprices.com/sold/view/ACT/341488579/10B+Lindrum+Crescent%2C+Holt+ACT/
163,2615,Holt,77,https://www.auhouseprices.com/sold/list/ACT/2615/Holt/,10A Lindrum Crescent ,-35.2257330,149.0104620,house,4,2,2,"$607,000",https://www.auhouseprices.com/sold/view/ACT/341120469/10A+Lindrum+Crescent%2C+Holt+ACT/
164,2615,Holt,77,https://www.auhouseprices.com/sold/list/ACT/2615/Holt/,3 Lorraway Street ,-35.2299970,148.9990540,house,4,2,2,"$615,000",https://www.auhouseprices.com/sold/view/ACT/341319469/3+Lorraway+Street%2C+Holt+ACT/
165,2615,Holt,77,https://www.auhouseprices.com/sold/list/ACT/2615/Holt/,9/64 Hardwick Crescent ,-35.2207730,149.0193170,apartment,2,2,2,"$327,800",https://www.auhouseprices.com/sold/view/ACT/341792469/9-64+Hardwick+Crescent%2C+Holt+ACT/
166,2615,Holt,77,https://www.auhouseprices.com/sold/list/ACT/2615/Holt/,10/68 Hardwick Crescent ,-35.2203680,149.0198130,apartment,1,1,1,"$240,000",https://www.auhouseprices.com/sold/view/ACT/341373369/10-68+Hardwick+Crescent%2C+Holt+ACT/
167,2615,Holt,77,https://www.auhouseprices.com/sold/list/ACT/2615/Holt/,6A Trickett Street ,-35.2296730,149.0105530,townhouse,4,2,3,"$540,000",https://www.auhouseprices.com/sold/view/ACT/341144669/6A+Trickett+Street%2C+Holt+ACT/
168,2615,Holt,77,https://www.auhouseprices.com/sold/list/ACT/2615/Holt/,27 Laycock Place ,-35.2207730,149.0159950,house,4,1,0,"$615,000",https://www.auhouseprices.com/sold/view/ACT/341245969/27+Laycock+Place%2C+Holt+ACT/
169,2615,Holt,77,https://www.auhouseprices.com/sold/list/ACT/2615/Holt/,43 Lionel Rose Street ,-35.2273490,148.9989870,house,3,2,1,"$539,000",https://www.auhouseprices.com/sold/view/ACT/341194269/43+Lionel+Rose+Street%2C+Holt+ACT/
170,2615,Holt,77,https://www.auhouseprices.com/sold/list/ACT/2615/Holt/,6 Crockett Place ,-35.2260190,149.0179510,townhouse,2,1,1,"$345,000",https://www.auhouseprices.com/sold/view/ACT/341089459/6+Crockett+Place%2C+Holt+ACT/
171,2615,Holt,77,https://www.auhouseprices.com/sold/list/ACT/2615/Holt/,16 Paterick Place ,-35.2231620,149.0296070,house,2,1,1,"$405,000",https://www.auhouseprices.com/sold/view/ACT/341720569/16+Paterick+Place%2C+Holt+ACT/
172,2615,Holt,77,https://www.auhouseprices.com/sold/list/ACT/2615/Holt/,8 Bannerman Place ,-35.2216690,149.0259480,house,4,2,3,"$685,000",https://www.auhouseprices.com/sold/view/ACT/341945969/8+Bannerman+Place%2C+Holt+ACT/
173,2615,Holt,77,https://www.auhouseprices.com/sold/list/ACT/2615/Holt/,2 Slight Place ,-35.2231040,149.0022180,house,2,1,1,,https://www.auhouseprices.com/sold/view/ACT/341993459/2+Slight+Place%2C+Holt+ACT/
174,2615,Holt,77,https://www.auhouseprices.com/sold/list/ACT/2615/Holt/,26/12 Luke Street ,-35.2235640,149.0176060,townhouse,3,1,1,"$380,000",https://www.auhouseprices.com/sold/view/ACT/341744359/26-12+Luke+Street%2C+Holt+ACT/
175,2615,Holt,77,https://www.auhouseprices.com/sold/list/ACT/2615/Holt/,37/68 Hardwick Crescent ,-35.2203680,149.0198130,apartment,2,2,2,"$323,000",https://www.auhouseprices.com/sold/view/ACT/341491259/37-68+Hardwick+Crescent%2C+Holt+ACT/
176,2615,Holt,77,https://www.auhouseprices.com/sold/list/ACT/2615/Holt/,32/23 Blackham Street ,-35.2241590,149.0272690,townhouse,3,1,2,,https://www.auhouseprices.com/sold/view/ACT/341146159/32-23+Blackham+Street%2C+Holt+ACT/
177,2615,Holt,77,https://www.auhouseprices.com/sold/list/ACT/2615/Holt/,4 Worrall Street ,-35.2203230,149.0085250,house,3,1,4,,https://www.auhouseprices.com/sold/view/ACT/341802259/4+Worrall+Street%2C+Holt+ACT/
178,2615,Holt,77,https://www.auhouseprices.com/sold/list/ACT/2615/Holt/,31 Macnaughton Street ,-35.2288360,149.0177000,house,4,1,3,"$633,000",https://www.auhouseprices.com/sold/view/ACT/341611159/31+Macnaughton+Street%2C+Holt+ACT/
179,2615,Holt,77,https://www.auhouseprices.com/sold/list/ACT/2615/Holt/,2/89 Britten-Jones Drive ,-35.2248530,149.0031530,townhouse,3,2,1,"$460,000",https://www.auhouseprices.com/sold/view/ACT/341904059/2-89+Britten-Jones+Drive%2C+Holt+ACT/
180,2615,Holt,77,https://www.auhouseprices.com/sold/list/ACT/2615/Holt/,16 Higgerson Street ,-35.2230740,149.0089400,house,4,2,2,"$785,000",https://www.auhouseprices.com/sold/view/ACT/341103959/16+Higgerson+Street%2C+Holt+ACT/
181,2615,Holt,77,https://www.auhouseprices.com/sold/list/ACT/2615/Holt/,161 Starke Street ,-35.2236200,149.0164800,house,3,1,2,"$492,000",https://www.auhouseprices.com/sold/view/ACT/341888859/161+Starke+Street%2C+Holt+ACT/
182,2615,Holt,77,https://www.auhouseprices.com/sold/list/ACT/2615/Holt/,4 Beach Place ,-35.2205620,149.0119500,house,4,2,2,"$606,810",https://www.auhouseprices.com/sold/view/ACT/341329859/4+Beach+Place%2C+Holt+ACT/
183,2615,Holt,77,https://www.auhouseprices.com/sold/list/ACT/2615/Holt/,43 Trickett Street ,-35.2262770,149.0115540,house,3,1,1,"$520,000",https://www.auhouseprices.com/sold/view/ACT/341700959/43+Trickett+Street%2C+Holt+ACT/
184,2615,Holt,77,https://www.auhouseprices.com/sold/list/ACT/2615/Holt/,36 Worrall Street ,-35.2226470,149.0078720,house,3,1,2,,https://www.auhouseprices.com/sold/view/ACT/341628959/36++Worrall+Street%2C+Holt+ACT/
185,2615,Holt,77,https://www.auhouseprices.com/sold/list/ACT/2615/Holt/,5 Bushby Place ,-35.2222730,149.0028300,house,2,1,1,"$430,200",https://www.auhouseprices.com/sold/view/ACT/341486759/5+Bushby+Place%2C+Holt+ACT/
186,2615,Holt,77,https://www.auhouseprices.com/sold/list/ACT/2615/Holt/,31 Pickworth Street ,-35.2237240,149.0154900,house,3,1,1,"$530,000",https://www.auhouseprices.com/sold/view/ACT/341080559/31+Pickworth+Street%2C+Holt+ACT/
187,2615,Holt,77,https://www.auhouseprices.com/sold/list/ACT/2615/Holt/,13 Eaves Street ,-35.2283370,149.0145650,house,4,2,1,,https://www.auhouseprices.com/sold/view/ACT/341014449/13+Eaves+Street%2C+Holt+ACT/
188,2615,Holt,77,https://www.auhouseprices.com/sold/list/ACT/2615/Holt/,28/23 Blackham Street ,-35.2241590,149.0272690,townhouse,3,1,1,"$427,500",https://www.auhouseprices.com/sold/view/ACT/341432059/28-23+Blackham+Street%2C+Holt+ACT/
189,2615,Holt,77,https://www.auhouseprices.com/sold/list/ACT/2615/Holt/,10 Allen Place ,-35.2222310,149.0018270,house,3,2,2,"$555,000",https://www.auhouseprices.com/sold/view/ACT/341535349/10+Allen+Place%2C+Holt+ACT/
190,2615,Holt,77,https://www.auhouseprices.com/sold/list/ACT/2615/Holt/,10 Bushby Place ,-35.2218490,149.0026590,house,3,2,2,"$545,000",https://www.auhouseprices.com/sold/view/ACT/341575149/10+Bushby+Place%2C+Holt+ACT/
191,2615,Holt,77,https://www.auhouseprices.com/sold/list/ACT/2615/Holt/,25 Slight Place ,-35.2227920,149.0005640,house,3,2,2,"$610,000",https://www.auhouseprices.com/sold/view/ACT/341500249/25+Slight+Place%2C+Holt+ACT/
192,2615,Holt,77,https://www.auhouseprices.com/sold/list/ACT/2615/Holt/,21 McCabe Crescent ,-35.2283970,149.0174600,house,4,1,2,"$680,000",https://www.auhouseprices.com/sold/view/ACT/341684849/21+McCabe+Crescent%2C+Holt+ACT/
193,2615,Holt,77,https://www.auhouseprices.com/sold/list/ACT/2615/Holt/,17/11 Flack Street ,-35.2236450,149.0213520,townhouse,3,2,1,"$460,000",https://www.auhouseprices.com/sold/view/ACT/341124439/17-11+Flack+Street%2C+Holt+ACT/
194,2615,Holt,77,https://www.auhouseprices.com/sold/list/ACT/2615/Holt/,6 Goddard Crescent ,-35.2229940,149.0284240,house,2,1,1,"$446,000",https://www.auhouseprices.com/sold/view/ACT/341563439/6+Goddard+Crescent%2C+Holt+ACT/
195,2615,Holt,77,https://www.auhouseprices.com/sold/list/ACT/2615/Holt/,53 Armstrong Crescent ,-35.2221390,149.0094240,house,3,1,1,"$567,000",https://www.auhouseprices.com/sold/view/ACT/341151949/53+Armstrong+Crescent%2C+Holt+ACT/
196,2615,Holt,77,https://www.auhouseprices.com/sold/list/ACT/2615/Holt/,15 Paterick Place ,-35.2230380,149.0288890,house,3,1,1,"$490,000",https://www.auhouseprices.com/sold/view/ACT/341719339/15+Paterick+Place%2C+Holt+ACT/
197,2615,Holt,77,https://www.auhouseprices.com/sold/list/ACT/2615/Holt/,7 Lorraway Street ,-35.2300340,148.9987670,house,4,2,2,"$275,000",https://www.auhouseprices.com/sold/view/ACT/341686339/7+Lorraway+Street%2C+Holt+ACT/
198,2615,Holt,77,https://www.auhouseprices.com/sold/list/ACT/2615/Holt/,14/131 Britten-Jones Drive ,-35.2282590,149.0041390,townhouse,3,2,2,"$535,000",https://www.auhouseprices.com/sold/view/ACT/341741339/14-131+Britten-Jones+Drive%2C+Holt+ACT/
199,2615,Holt,77,https://www.auhouseprices.com/sold/list/ACT/2615/Holt/,17 Bunton Place ,-35.2211870,149.0109980,house,3,1,4,"$565,000",https://www.auhouseprices.com/sold/view/ACT/341214239/17+Bunton+Place%2C+Holt+ACT/
200,2615,Holt,77,https://www.auhouseprices.com/sold/list/ACT/2615/Holt/,3 Trumper Street ,-35.2248200,149.0147200,house,4,1,1,"$590,000",https://www.auhouseprices.com/sold/view/ACT/341109139/3+Trumper+Street%2C+Holt+ACT/
201,2615,Holt,77,https://www.auhouseprices.com/sold/list/ACT/2615/Holt/,31/158 Starke Street ,-35.2235640,149.0176560,townhouse,3,1,1,,https://www.auhouseprices.com/sold/view/ACT/341917139/31-158+Starke+Street%2C+Holt+ACT/
202,2615,Holt,77,https://www.auhouseprices.com/sold/list/ACT/2615/Holt/,6 Worrall Street ,-35.2202650,149.0083090,house,3,1,2,"$500,000",https://www.auhouseprices.com/sold/view/ACT/341199039/6+Worrall+Street%2C+Holt+ACT/
203,2615,Holt,77,https://www.auhouseprices.com/sold/list/ACT/2615/Holt/,89 Beaurepaire Crescent ,-35.2216430,149.0119580,house,4,2,1,"$600,000",https://www.auhouseprices.com/sold/view/ACT/341937039/89+Beaurepaire+Crescent%2C+Holt+ACT/
204,2615,Holt,77,https://www.auhouseprices.com/sold/list/ACT/2615/Holt/,3 Worrall St ,-35.2207220,149.0082530,house,3,1,2,"$465,000",https://www.auhouseprices.com/sold/view/ACT/341597039/3+Worrall+St%2C+Holt+ACT/
205,2615,Holt,77,https://www.auhouseprices.com/sold/list/ACT/2615/Holt/,3 Postle Circuit ,-35.2205060,149.0223520,townhouse,3,2,3,"$599,950",https://www.auhouseprices.com/sold/view/ACT/341003239/3+Postle+Circuit%2C+Holt+ACT/
206,2615,Holt,77,https://www.auhouseprices.com/sold/list/ACT/2615/Holt/,53 Britten-Jones Drive ,-35.2225460,149.0035940,house,3,2,2,"$605,000",https://www.auhouseprices.com/sold/view/ACT/341335939/53+Britten-Jones+Drive%2C+Holt+ACT/
207,2615,Holt,77,https://www.auhouseprices.com/sold/list/ACT/2615/Holt/,Lorraway Street ,-35.2275340,148.9977280,residential land,3,2,2,"$350,000",https://www.auhouseprices.com/sold/view/ACT/341757149/Lorraway+Street%2C+Holt+ACT/
208,2615,Holt,77,https://www.auhouseprices.com/sold/list/ACT/2615/Holt/,5 Pickworth Street ,-35.2259950,149.0139210,house,4,2,2,"$576,000",https://www.auhouseprices.com/sold/view/ACT/341765839/5+Pickworth+Street%2C+Holt+ACT/
209,2615,Holt,77,https://www.auhouseprices.com/sold/list/ACT/2615/Holt/,369 Southern Cross Drive ,-35.2184900,149.0087120,house,3,1,3,"$530,000",https://www.auhouseprices.com/sold/view/ACT/341915939/369+Southern+Cross+Drive%2C+Holt+ACT/
210,2615,Holt,77,https://www.auhouseprices.com/sold/list/ACT/2615/Holt/,9 Scobie Place ,-35.2262660,149.0192230,house,2,1,1,"$395,000",https://www.auhouseprices.com/sold/view/ACT/341359149/9+Scobie+Place%2C+Holt+ACT/
211,2615,Holt,77,https://www.auhouseprices.com/sold/list/ACT/2615/Holt/,99 Beaurepaire Crescent ,-35.2208100,149.0126500,house,4,2,2,"$640,000",https://www.auhouseprices.com/sold/view/ACT/341246639/99+Beaurepaire+Crescent%2C+Holt+ACT/
212,2615,Holt,77,https://www.auhouseprices.com/sold/list/ACT/2615/Holt/,14/11 Flack Street ,-35.2236440,149.0213500,townhouse,3,2,1,"$450,000",https://www.auhouseprices.com/sold/view/ACT/341486639/14-11+Flack++Street%2C+Holt+ACT/
213,2615,Holt,77,https://www.auhouseprices.com/sold/list/ACT/2615/Holt/,32 Griffiths Street ,-35.2284430,149.0130000,house,4,1,2,"$580,000",https://www.auhouseprices.com/sold/view/ACT/341656639/32+Griffiths+Street%2C+Holt+ACT/
214,2615,Holt,77,https://www.auhouseprices.com/sold/list/ACT/2615/Holt/,25 Blandon Place ,-35.2220270,149.0278000,townhouse,2,1,3,"$496,000",https://www.auhouseprices.com/sold/view/ACT/341079539/25+Blandon+Place%2C+Holt+ACT/
215,2615,Holt,77,https://www.auhouseprices.com/sold/list/ACT/2615/Holt/,17 Griffiths Street ,-35.2281770,149.0121140,house,3,1,2,"$535,000",https://www.auhouseprices.com/sold/view/ACT/341457528/17+Griffiths+Street%2C+Holt+ACT/
216,2615,Holt,77,https://www.auhouseprices.com/sold/list/ACT/2615/Holt/,2/8 Beaurepaire Crescent ,-35.2265770,149.0158540,house,4,2,2,,https://www.auhouseprices.com/sold/view/ACT/341582528/2-8+Beaurepaire+Crescent%2C+Holt+ACT/
217,2615,Holt,77,https://www.auhouseprices.com/sold/list/ACT/2615/Holt/,41 Trickett Street ,-35.2264200,149.0114360,house,3,1,2,"$488,000",https://www.auhouseprices.com/sold/view/ACT/341851949/41+Trickett+Street%2C+Holt+ACT/
218,2615,Holt,77,https://www.auhouseprices.com/sold/list/ACT/2615/Holt/,27/68 Hardwick Crescent ,-35.2203680,149.0198130,apartment,2,1,1,"$290,000",https://www.auhouseprices.com/sold/view/ACT/341391428/27-68+Hardwick+Crescent%2C+Holt+ACT/
219,2615,Holt,77,https://www.auhouseprices.com/sold/list/ACT/2615/Holt/,43/158 Starke Street ,-35.2235640,149.0176560,townhouse,3,1,2,"$383,700",https://www.auhouseprices.com/sold/view/ACT/341901428/43-158+Starke+Street%2C+Holt+ACT/
220,2615,Holt,77,https://www.auhouseprices.com/sold/list/ACT/2615/Holt/,23 Bannerman Place ,-35.2217780,149.0249070,house,4,2,2,"$641,000",https://www.auhouseprices.com/sold/view/ACT/341449739/23+Bannerman+Place%2C+Holt+ACT/
221,2615,Holt,77,https://www.auhouseprices.com/sold/list/ACT/2615/Holt/,12/31 Moyes Crescent ,-35.2226430,149.0234670,townhouse,3,1,1,,https://www.auhouseprices.com/sold/view/ACT/341441949/12-31+Moyes+Crescent%2C+Holt+ACT/
222,2615,Holt,77,https://www.auhouseprices.com/sold/list/ACT/2615/Holt/,11 Beaurepaire Crescent ,-35.2269970,149.0155200,house,4,2,2,"$635,000",https://www.auhouseprices.com/sold/view/ACT/341605228/11+Beaurepaire+Crescent%2C+Holt+ACT/
223,2615,Holt,77,https://www.auhouseprices.com/sold/list/ACT/2615/Holt/,9 Stanbury Close ,-35.2247760,149.0269480,townhouse,3,1,2,"$490,000",https://www.auhouseprices.com/sold/view/ACT/341757128/9+Stanbury+Close%2C+Holt+ACT/
224,2615,Holt,77,https://www.auhouseprices.com/sold/list/ACT/2615/Holt/,53/23 Blackham Street ,-35.2241590,149.0272690,townhouse,3,1,1,"$420,000",https://www.auhouseprices.com/sold/view/ACT/341539928/53-23+Blackham+Street%2C+Holt+ACT/
225,2615,Holt,77,https://www.auhouseprices.com/sold/list/ACT/2615/Holt/,17 Beaurepaire Crescent ,-35.2271870,149.0146680,house,3,1,1,"$600,000",https://www.auhouseprices.com/sold/view/ACT/341758828/17+Beaurepaire+Crescent%2C+Holt+ACT/
226,2615,Holt,77,https://www.auhouseprices.com/sold/list/ACT/2615/Holt/,124 Drake Brockman Drive ,-35.2314780,149.0153910,house,3,2,2,"$708,000",https://www.auhouseprices.com/sold/view/ACT/341928828/124+Drake+Brockman+Drive%2C+Holt+ACT/
227,2615,Holt,77,https://www.auhouseprices.com/sold/list/ACT/2615/Holt/,5 Cassidy Close ,-35.2228330,149.0037070,house,4,2,1,"$600,000",https://www.auhouseprices.com/sold/view/ACT/341108828/5+Cassidy+Close%2C+Holt+ACT/
228,2615,Holt,77,https://www.auhouseprices.com/sold/list/ACT/2615/Holt/,4 Bardsley Place ,-35.2275100,149.0094300,house,4,1,3,"$622,000",https://www.auhouseprices.com/sold/view/ACT/341734828/4+Bardsley+Place%2C+Holt+ACT/
229,2615,Holt,77,https://www.auhouseprices.com/sold/list/ACT/2615/Holt/,301 Southern Cross Drive ,-35.2197720,149.0165290,house,4,2,2,"$657,000",https://www.auhouseprices.com/sold/view/ACT/341101828/301+Southern+Cross+Drive%2C+Holt+ACT/
230,2615,Holt,77,https://www.auhouseprices.com/sold/list/ACT/2615/Holt/,1/1 MacNaughton Street ,-35.2314750,149.0163550,house,3,2,2,"$566,000",https://www.auhouseprices.com/sold/view/ACT/341248728/1-1+MacNaughton+Street%2C+Holt+ACT/
231,2615,Holt,77,https://www.auhouseprices.com/sold/list/ACT/2615/Holt/,13 Laycock Place ,-35.2213970,149.0158000,house,4,1,1,"$605,000",https://www.auhouseprices.com/sold/view/ACT/341728628/13+Laycock+Place%2C+Holt+ACT/
232,2615,Holt,77,https://www.auhouseprices.com/sold/list/ACT/2615/Holt/,44/68 Hardwick Crescent ,-35.2203680,149.0198130,unit,2,2,1,"$293,000",https://www.auhouseprices.com/sold/view/ACT/341505628/44-68+Hardwick+Crescent%2C+Holt+ACT/
233,2615,Holt,77,https://www.auhouseprices.com/sold/list/ACT/2615/Holt/,28 Blackham Street ,-35.2230860,149.0278780,townhouse,2,1,1,"$390,000",https://www.auhouseprices.com/sold/view/ACT/341112628/28+Blackham+Street%2C+Holt+ACT/
234,2615,Holt,77,https://www.auhouseprices.com/sold/list/ACT/2615/Holt/,27 Moyes Crescent ,-35.2224430,149.0225700,house,2,1,1,,https://www.auhouseprices.com/sold/view/ACT/341816518/27+Moyes+Crescent%2C+Holt+ACT/
235,2615,Holt,77,https://www.auhouseprices.com/sold/list/ACT/2615/Holt/,58/68 Hardwick Crescent ,-35.2203680,149.0198130,apartment,2,2,1,"$302,500",https://www.auhouseprices.com/sold/view/ACT/341965518/58-68+Hardwick+Crescent%2C+Holt+ACT/
236,2615,Holt,77,https://www.auhouseprices.com/sold/list/ACT/2615/Holt/,42 Armstrong Crescent ,-35.2208000,149.0086220,house,3,2,1,,https://www.auhouseprices.com/sold/view/ACT/341323418/42+Armstrong+Crescent%2C+Holt+ACT/
237,2615,Holt,77,https://www.auhouseprices.com/sold/list/ACT/2615/Holt/,7 Laycock Place ,-35.2214680,149.0152430,house,4,1,2,"$538,500",https://www.auhouseprices.com/sold/view/ACT/341563418/7+Laycock+Place%2C+Holt+ACT/
238,2615,Holt,77,https://www.auhouseprices.com/sold/list/ACT/2615/Holt/,30 Eaves Street ,-35.2290040,149.0153200,house,4,2,3,"$575,000",https://www.auhouseprices.com/sold/view/ACT/341721418/30+Eaves+Street%2C+Holt+ACT/
239,2615,Holt,77,https://www.auhouseprices.com/sold/list/ACT/2615/Holt/,14 Coverdale Street ,-35.2211460,149.0025600,house,3,1,2,"$503,000",https://www.auhouseprices.com/sold/view/ACT/341080218/14+Coverdale+Street%2C+Holt+ACT/
240,2615,Holt,77,https://www.auhouseprices.com/sold/list/ACT/2615/Holt/,39 Mockridge Crescent ,-35.2304680,149.0150670,house,4,2,2,"$608,000",https://www.auhouseprices.com/sold/view/ACT/341356518/39+Mockridge+Crescent%2C+Holt+ACT/
241,2615,Holt,77,https://www.auhouseprices.com/sold/list/ACT/2615/Holt/,25 MacNaughton Street ,-35.2293640,149.0174600,house,4,2,2,"$621,000",https://www.auhouseprices.com/sold/view/ACT/341425218/25+MacNaughton+Street%2C+Holt+ACT/
242,2615,Holt,77,https://www.auhouseprices.com/sold/list/ACT/2615/Holt/,41 Mockridge Crescent ,-35.2305030,149.0148200,house,4,2,2,"$600,000",https://www.auhouseprices.com/sold/view/ACT/341301118/41+Mockridge+Crescent%2C+Holt+ACT/
243,2615,Holt,77,https://www.auhouseprices.com/sold/list/ACT/2615/Holt/,25 Pickworth Street ,-35.2242600,149.0154300,house,4,2,1,"$650,000",https://www.auhouseprices.com/sold/view/ACT/341831118/25+Pickworth+Street%2C+Holt+ACT/
244,2615,Holt,77,https://www.auhouseprices.com/sold/list/ACT/2615/Holt/,38/23 Blackham Street ,-35.2241600,149.0272700,house,3,2,2,"$456,750",https://www.auhouseprices.com/sold/view/ACT/341661118/38-23+Blackham+Street%2C+Holt+ACT/
245,2615,Holt,77,https://www.auhouseprices.com/sold/list/ACT/2615/Holt/,15 Messenger Street ,-35.2236080,149.0075340,house,4,2,2,"$718,000",https://www.auhouseprices.com/sold/view/ACT/341546918/15+Messenger+Street%2C+Holt+ACT/
246,2615,Holt,77,https://www.auhouseprices.com/sold/list/ACT/2615/Holt/,77/68 Hardwick Crescent ,-35.2203680,149.0198130,apartment,2,2,2,"$345,600",https://www.auhouseprices.com/sold/view/ACT/341973918/77-68+Hardwick+Crescent%2C+Holt+ACT/
247,2615,Holt,77,https://www.auhouseprices.com/sold/list/ACT/2615/Holt/,16 Crockett Place ,-35.2260190,149.0173150,townhouse,2,1,1,"$360,000",https://www.auhouseprices.com/sold/view/ACT/341956918/16+Crockett+Place%2C+Holt+ACT/
248,2615,Holt,77,https://www.auhouseprices.com/sold/list/ACT/2615/Holt/,11/23 Chave Street ,-35.2234270,149.0258900,townhouse,2,1,1,"$351,000",https://www.auhouseprices.com/sold/view/ACT/341731949/11-23+Chave+Street%2C+Holt+ACT/
249,2615,Holt,77,https://www.auhouseprices.com/sold/list/ACT/2615/Holt/,9 Watchorn Close ,-35.2233030,149.0035770,house,3,2,2,"$575,000",https://www.auhouseprices.com/sold/view/ACT/341838118/9+Watchorn+Close%2C+Holt+ACT/
250,2615,Holt,77,https://www.auhouseprices.com/sold/list/ACT/2615/Holt/,6/68 Hardwick Crescent ,-35.2203680,149.0198130,apartment,1,1,1,"$247,000",https://www.auhouseprices.com/sold/view/ACT/341059618/6-68+Hardwick+Crescent%2C+Holt+ACT/
251,2615,Holt,77,https://www.auhouseprices.com/sold/list/ACT/2615/Holt/,1 Bunton Place ,-35.2223790,149.0102800,house,4,2,2,"$587,000",https://www.auhouseprices.com/sold/view/ACT/341565618/1+Bunton+Place%2C+Holt+ACT/
252,2615,Holt,77,https://www.auhouseprices.com/sold/list/ACT/2615/Holt/,17/2 Postle Circuit ,-35.2212260,149.0223040,townhouse,2,1,1,"$410,500",https://www.auhouseprices.com/sold/view/ACT/341155618/17-2+Postle+Circuit%2C+Holt+ACT/
253,2615,Holt,77,https://www.auhouseprices.com/sold/list/ACT/2615/Holt/,7 Mcilwraith Close ,-35.2200430,149.0036300,house,3,1,1,"$440,000",https://www.auhouseprices.com/sold/view/ACT/341975618/7+Mcilwraith+Close%2C+Holt+ACT/
254,2615,Holt,77,https://www.auhouseprices.com/sold/list/ACT/2615/Holt/,120/68 Hardwick Crescent ,-35.2203680,149.0198130,unit,2,2,2,"$332,000",https://www.auhouseprices.com/sold/view/ACT/341773508/120-68+Hardwick+Crescent%2C+Holt+ACT/
255,2615,Holt,77,https://www.auhouseprices.com/sold/list/ACT/2615/Holt/,7 Higgerson ,-35.2229400,149.0075360,house,3,1,4,"$575,000",https://www.auhouseprices.com/sold/view/ACT/341793408/7+Higgerson%2C+Holt+ACT/
256,2615,Holt,77,https://www.auhouseprices.com/sold/list/ACT/2615/Holt/,37 Britten Jones Drive ,-35.2216760,149.0038390,house,3,2,2,"$520,000",https://www.auhouseprices.com/sold/view/ACT/341843408/37+Britten+Jones+Drive%2C+Holt+ACT/
257,2615,Holt,77,https://www.auhouseprices.com/sold/list/ACT/2615/Holt/,6 Southam Place ,-35.2214270,149.0249340,house,3,1,2,"$550,000",https://www.auhouseprices.com/sold/view/ACT/341553408/6+Southam+Place%2C+Holt+ACT/
258,2615,Holt,77,https://www.auhouseprices.com/sold/list/ACT/2615/Holt/,3 Sellwood Street ,-35.2200330,149.0087560,house,3,1,1,"$515,000",https://www.auhouseprices.com/sold/view/ACT/341901308/3+Sellwood+Street%2C+Holt+ACT/
259,2615,Holt,77,https://www.auhouseprices.com/sold/list/ACT/2615/Holt/,66/68 Hardwick Crescent ,-35.2203680,149.0198130,unit,2,1,1,"$283,000",https://www.auhouseprices.com/sold/view/ACT/341427208/66-68+Hardwick+Crescent%2C+Holt+ACT/
260,2615,Holt,77,https://www.auhouseprices.com/sold/list/ACT/2615/Holt/,64 Pickworth Street ,-35.2218090,149.0146160,house,4,1,1,"$560,000",https://www.auhouseprices.com/sold/view/ACT/341809908/64+Pickworth+Street%2C+Holt+ACT/
261,2615,Holt,77,https://www.auhouseprices.com/sold/list/ACT/2615/Holt/,5/68 Hardwick Crescent ,-35.2203680,149.0198130,apartment,2,2,1,"$315,000",https://www.auhouseprices.com/sold/view/ACT/341509108/5-68+Hardwick+Crescent%2C+Holt+ACT/
262,2615,Holt,77,https://www.auhouseprices.com/sold/list/ACT/2615/Holt/,39/23 Blackham street ,-35.2241590,149.0272690,townhouse,3,2,2,"$520,000",https://www.auhouseprices.com/sold/view/ACT/341210908/39-23+Blackham+street%2C+Holt+ACT/
263,2615,Holt,77,https://www.auhouseprices.com/sold/list/ACT/2615/Holt/,1 Biggs Place ,-35.2257430,149.0186050,townhouse,3,1,2,"$465,000",https://www.auhouseprices.com/sold/view/ACT/341796808/1+Biggs+Place%2C+Holt+ACT/
264,2615,Holt,77,https://www.auhouseprices.com/sold/list/ACT/2615/Holt/,57 Britten Jones Drive ,-35.2226560,149.0035290,house,3,1,0,"$540,000",https://www.auhouseprices.com/sold/view/ACT/341283808/57+Britten+Jones+Drive%2C+Holt+ACT/
265,2615,Holt,77,https://www.auhouseprices.com/sold/list/ACT/2615/Holt/,151 Starke Street ,-35.2245360,149.0164340,house,4,1,2,"$535,000",https://www.auhouseprices.com/sold/view/ACT/341277608/151+Starke+Street%2C+Holt+ACT/
266,2615,Holt,77,https://www.auhouseprices.com/sold/list/ACT/2615/Holt/,4 Allen Place ,-35.2223850,149.0022320,house,3,2,0,"$437,000",https://www.auhouseprices.com/sold/view/ACT/341730608/4+Allen+Place%2C+Holt+ACT/
267,2615,Holt,77,https://www.auhouseprices.com/sold/list/ACT/2615/Holt/,9/26 Chave Street ,-35.2230520,149.0243570,townhouse,3,1,3,"$392,000",https://www.auhouseprices.com/sold/view/ACT/341957498/9-26+Chave+Street%2C+Holt+ACT/
268,2615,Holt,77,https://www.auhouseprices.com/sold/list/ACT/2615/Holt/,14/26 Chave Street ,-35.2230520,149.0243570,townhouse,3,1,1,"$393,000",https://www.auhouseprices.com/sold/view/ACT/341854498/14-26+Chave++Street%2C+Holt+ACT/
269,2615,Holt,77,https://www.auhouseprices.com/sold/list/ACT/2615/Holt/,8 Bannerman Place ,-35.2216690,149.0259480,house,4,3,3,"$565,000",https://www.auhouseprices.com/sold/view/ACT/341140398/8+Bannerman+Place%2C+Holt+ACT/
270,2615,Holt,77,https://www.auhouseprices.com/sold/list/ACT/2615/Holt/,47/68 Hardwick Crescent ,-35.2203680,149.0198130,apartment,2,2,1,"$295,000",https://www.auhouseprices.com/sold/view/ACT/341201949/47-68+Hardwick+Crescent%2C+Holt+ACT/
271,2615,Holt,77,https://www.auhouseprices.com/sold/list/ACT/2615/Holt/,13 Worrall St ,-35.2216430,149.0078810,house,3,1,1,"$485,000",https://www.auhouseprices.com/sold/view/ACT/341303608/13+Worrall+St%2C+Holt+ACT/
272,2615,Holt,77,https://www.auhouseprices.com/sold/list/ACT/2615/Holt/,2 Biggs Place ,-35.2260750,149.0186050,house,2,1,1,"$431,000",https://www.auhouseprices.com/sold/view/ACT/341994398/2+Biggs+Place%2C+Holt+ACT/
273,2615,Holt,77,https://www.auhouseprices.com/sold/list/ACT/2615/Holt/,4A Rice Place ,-35.2261320,149.0134590,townhouse,4,1,1,,https://www.auhouseprices.com/sold/view/ACT/341133398/4A+Rice+Place%2C+Holt+ACT/
274,2615,Holt,77,https://www.auhouseprices.com/sold/list/ACT/2615/Holt/,1 Hogan Place ,-35.2232250,149.0072150,house,3,1,4,"$515,000",https://www.auhouseprices.com/sold/view/ACT/341608298/1+Hogan+Place%2C+Holt+ACT/
275,2615,Holt,77,https://www.auhouseprices.com/sold/list/ACT/2615/Holt/,43 Britten-Jones Drive ,-35.2220270,149.0038650,house,3,1,4,"$555,000",https://www.auhouseprices.com/sold/view/ACT/341451198/43+Britten-Jones+Drive%2C+Holt+ACT/
276,2615,Holt,77,https://www.auhouseprices.com/sold/list/ACT/2615/Holt/,19 Goddard Crescent 'Aspen Ridge' ,-35.2235110,149.0274000,house,2,1,1,"$290,000",https://www.auhouseprices.com/sold/view/ACT/341727098/19+Goddard+Crescent+%27Aspen+Ridge%27%2C+Holt+ACT/
277,2615,Holt,77,https://www.auhouseprices.com/sold/list/ACT/2615/Holt/,87/68 Hardwick Crescent ,-35.2203680,149.0198130,apartment,2,2,1,"$310,000",https://www.auhouseprices.com/sold/view/ACT/341351098/87-68+Hardwick+Crescent%2C+Holt+ACT/
278,2615,Holt,77,https://www.auhouseprices.com/sold/list/ACT/2615/Holt/,15 Lindrum Crescent ,-35.2269350,149.0104880,house,5,3,1,"$615,000",https://www.auhouseprices.com/sold/view/ACT/341488898/15+Lindrum+Crescent%2C+Holt+ACT/
279,2615,Holt,77,https://www.auhouseprices.com/sold/list/ACT/2615/Holt/,10 Cavil Close ,-35.2250100,149.0063590,house,3,1,2,"$490,000",https://www.auhouseprices.com/sold/view/ACT/341385898/10+Cavil+Close%2C+Holt+ACT/
280,2615,Holt,77,https://www.auhouseprices.com/sold/list/ACT/2615/Holt/,26 Spofforth Street ,-35.2269330,149.0065930,house,3,2,2,"$515,000",https://www.auhouseprices.com/sold/view/ACT/341016798/26+Spofforth+Street%2C+Holt+ACT/
281,2615,Holt,77,https://www.auhouseprices.com/sold/list/ACT/2615/Holt/,114 Britten-jones Drive ,-35.2264100,149.0026060,house,3,2,2,"$513,000",https://www.auhouseprices.com/sold/view/ACT/341765318/114+Britten-jones+Drive%2C+Holt+ACT/
282,2615,Holt,77,https://www.auhouseprices.com/sold/list/ACT/2615/Holt/,11 Sellwood Street ,-35.2196190,149.0080390,house,3,1,1,"$450,000",https://www.auhouseprices.com/sold/view/ACT/341698698/11+Sellwood+Street%2C+Holt+ACT/
283,2615,Holt,77,https://www.auhouseprices.com/sold/list/ACT/2615/Holt/,2 Trumper Street ,-35.2246600,149.0153800,house,4,2,2,"$630,000",https://www.auhouseprices.com/sold/view/ACT/341193598/2+Trumper+Street%2C+Holt+ACT/
284,2615,Holt,77,https://www.auhouseprices.com/sold/list/ACT/2615/Holt/,21 Pickworth Street ,-35.2246600,149.0154300,house,4,2,2,"$657,000",https://www.auhouseprices.com/sold/view/ACT/341943598/21+Pickworth+Street%2C+Holt+ACT/
285,2615,Holt,77,https://www.auhouseprices.com/sold/list/ACT/2615/Holt/,7/49 Postle Circuit ,-35.2222470,149.0223500,townhouse,2,1,1,"$300,000",https://www.auhouseprices.com/sold/view/ACT/341487488/7-49+Postle+Circuit%2C+Holt+ACT/
286,2615,Holt,77,https://www.auhouseprices.com/sold/list/ACT/2615/Holt/,12/64 Hardwick Crescent ,-35.2207730,149.0193170,apartment,1,1,1,"$269,000",https://www.auhouseprices.com/sold/view/ACT/341288488/12-64+Hardwick+Crescent%2C+Holt+ACT/
287,2615,Holt,77,https://www.auhouseprices.com/sold/list/ACT/2615/Holt/,78 Armstrong Crescent ,-35.2230030,149.0108800,house,4,1,5,"$635,000",https://www.auhouseprices.com/sold/view/ACT/341594288/78+Armstrong+Crescent%2C+Holt+ACT/
288,2615,Holt,77,https://www.auhouseprices.com/sold/list/ACT/2615/Holt/,11 Blandon Place ,-35.2219200,149.0269070,house,2,1,1,"$380,000",https://www.auhouseprices.com/sold/view/ACT/341615288/11+Blandon++Place%2C+Holt+ACT/
289,2615,Holt,77,https://www.auhouseprices.com/sold/list/ACT/2615/Holt/,18/31 Moyes Crescent ,-35.2226430,149.0234670,townhouse,2,1,1,"$380,000",https://www.auhouseprices.com/sold/view/ACT/341942188/18-31+Moyes+Crescent%2C+Holt+ACT/
290,2615,Holt,77,https://www.auhouseprices.com/sold/list/ACT/2615/Holt/,49 Britten-Jones Drive ,-35.2224190,149.0038910,house,3,2,2,"$578,000",https://www.auhouseprices.com/sold/view/ACT/341321188/49+Britten-Jones+Drive%2C+Holt+ACT/
291,2615,Holt,77,https://www.auhouseprices.com/sold/list/ACT/2615/Holt/,60 Lindrum Crescent ,-35.2250610,149.0075340,house,3,1,1,"$525,000",https://www.auhouseprices.com/sold/view/ACT/341513988/60+Lindrum+Crescent%2C+Holt+ACT/
292,2615,Holt,77,https://www.auhouseprices.com/sold/list/ACT/2615/Holt/,7 Lindrum Crescent ,-35.2263830,149.0110200,house,3,1,2,"$505,000",https://www.auhouseprices.com/sold/view/ACT/341536788/7+Lindrum+Crescent%2C+Holt+ACT/
293,2615,Holt,77,https://www.auhouseprices.com/sold/list/ACT/2615/Holt/,30 Pickworth Street ,-35.2242130,149.0160400,house,3,1,3,"$530,000",https://www.auhouseprices.com/sold/view/ACT/341755688/30+Pickworth+Street%2C+Holt+ACT/
294,2615,Holt,77,https://www.auhouseprices.com/sold/list/ACT/2615/Holt/,23/23 Blackham Street ,-35.2241600,149.0272700,townhouse,3,1,1,"$367,000",https://www.auhouseprices.com/sold/view/ACT/341556688/23-23+Blackham+Street%2C+Holt+ACT/
295,2615,Holt,77,https://www.auhouseprices.com/sold/list/ACT/2615/Holt/,14 Allen Place ,-35.2219870,149.0016120,house,2,1,1,"$410,000",https://www.auhouseprices.com/sold/view/ACT/341913688/14+Allen+Place%2C+Holt+ACT/
296,2615,Holt,77,https://www.auhouseprices.com/sold/list/ACT/2615/Holt/,17 Paterick Place ,-35.2229350,149.0287250,townhouse,2,1,1,"$395,000",https://www.auhouseprices.com/sold/view/ACT/341930688/17+Paterick+Place%2C+Holt+ACT/
297,2615,Holt,77,https://www.auhouseprices.com/sold/list/ACT/2615/Holt/,16/131 Britten-jones Drive ,-35.2282590,149.0041390,unit,3,2,2,"$485,000",https://www.auhouseprices.com/sold/view/ACT/341180949/16-131+Britten-jones+Drive%2C+Holt+ACT/
298,2615,Holt,77,https://www.auhouseprices.com/sold/list/ACT/2615/Holt/,15/64 Hardwick Crescent ,-35.2207730,149.0193170,unit,1,1,1,"$275,000",https://www.auhouseprices.com/sold/view/ACT/341291588/15-64+Hardwick+Crescent%2C+Holt+ACT/
299,2615,Holt,77,https://www.auhouseprices.com/sold/list/ACT/2615/Holt/,89/68 Hardwick Crescent ,-35.2203680,149.0198130,apartment,2,2,2,"$275,000",https://www.auhouseprices.com/sold/view/ACT/341031949/89-68+Hardwick+Crescent%2C+Holt+ACT/
300,2615,Holt,77,https://www.auhouseprices.com/sold/list/ACT/2615/Holt/,59 Mockridge Crescent ,-35.2302970,149.0125000,house,4,2,2,"$640,000",https://www.auhouseprices.com/sold/view/ACT/341623478/59+Mockridge+Crescent%2C+Holt+ACT/
301,2615,Holt,77,https://www.auhouseprices.com/sold/list/ACT/2615/Holt/,13/11 Flack Street ,-35.2236450,149.0213520,townhouse,3,2,1,"$472,080",https://www.auhouseprices.com/sold/view/ACT/341120378/13-11+Flack+Street%2C+Holt+ACT/
302,2615,Holt,77,https://www.auhouseprices.com/sold/list/ACT/2615/Holt/,27 Goddard Crescent ,-35.2231270,149.0270350,townhouse,2,1,1,"$331,000",https://www.auhouseprices.com/sold/view/ACT/341480378/27+Goddard+Crescent%2C+Holt+ACT/
303,2615,Holt,77,https://www.auhouseprices.com/sold/list/ACT/2615/Holt/,68 Armstrong Crescent ,-35.2228230,149.0097280,house,3,1,1,"$492,000",https://www.auhouseprices.com/sold/view/ACT/341336378/68+Armstrong+Crescent%2C+Holt+ACT/
304,2615,Holt,77,https://www.auhouseprices.com/sold/list/ACT/2615/Holt/,15 Slight Place Holt ,-35.2231170,149.0012260,house,3,2,2,"$517,000",https://www.auhouseprices.com/sold/view/ACT/341904378/15+Slight+Place+Holt%2C+Holt+ACT/
305,2615,Holt,77,https://www.auhouseprices.com/sold/list/ACT/2615/Holt/,148 Drake Brockman Drive ,-35.2307330,149.0125080,house,4,2,2,,https://www.auhouseprices.com/sold/view/ACT/341040178/148+Drake+Brockman+Drive%2C+Holt+ACT/
306,2615,Holt,77,https://www.auhouseprices.com/sold/list/ACT/2615/Holt/,12 De Mestre Place ,-35.2276570,149.0186200,house,2,1,1,"$426,000",https://www.auhouseprices.com/sold/view/ACT/341618978/12+De+Mestre+Place%2C+Holt+ACT/
307,2615,Holt,77,https://www.auhouseprices.com/sold/list/ACT/2615/Holt/,152 Drake Brockman Drive ,-35.2305760,149.0120440,house,3,2,2,,https://www.auhouseprices.com/sold/view/ACT/341374978/152+Drake+Brockman+Drive%2C+Holt+ACT/
308,2615,Holt,77,https://www.auhouseprices.com/sold/list/ACT/2615/Holt/,7 Eaves Street ,-35.2280300,149.0146300,house,3,1,3,"$497,000",https://www.auhouseprices.com/sold/view/ACT/341729878/7+Eaves+Street%2C+Holt+ACT/
309,2615,Holt,77,https://www.auhouseprices.com/sold/list/ACT/2615/Holt/,11 De Mestre Place ,-35.2268290,149.0189220,house,2,1,1,"$330,000",https://www.auhouseprices.com/sold/view/ACT/341567778/11+De+Mestre+Place%2C+Holt+ACT/
310,2615,Holt,77,https://www.auhouseprices.com/sold/list/ACT/2615/Holt/,15 Laycock Place ,-35.2212900,149.0154300,house,4,2,3,"$525,000",https://www.auhouseprices.com/sold/view/ACT/341370878/15+Laycock+Place%2C+Holt+ACT/
311,2615,Holt,77,https://www.auhouseprices.com/sold/list/ACT/2615/Holt/,20 Spofforth Street ,-35.2274260,149.0070050,house,4,1,2,"$601,000",https://www.auhouseprices.com/sold/view/ACT/341695678/20+Spofforth+Street%2C+Holt+ACT/
312,2615,Holt,77,https://www.auhouseprices.com/sold/list/ACT/2615/Holt/,3 Kieran Place ,-35.2220570,149.0102800,house,3,1,1,"$374,500",https://www.auhouseprices.com/sold/view/ACT/341839578/3+Kieran+Place%2C+Holt+ACT/
313,2615,Holt,77,https://www.auhouseprices.com/sold/list/ACT/2615/Holt/,1 Messenger Street ,-35.2231540,149.0059060,house,4,1,2,"$525,000",https://www.auhouseprices.com/sold/view/ACT/341240578/1+Messenger+Street%2C+Holt+ACT/
314,2615,Holt,77,https://www.auhouseprices.com/sold/list/ACT/2615/Holt/,12 Beaurepaire Crescent ,-35.2266100,149.0155200,house,4,1,2,"$620,000",https://www.auhouseprices.com/sold/view/ACT/341499368/12+Beaurepaire+Crescent%2C+Holt+ACT/
315,2615,Holt,77,https://www.auhouseprices.com/sold/list/ACT/2615/Holt/,21 Britten Jones Drive ,-35.2206590,149.0034300,house,3,2,2,"$421,000",https://www.auhouseprices.com/sold/view/ACT/341525368/21+Britten+Jones+Drive%2C+Holt+ACT/
316,2615,Holt,77,https://www.auhouseprices.com/sold/list/ACT/2615/Holt/,7 Trumper Street ,-35.2246840,149.0142750,house,3,1,2,"$440,000",https://www.auhouseprices.com/sold/view/ACT/341607268/7+Trumper+Street%2C+Holt+ACT/
317,2615,Holt,77,https://www.auhouseprices.com/sold/list/ACT/2615/Holt/,5/96 Britten-Jones Drive ,-35.2250520,149.0022670,house,3,1,1,"$410,000",https://www.auhouseprices.com/sold/view/ACT/341660268/5-96+Britten-Jones+Drive%2C+Holt+ACT/
318,2615,Holt,77,https://www.auhouseprices.com/sold/list/ACT/2615/Holt/,24 Slight Place ,-35.2225110,149.0006710,house,4,2,2,"$577,500",https://www.auhouseprices.com/sold/view/ACT/341880949/24+Slight+Place%2C+Holt+ACT/
319,2615,Holt,77,https://www.auhouseprices.com/sold/list/ACT/2615/Holt/,11 Eaves Street ,-35.2282840,149.0143190,house,5,1,4,"$545,000",https://www.auhouseprices.com/sold/view/ACT/341314078/11+Eaves+Street%2C+Holt+ACT/
320,2615,Holt,77,https://www.auhouseprices.com/sold/list/ACT/2615/Holt/,17/29 Goddard Crescent ,-35.2230170,149.0269540,townhouse,2,1,1,"$295,000",https://www.auhouseprices.com/sold/view/ACT/341990068/17-29+Goddard+Crescent%2C+Holt+ACT/
321,2615,Holt,77,https://www.auhouseprices.com/sold/list/ACT/2615/Holt/,367 Southern Cross Drive ,-35.2185200,149.0089400,house,3,1,1,"$510,000",https://www.auhouseprices.com/sold/view/ACT/341858068/367+Southern+Cross+Drive%2C+Holt+ACT/
322,2615,Holt,77,https://www.auhouseprices.com/sold/list/ACT/2615/Holt/,38 Spofforth Street ,-35.2259040,149.0057190,house,3,1,2,"$503,000",https://www.auhouseprices.com/sold/view/ACT/341995068/38+Spofforth+Street%2C+Holt+ACT/
323,2615,Holt,77,https://www.auhouseprices.com/sold/list/ACT/2615/Holt/,5 Carlton Place ,-35.2275770,149.0089100,house,4,2,4,"$575,000",https://www.auhouseprices.com/sold/view/ACT/341364968/5+Carlton+Place%2C+Holt+ACT/
324,2615,Holt,77,https://www.auhouseprices.com/sold/list/ACT/2615/Holt/,43 Trickett Street ,-35.2262770,149.0115540,house,3,1,1,"$472,000",https://www.auhouseprices.com/sold/view/ACT/341352968/43+Trickett+Street%2C+Holt+ACT/
325,2615,Holt,77,https://www.auhouseprices.com/sold/list/ACT/2615/Holt/,3/31 Moyes Crescent ,-35.2226430,149.0234670,townhouse,3,2,1,"$414,000",https://www.auhouseprices.com/sold/view/ACT/341112968/3-31+Moyes+Crescent%2C+Holt+ACT/
326,2615,Holt,77,https://www.auhouseprices.com/sold/list/ACT/2615/Holt/,1 Blandon Place ,-35.2224850,149.0266450,townhouse,2,1,1,"$450,000",https://www.auhouseprices.com/sold/view/ACT/341777868/1+Blandon+Place%2C+Holt+ACT/
327,2615,Holt,77,https://www.auhouseprices.com/sold/list/ACT/2615/Holt/,158 Drake Brockman Drive ,-35.2303820,149.0112650,house,2,1,1,"$358,500",https://www.auhouseprices.com/sold/view/ACT/341817068/158+Drake+Brockman+Drive%2C+Holt+ACT/
328,2615,Holt,77,https://www.auhouseprices.com/sold/list/ACT/2615/Holt/,19 Laycock Place ,-35.2211700,149.0158800,house,3,2,0,"$505,000",https://www.auhouseprices.com/sold/view/ACT/341314868/19+Laycock+Place%2C+Holt+ACT/
329,2615,Holt,77,https://www.auhouseprices.com/sold/list/ACT/2615/Holt/,19 Britten-Jones Drive ,-35.2205800,149.0032710,house,3,2,2,,https://www.auhouseprices.com/sold/view/ACT/341372868/19+Britten-Jones+Drive%2C+Holt+ACT/
330,2615,Holt,77,https://www.auhouseprices.com/sold/list/ACT/2615/Holt/,43 Mccabe Crescent ,-35.2304040,149.0166300,house,4,2,2,"$575,000",https://www.auhouseprices.com/sold/view/ACT/341914768/43+Mccabe+Crescent%2C+Holt+ACT/
331,2615,Holt,77,https://www.auhouseprices.com/sold/list/ACT/2615/Holt/,11/64 Hardwick Crescent ,-35.2207730,149.0193170,apartment,1,1,1,"$266,000",https://www.auhouseprices.com/sold/view/ACT/341003768/11-64+Hardwick+Crescent%2C+Holt+ACT/
332,2615,Holt,77,https://www.auhouseprices.com/sold/list/ACT/2615/Holt/,37 Macnaughton Street ,-35.2283330,149.0179900,house,4,2,1,"$560,000",https://www.auhouseprices.com/sold/view/ACT/341776668/37+Macnaughton+Street%2C+Holt+ACT/
333,2615,Holt,77,https://www.auhouseprices.com/sold/list/ACT/2615/Holt/,10/64 Hardwick Crescent ,-35.2207730,149.0193170,apartment,1,1,1,"$270,500",https://www.auhouseprices.com/sold/view/ACT/341457668/10-64+Hardwick+Crescent%2C+Holt+ACT/
334,2615,Holt,77,https://www.auhouseprices.com/sold/list/ACT/2615/Holt/,48 Pickworth street ,-35.2224800,149.0162880,house,3,1,2,"$478,000",https://www.auhouseprices.com/sold/view/ACT/341897868/48+Pickworth+street%2C+Holt+ACT/
335,2615,Holt,77,https://www.auhouseprices.com/sold/list/ACT/2615/Holt/,21/23 Blackham Street ,-35.2241590,149.0272690,townhouse,3,1,1,"$370,000",https://www.auhouseprices.com/sold/view/ACT/341999458/21-23+Blackham+Street%2C+Holt+ACT/
336,2615,Holt,77,https://www.auhouseprices.com/sold/list/ACT/2615/Holt/,23 Kellermann Close ,-35.2257890,149.0174300,townhouse,3,1,2,"$383,000",https://www.auhouseprices.com/sold/view/ACT/341441358/23+Kellermann+Close%2C+Holt+ACT/
337,2615,Holt,77,https://www.auhouseprices.com/sold/list/ACT/2615/Holt/,11 Slight Place ,-35.2232380,149.0014920,house,2,1,1,"$417,500",https://www.auhouseprices.com/sold/view/ACT/341590949/11+Slight+Place%2C+Holt+ACT/
338,2615,Holt,77,https://www.auhouseprices.com/sold/list/ACT/2615/Holt/,55 Pickworth Street ,-35.2221800,149.0140200,house,3,1,2,"$465,000",https://www.auhouseprices.com/sold/view/ACT/341348258/55+Pickworth+Street%2C+Holt+ACT/
339,2615,Holt,77,https://www.auhouseprices.com/sold/list/ACT/2615/Holt/,21 Moyes Crescent ,-35.2221630,149.0223260,townhouse,2,1,1,,https://www.auhouseprices.com/sold/view/ACT/341974258/21+Moyes+Crescent%2C+Holt+ACT/
340,2615,Holt,77,https://www.auhouseprices.com/sold/list/ACT/2615/Holt/,6 McCabe Crescent ,-35.2279860,149.0164560,house,4,2,1,"$530,000",https://www.auhouseprices.com/sold/view/ACT/341265158/6+McCabe+Crescent%2C+Holt+ACT/
341,2615,Holt,77,https://www.auhouseprices.com/sold/list/ACT/2615/Holt/,5 Weber Place ,-35.2275230,149.0118170,house,3,1,3,"$436,500",https://www.auhouseprices.com/sold/view/ACT/341862158/5+Weber+Place%2C+Holt+ACT/
342,2615,Holt,77,https://www.auhouseprices.com/sold/list/ACT/2615/Holt/,1 Scobie Place ,-35.2262920,149.0186050,house,2,1,1,"$400,400",https://www.auhouseprices.com/sold/view/ACT/341836058/1+Scobie+Place%2C+Holt+ACT/
343,2615,Holt,77,https://www.auhouseprices.com/sold/list/ACT/2615/Holt/,1 Paterick Place ,-35.2238390,149.0290990,townhouse,3,1,2,"$393,000",https://www.auhouseprices.com/sold/view/ACT/341493158/1+Paterick+Place%2C+Holt+ACT/
344,2615,Holt,77,https://www.auhouseprices.com/sold/list/ACT/2615/Holt/,10/23 Chave Street ,-35.2234270,149.0258900,townhouse,3,1,1,"$378,000",https://www.auhouseprices.com/sold/view/ACT/341611949/10-23+Chave+Street%2C+Holt+ACT/
345,2615,Holt,77,https://www.auhouseprices.com/sold/list/ACT/2615/Holt/,20 Watchorn Close ,-35.2239270,149.0033300,house,3,1,1,"$480,000",https://www.auhouseprices.com/sold/view/ACT/341445958/20+Watchorn+Close%2C+Holt+ACT/
346,2615,Holt,77,https://www.auhouseprices.com/sold/list/ACT/2615/Holt/,17/89 Britten Jones Drive ,-35.2248530,149.0031530,apartment,3,2,2,"$417,000",https://www.auhouseprices.com/sold/view/ACT/341330958/17-89+Britten+Jones+Drive%2C+Holt+ACT/
347,2615,Holt,77,https://www.auhouseprices.com/sold/list/ACT/2615/Holt/,25 Kellermann Close ,-35.2257890,149.0172950,house,3,1,2,"$380,000",https://www.auhouseprices.com/sold/view/ACT/341295858/25+Kellermann+Close%2C+Holt+ACT/
348,2615,Holt,77,https://www.auhouseprices.com/sold/list/ACT/2615/Holt/,144 Drake Brockman Drive ,-35.2308900,149.0129700,house,4,2,2,"$560,000",https://www.auhouseprices.com/sold/view/ACT/341614758/144+Drake+Brockman+Drive%2C+Holt+ACT/
349,2615,Holt,77,https://www.auhouseprices.com/sold/list/ACT/2615/Holt/,37/158 Starke Street ,-35.2235640,149.0176060,townhouse,3,1,1,,https://www.auhouseprices.com/sold/view/ACT/341950758/37-158+Starke+Street%2C+Holt+ACT/
350,2615,Holt,77,https://www.auhouseprices.com/sold/list/ACT/2615/Holt/,8 Goddard Crescent ,-35.2229380,149.0283090,house,2,1,1,"$357,000",https://www.auhouseprices.com/sold/view/ACT/341397658/8+Goddard+Crescent%2C+Holt+ACT/
351,2615,Holt,77,https://www.auhouseprices.com/sold/list/ACT/2615/Holt/,13 Slight Place ,-35.2231800,149.0013600,house,3,2,2,"$472,000",https://www.auhouseprices.com/sold/view/ACT/341476658/13+Slight+Place%2C+Holt+ACT/
352,2615,Holt,77,https://www.auhouseprices.com/sold/list/ACT/2615/Holt/,39/68 Hardwick Crescent ,-35.2203680,149.0198130,apartment,2,2,1,"$285,000",https://www.auhouseprices.com/sold/view/ACT/341344658/39-68+Hardwick+Crescent%2C+Holt+ACT/
353,2615,Holt,77,https://www.auhouseprices.com/sold/list/ACT/2615/Holt/,13/74 Britten-Jones Drive ,-35.2237580,149.0014320,townhouse,3,1,1,"$399,000",https://www.auhouseprices.com/sold/view/ACT/341057558/13-74+Britten-Jones+Drive%2C+Holt+ACT/
354,2615,Holt,77,https://www.auhouseprices.com/sold/list/ACT/2615/Holt/,39 Britten-Jones Drive ,-35.2217940,149.0038230,house,3,2,2,"$485,000",https://www.auhouseprices.com/sold/view/ACT/341901949/39+Britten-Jones+Drive%2C+Holt+ACT/
355,2615,Holt,77,https://www.auhouseprices.com/sold/list/ACT/2615/Holt/,5 Mullagh Place ,-35.2309950,149.0146800,house,4,2,3,"$609,000",https://www.auhouseprices.com/sold/view/ACT/341762558/5+Mullagh+Place%2C+Holt+ACT/
356,2615,Holt,77,https://www.auhouseprices.com/sold/list/ACT/2615/Holt/,16/11 Flack Street ,-35.2236440,149.0214100,townhouse,3,2,1,"$390,000",https://www.auhouseprices.com/sold/view/ACT/341476448/16-11+Flack+Street%2C+Holt+ACT/
357,2615,Holt,77,https://www.auhouseprices.com/sold/list/ACT/2615/Holt/,92 Spofforth Street ,-35.2206730,149.0072600,house,4,2,2,"$536,000",https://www.auhouseprices.com/sold/view/ACT/341327448/92+Spofforth+Street%2C+Holt+ACT/
358,2615,Holt,77,https://www.auhouseprices.com/sold/list/ACT/2615/Holt/,40 Mockridge Crescent ,-35.2298800,149.0141300,house,3,1,1,"$490,000",https://www.auhouseprices.com/sold/view/ACT/341191448/40+Mockridge+Crescent%2C+Holt+ACT/
359,2615,Holt,77,https://www.auhouseprices.com/sold/list/ACT/2615/Holt/,22/74 Britten Jones Drive ,-35.2237580,149.0014320,townhouse,3,2,2,"$430,000",https://www.auhouseprices.com/sold/view/ACT/341278478/22-74+Britten+Jones+Drive%2C+Holt+ACT/
360,2615,Holt,77,https://www.auhouseprices.com/sold/list/ACT/2615/Holt/,49 Pickworth Street ,-35.2222950,149.0145610,house,3,2,2,"$430,000",https://www.auhouseprices.com/sold/view/ACT/341513248/49+Pickworth+Street%2C+Holt+ACT/
361,2615,Holt,77,https://www.auhouseprices.com/sold/list/ACT/2615/Holt/,11/131 Britten Jones Drive ,-35.2282590,149.0041390,townhouse,3,2,2,"$446,000",https://www.auhouseprices.com/sold/view/ACT/341501248/11-131+Britten+Jones+Drive%2C+Holt+ACT/
362,2615,Holt,77,https://www.auhouseprices.com/sold/list/ACT/2615/Holt/,17 Griffiths Street ,-35.2281760,149.0121200,house,3,1,2,"$442,000",https://www.auhouseprices.com/sold/view/ACT/341876148/17+Griffiths+Street%2C+Holt+ACT/
363,2615,Holt,77,https://www.auhouseprices.com/sold/list/ACT/2615/Holt/,7 Pickworth Street ,-35.2257770,149.0139520,residential land,3,1,2,"$395,000",https://www.auhouseprices.com/sold/view/ACT/341080148/7+Pickworth+Street%2C+Holt+ACT/
364,2615,Holt,77,https://www.auhouseprices.com/sold/list/ACT/2615/Holt/,5 Goddard Crescent ,-35.2234190,149.0287570,townhouse,2,1,1,"$295,000",https://www.auhouseprices.com/sold/view/ACT/341321949/5+Goddard+Crescent%2C+Holt+ACT/
365,2615,Holt,77,https://www.auhouseprices.com/sold/list/ACT/2615/Holt/,7/162 Drake Brockman Drive ,-35.2303070,149.0110150,townhouse,2,1,1,"$325,000",https://www.auhouseprices.com/sold/view/ACT/341773148/7-162+Drake+Brockman+Drive%2C+Holt+ACT/
366,2615,Holt,77,https://www.auhouseprices.com/sold/list/ACT/2615/Holt/,15 Lindrum Crescent ,-35.2269350,149.0104880,house,5,3,1,"$580,000",https://www.auhouseprices.com/sold/view/ACT/341964248/15+Lindrum+Crescent%2C+Holt+ACT/
367,2615,Holt,77,https://www.auhouseprices.com/sold/list/ACT/2615/Holt/,109/68 Hardwick Crescent ,-35.2203680,149.0198130,unit,2,2,2,"$288,000",https://www.auhouseprices.com/sold/view/ACT/341533148/109-68+Hardwick+Crescent%2C+Holt+ACT/
368,2615,Holt,77,https://www.auhouseprices.com/sold/list/ACT/2615/Holt/,9 Boyle Place ,-35.2262830,149.0091070,house,3,1,2,"$450,000",https://www.auhouseprices.com/sold/view/ACT/341272148/9+Boyle+Place%2C+Holt+ACT/
369,2615,Holt,77,https://www.auhouseprices.com/sold/list/ACT/2615/Holt/,33 Armstrong Crescent ,-35.2204800,149.0094300,house,4,2,2,"$520,000",https://www.auhouseprices.com/sold/view/ACT/341524048/33+Armstrong+Crescent%2C+Holt+ACT/
370,2615,Holt,77,https://www.auhouseprices.com/sold/list/ACT/2615/Holt/,9 Bushby Place ,-35.2222340,149.0025480,house,3,1,1,"$380,000",https://www.auhouseprices.com/sold/view/ACT/341658948/9+Bushby+Place%2C+Holt+ACT/
371,2615,Holt,77,https://www.auhouseprices.com/sold/list/ACT/2615/Holt/,29 Trumper St ,-35.2224950,149.0141030,house,3,2,2,"$410,000",https://www.auhouseprices.com/sold/view/ACT/341116948/29+Trumper+St%2C+Holt+ACT/
372,2615,Holt,77,https://www.auhouseprices.com/sold/list/ACT/2615/Holt/,24/23 Blackham Street ,-35.2241590,149.0272690,townhouse,3,1,1,"$340,000",https://www.auhouseprices.com/sold/view/ACT/341610048/24-23+Blackham+Street%2C+Holt+ACT/
373,2615,Holt,77,https://www.auhouseprices.com/sold/list/ACT/2615/Holt/,54/158 Starke Street ,-35.2235640,149.0176060,townhouse,3,1,1,"$322,000",https://www.auhouseprices.com/sold/view/ACT/341493948/54-158+Starke+Street%2C+Holt+ACT/
374,2615,Holt,77,https://www.auhouseprices.com/sold/list/ACT/2615/Holt/,17 Coverdale Street ,-35.2212830,149.0020790,house,3,1,2,"$419,000",https://www.auhouseprices.com/sold/view/ACT/341390948/17++Coverdale+Street%2C+Holt+ACT/
375,2615,Holt,77,https://www.auhouseprices.com/sold/list/ACT/2615/Holt/,19/89 Britten Jones Drive ,-35.2248530,149.0031530,townhouse,3,1,1,"$401,000",https://www.auhouseprices.com/sold/view/ACT/341800848/19-89+Britten+Jones+Drive%2C+Holt+ACT/
376,2615,Holt,77,https://www.auhouseprices.com/sold/list/ACT/2615/Holt/,7/11 Flack Street ,-35.2236450,149.0214020,apartment,2,1,1,"$262,000",https://www.auhouseprices.com/sold/view/ACT/341691748/7-11+Flack+Street%2C+Holt+ACT/
377,2615,Holt,77,https://www.auhouseprices.com/sold/list/ACT/2615/Holt/,9 Carnall Close ,-35.2194610,149.0039020,house,3,2,2,"$500,000",https://www.auhouseprices.com/sold/view/ACT/341700748/9+Carnall+Close%2C+Holt+ACT/
378,2615,Holt,77,https://www.auhouseprices.com/sold/list/ACT/2615/Holt/,36 Griffiths Street ,-35.2281220,149.0128640,house,3,1,0,,https://www.auhouseprices.com/sold/view/ACT/341896338/36+Griffiths+Street%2C+Holt+ACT/
379,2615,Holt,77,https://www.auhouseprices.com/sold/list/ACT/2615/Holt/,4 Sellwood Street ,-35.2197000,149.0093620,house,3,1,1,,https://www.auhouseprices.com/sold/view/ACT/341975338/4+Sellwood+Street%2C+Holt+ACT/
380,2615,Holt,77,https://www.auhouseprices.com/sold/list/ACT/2615/Holt/,1 Moyes Crescent ,-35.2199900,149.0221700,house,5,3,2,"$742,000",https://www.auhouseprices.com/sold/view/ACT/341055238/1+Moyes+Crescent%2C+Holt+ACT/
381,2615,Holt,77,https://www.auhouseprices.com/sold/list/ACT/2615/Holt/,9 Watchorn Close ,-35.2233030,149.0035770,house,3,2,2,"$483,000",https://www.auhouseprices.com/sold/view/ACT/341787138/9+Watchorn+Close%2C+Holt+ACT/
382,2615,Holt,77,https://www.auhouseprices.com/sold/list/ACT/2615/Holt/,30 Eaves Street ,-35.2290050,149.0153230,house,4,2,2,"$515,000",https://www.auhouseprices.com/sold/view/ACT/341802338/30+Eaves+Street%2C+Holt+ACT/
383,2615,Holt,77,https://www.auhouseprices.com/sold/list/ACT/2615/Holt/,345 Southern Cross Drive ,-35.2190250,149.0114200,house,3,2,2,"$455,000",https://www.auhouseprices.com/sold/view/ACT/341689938/345+Southern+Cross+Drive%2C+Holt+ACT/
384,2615,Holt,77,https://www.auhouseprices.com/sold/list/ACT/2615/Holt/,6/1-5 Macnaughton Street ,-35.2313390,149.0159610,townhouse,3,2,2,"$517,500",https://www.auhouseprices.com/sold/view/ACT/341620548/6-1-5+Macnaughton+Street%2C+Holt+ACT/
385,2615,Holt,77,https://www.auhouseprices.com/sold/list/ACT/2615/Holt/,17/12 Luke Street ,-35.2235640,149.0176560,townhouse,3,1,2,"$325,000",https://www.auhouseprices.com/sold/view/ACT/341504938/17-12+Luke+Street%2C+Holt+ACT/
386,2615,Holt,77,https://www.auhouseprices.com/sold/list/ACT/2615/Holt/,3/4 Britten-Jones Drive ,-35.2194350,149.0028430,townhouse,3,1,1,"$395,000",https://www.auhouseprices.com/sold/view/ACT/341398238/3-4+Britten-Jones+Drive%2C+Holt+ACT/
387,2615,Holt,77,https://www.auhouseprices.com/sold/list/ACT/2615/Holt/,12/17 Moyes Crescent ,-35.2219260,149.0221360,house,3,1,1,"$425,000",https://www.auhouseprices.com/sold/view/ACT/341817738/12-17+Moyes+Crescent%2C+Holt+ACT/
388,2615,Holt,77,https://www.auhouseprices.com/sold/list/ACT/2615/Holt/,16/23 Chave Street ,-35.2234270,149.0258900,townhouse,3,1,1,"$383,000",https://www.auhouseprices.com/sold/view/ACT/341676738/16-23++Chave+Street%2C+Holt+ACT/
389,2615,Holt,77,https://www.auhouseprices.com/sold/list/ACT/2615/Holt/,72 Armstrong Crescent ,-35.2228400,149.0102000,house,3,1,2,"$445,000",https://www.auhouseprices.com/sold/view/ACT/341248538/72+Armstrong+Crescent%2C+Holt+ACT/
390,2615,Holt,77,https://www.auhouseprices.com/sold/list/ACT/2615/Holt/,68 Hardwick Crescent ,-35.2203680,149.0198130,apartment,2,2,2,"$265,000",https://www.auhouseprices.com/sold/view/ACT/341845538/68+Hardwick+Crescent%2C+Holt+ACT/
391,2615,Holt,77,https://www.auhouseprices.com/sold/list/ACT/2615/Holt/,8/89 Britten-Jones Drive ,-35.2248530,149.0031530,townhouse,3,2,2,"$395,000",https://www.auhouseprices.com/sold/view/ACT/341651038/8-89+Britten-Jones+Drive%2C+Holt+ACT/
392,2615,Holt,77,https://www.auhouseprices.com/sold/list/ACT/2615/Holt/,1 Searle Place ,-35.2288510,149.0115270,house,3,1,2,"$436,000",https://www.auhouseprices.com/sold/view/ACT/341828427/1+Searle+Place%2C+Holt+ACT/
393,2615,Holt,77,https://www.auhouseprices.com/sold/list/ACT/2615/Holt/,163 Starke Street ,-35.2234340,149.0164890,house,3,1,2,"$379,000",https://www.auhouseprices.com/sold/view/ACT/341783427/163+Starke+Street%2C+Holt+ACT/
394,2615,Holt,77,https://www.auhouseprices.com/sold/list/ACT/2615/Holt/,1 Beaurepaire Crescent ,-35.2268330,149.0167700,house,4,1,2,"$515,000",https://www.auhouseprices.com/sold/view/ACT/341927327/1+Beaurepaire+Crescent%2C+Holt+ACT/
395,2615,Holt,77,https://www.auhouseprices.com/sold/list/ACT/2615/Holt/,15 Brownlow Place ,-35.2261010,149.0200450,townhouse,2,1,2,"$361,000",https://www.auhouseprices.com/sold/view/ACT/341244327/15+Brownlow+Place%2C+Holt+ACT/
396,2615,Holt,77,https://www.auhouseprices.com/sold/list/ACT/2615/Holt/,14 Lindrum Cres ,-35.2260800,149.0105300,house,3,1,0,"$450,000",https://www.auhouseprices.com/sold/view/ACT/341110227/14+Lindrum+Cres%2C+Holt+ACT/
397,2615,Holt,77,https://www.auhouseprices.com/sold/list/ACT/2615/Holt/,27 Armstrong Crescent ,-35.2206200,149.0097700,house,3,1,2,"$460,000",https://www.auhouseprices.com/sold/view/ACT/341859127/27+Armstrong+Crescent%2C+Holt+ACT/
398,2615,Holt,77,https://www.auhouseprices.com/sold/list/ACT/2615/Holt/,6 Boyle Place ,-35.2259520,149.0100600,house,3,1,2,"$415,000",https://www.auhouseprices.com/sold/view/ACT/341375627/6+Boyle+Place%2C+Holt+ACT/
399,2615,Holt,77,https://www.auhouseprices.com/sold/list/ACT/2615/Holt/,70 Armstrong Crescent ,-35.2228300,149.0099600,house,3,1,2,"$400,000",https://www.auhouseprices.com/sold/view/ACT/341557627/70+Armstrong+Crescent%2C+Holt+ACT/
400,2615,Holt,77,https://www.auhouseprices.com/sold/list/ACT/2615/Holt/,3 Southam Place ,-35.2209550,149.0247200,house,4,3,1,"$535,000",https://www.auhouseprices.com/sold/view/ACT/341914627/3+Southam+Place%2C+Holt+ACT/
401,2615,Holt,77,https://www.auhouseprices.com/sold/list/ACT/2615/Holt/,117 Starke Street ,-35.2280500,149.0178700,house,3,2,4,"$562,000",https://www.auhouseprices.com/sold/view/ACT/341777517/117+Starke+Street%2C+Holt+ACT/
402,2615,Holt,77,https://www.auhouseprices.com/sold/list/ACT/2615/Holt/,4 Bunton Place ,-35.2223050,149.0109600,house,3,1,2,"$441,000",https://www.auhouseprices.com/sold/view/ACT/341147417/4+Bunton+Place%2C+Holt+ACT/
403,2615,Holt,77,https://www.auhouseprices.com/sold/list/ACT/2615/Holt/,8 Trumper Street ,-35.2243300,149.0147000,house,4,1,4,"$436,000",https://www.auhouseprices.com/sold/view/ACT/341540417/8+Trumper+Street%2C+Holt+ACT/
404,2615,Holt,77,https://www.auhouseprices.com/sold/list/ACT/2615/Holt/,15 Blandon Place ,-35.2216760,149.0270500,house,2,1,1,"$332,500",https://www.auhouseprices.com/sold/view/ACT/341776317/15+Blandon+Place%2C+Holt+ACT/
405,2615,Holt,77,https://www.auhouseprices.com/sold/list/ACT/2615/Holt/,6 Coverdale Street ,-35.2212700,149.0031900,house,3,2,2,"$475,000",https://www.auhouseprices.com/sold/view/ACT/341371317/6+Coverdale+Street%2C+Holt+ACT/
406,2615,Holt,77,https://www.auhouseprices.com/sold/list/ACT/2615/Holt/,6 Hopman Place ,-35.2239000,149.0144000,house,3,1,3,"$435,500",https://www.auhouseprices.com/sold/view/ACT/341163217/6+Hopman+Place%2C+Holt+ACT/
407,2615,Holt,77,https://www.auhouseprices.com/sold/list/ACT/2615/Holt/,66 Armstrong Crescent ,-35.2227480,149.0094600,house,4,1,2,"$480,000",https://www.auhouseprices.com/sold/view/ACT/341945117/66+Armstrong+Crescent%2C+Holt+ACT/
408,2615,Holt,77,https://www.auhouseprices.com/sold/list/ACT/2615/Holt/,55 Lindrum Crescent ,-35.2250940,149.0067700,house,4,1,2,"$490,000",https://www.auhouseprices.com/sold/view/ACT/341705117/55+Lindrum+Crescent%2C+Holt+ACT/
409,2615,Holt,77,https://www.auhouseprices.com/sold/list/ACT/2615/Holt/,7 Higgerson Street ,-35.2229400,149.0075400,house,3,1,2,"$447,500",https://www.auhouseprices.com/sold/view/ACT/341828017/7+Higgerson+Street%2C+Holt+ACT/
410,2615,Holt,77,https://www.auhouseprices.com/sold/list/ACT/2615/Holt/,4/4 Britten Jones Drive ,-35.2194370,149.0028400,townhouse,2,1,1,"$362,500",https://www.auhouseprices.com/sold/view/ACT/341742017/4-4+Britten+Jones+Drive%2C+Holt+ACT/
411,2615,Holt,77,https://www.auhouseprices.com/sold/list/ACT/2615/Holt/,7/106 Britten-jones Drive ,-35.2257540,149.0024100,townhouse,3,1,1,"$385,000",https://www.auhouseprices.com/sold/view/ACT/341238917/7-106+Britten-jones+Drive%2C+Holt+ACT/
412,2615,Holt,77,https://www.auhouseprices.com/sold/list/ACT/2615/Holt/,23 Beaurepaire Crescent ,-35.2271840,149.0135500,house,4,2,3,"$618,000",https://www.auhouseprices.com/sold/view/ACT/341938917/23+Beaurepaire+Crescent%2C+Holt+ACT/
413,2615,Holt,77,https://www.auhouseprices.com/sold/list/ACT/2615/Holt/,50 Kellermann Close ,-35.2248460,149.0175200,townhouse,3,1,2,"$410,000",https://www.auhouseprices.com/sold/view/ACT/341675017/50+Kellermann+Close%2C+Holt+ACT/
414,2615,Holt,77,https://www.auhouseprices.com/sold/list/ACT/2615/Holt/,3/5 Paterick Place ,-35.2236250,149.0291900,house,2,1,1,"$349,000",https://www.auhouseprices.com/sold/view/ACT/341955917/3-5+Paterick+Place%2C+Holt+ACT/
415,2615,Holt,77,https://www.auhouseprices.com/sold/list/ACT/2615/Holt/,2 Griffiths Street ,-35.2296140,149.0109700,townhouse,2,1,1,"$292,000",https://www.auhouseprices.com/sold/view/ACT/341263317/2+Griffiths+Street%2C+Holt+ACT/
416,2615,Holt,77,https://www.auhouseprices.com/sold/list/ACT/2615/Holt/,3/4 Britten Jones Drive ,-35.2194370,149.0028400,townhouse,3,1,1,"$425,000",https://www.auhouseprices.com/sold/view/ACT/341930717/3-4+Britten+Jones+Drive%2C+Holt+ACT/
417,2615,Holt,77,https://www.auhouseprices.com/sold/list/ACT/2615/Holt/,60 Pickworth Street ,-35.2216380,149.0147700,house,3,1,1,"$335,000",https://www.auhouseprices.com/sold/view/ACT/341611717/60+Pickworth+Street%2C+Holt+ACT/
418,2615,Holt,77,https://www.auhouseprices.com/sold/list/ACT/2615/Holt/,41/23 Blackham Street ,-35.2241600,149.0272700,house,3,2,2,"$340,000",https://www.auhouseprices.com/sold/view/ACT/341808617/41-23+Blackham+Street%2C+Holt+ACT/
419,2615,Holt,77,https://www.auhouseprices.com/sold/list/ACT/2615/Holt/,116 Britten Jones Drive ,-35.2264670,149.0027200,townhouse,3,2,2,"$480,000",https://www.auhouseprices.com/sold/view/ACT/341151717/116+Britten+Jones++Drive%2C+Holt+ACT/
420,2615,Holt,77,https://www.auhouseprices.com/sold/list/ACT/2615/Holt/,12 Sellwood Street ,-35.2192760,149.0087300,house,4,2,1,"$487,000",https://www.auhouseprices.com/sold/view/ACT/341290507/12+Sellwood+Street%2C+Holt+ACT/
421,2615,Holt,77,https://www.auhouseprices.com/sold/list/ACT/2615/Holt/,19 Coverdale Street ,-35.2211530,149.0021500,house,3,2,2,"$490,000",https://www.auhouseprices.com/sold/view/ACT/341070407/19+Coverdale+Street%2C+Holt+ACT/
422,2615,Holt,77,https://www.auhouseprices.com/sold/list/ACT/2615/Holt/,49/23 Blackham Street ,-35.2241600,149.0272700,townhouse,3,1,1,,https://www.auhouseprices.com/sold/view/ACT/341444407/49-23+Blackham+Street%2C+Holt+ACT/
423,2615,Holt,77,https://www.auhouseprices.com/sold/list/ACT/2615/Holt/,14/89 Britten Jones Drive ,-35.2248540,149.0031600,townhouse,3,1,1,"$380,000",https://www.auhouseprices.com/sold/view/ACT/341924307/14-89+Britten+Jones+Drive%2C+Holt+ACT/
424,2615,Holt,77,https://www.auhouseprices.com/sold/list/ACT/2615/Holt/,13/12 Luke Street ,-35.2235640,149.0176200,house,3,1,2,"$328,000",https://www.auhouseprices.com/sold/view/ACT/341965307/13-12+Luke+Street%2C+Holt+ACT/
425,2615,Holt,77,https://www.auhouseprices.com/sold/list/ACT/2615/Holt/,4 Cazaly Close ,-35.2292860,149.0152100,house,3,1,1,"$433,000",https://www.auhouseprices.com/sold/view/ACT/341775907/4+Cazaly+Close%2C+Holt+ACT/
426,2615,Holt,77,https://www.auhouseprices.com/sold/list/ACT/2615/Holt/,73 Mockridge Crescent ,-35.2297200,149.0113800,townhouse,2,1,1,,https://www.auhouseprices.com/sold/view/ACT/341866907/73+Mockridge+Crescent%2C+Holt+ACT/
427,2615,Holt,77,https://www.auhouseprices.com/sold/list/ACT/2615/Holt/,14 Demestre Place ,-35.2274480,149.0186900,house,2,1,1,,https://www.auhouseprices.com/sold/view/ACT/341969907/14+Demestre+Place%2C+Holt+ACT/
428,2615,Holt,77,https://www.auhouseprices.com/sold/list/ACT/2615/Holt/,36 Cazaly Close ,-35.2306330,149.0130800,house,3,1,2,"$450,000",https://www.auhouseprices.com/sold/view/ACT/341757707/36+Cazaly+Close%2C+Holt+ACT/
429,2615,Holt,77,https://www.auhouseprices.com/sold/list/ACT/2615/Holt/,16/12 Luke Street ,-35.2235640,149.0176200,townhouse,3,1,1,"$315,000",https://www.auhouseprices.com/sold/view/ACT/341381497/16-12+Luke+Street%2C+Holt+ACT/
430,2615,Holt,77,https://www.auhouseprices.com/sold/list/ACT/2615/Holt/,88 Britten-Jones Drive ,-35.2245980,149.0024400,house,3,1,1,"$397,500",https://www.auhouseprices.com/sold/view/ACT/341296297/88+Britten-Jones+Drive%2C+Holt+ACT/
431,2615,Holt,77,https://www.auhouseprices.com/sold/list/ACT/2615/Holt/,8 Burge Close ,-35.2258300,149.0280800,house,3,1,1,"$385,000",https://www.auhouseprices.com/sold/view/ACT/341243297/8+Burge+Close%2C+Holt+ACT/
432,2615,Holt,77,https://www.auhouseprices.com/sold/list/ACT/2615/Holt/,15/11 Flack Street ,-35.2236440,149.0213800,townhouse,3,2,1,"$360,000",https://www.auhouseprices.com/sold/view/ACT/341231297/15-11+Flack+Street%2C+Holt+ACT/
433,2615,Holt,77,https://www.auhouseprices.com/sold/list/ACT/2615/Holt/,46 Kellerman Close ,-35.2249000,149.0172100,house,3,1,2,"$285,000",https://www.auhouseprices.com/sold/view/ACT/341043597/46+Kellerman+Close%2C+Holt+ACT/
434,2615,Holt,77,https://www.auhouseprices.com/sold/list/ACT/2615/Holt/,17 Slight Place ,-35.2230870,149.0010800,house,3,1,2,"$430,000",https://www.auhouseprices.com/sold/view/ACT/341390487/17+Slight+Place%2C+Holt+ACT/
435,2615,Holt,77,https://www.auhouseprices.com/sold/list/ACT/2615/Holt/,1 Biggs Place ,-35.2257420,149.0186000,house,3,1,2,"$400,000",https://www.auhouseprices.com/sold/view/ACT/341831487/1+Biggs+Place%2C+Holt+ACT/
436,2615,Holt,77,https://www.auhouseprices.com/sold/list/ACT/2615/Holt/,41/158 Starke Street ,-35.2235640,149.0176100,townhouse,3,1,1,,https://www.auhouseprices.com/sold/view/ACT/341688387/41-158+Starke+Street%2C+Holt+ACT/
437,2615,Holt,77,https://www.auhouseprices.com/sold/list/ACT/2615/Holt/,4 Messenger Street ,-35.2237000,149.0059400,house,3,1,2,"$412,500",https://www.auhouseprices.com/sold/view/ACT/341245287/4+Messenger+Street%2C+Holt+ACT/
438,2615,Holt,77,https://www.auhouseprices.com/sold/list/ACT/2615/Holt/,105/68 Hardwick Crescent ,-35.2203670,149.0198000,apartment,2,2,2,"$315,000",https://www.auhouseprices.com/sold/view/ACT/341128187/105-68+Hardwick+Crescent%2C+Holt+ACT/
439,2615,Holt,77,https://www.auhouseprices.com/sold/list/ACT/2615/Holt/,47 Pickworth Street ,-35.2223970,149.0148300,house,4,2,2,"$450,000",https://www.auhouseprices.com/sold/view/ACT/341699187/47+Pickworth+Street%2C+Holt+ACT/
