,Postcode,Suburb Name,Recent Sales,Suburb Link,Street Address,Latitude,Longitude,Property Type,Beds,Baths,Cars,Sold Price,Property Link
0,2620,Queanbeyan,226,https://www.auhouseprices.com/sold/list/ACT/2620/Queanbeyan/,137 Ross Road ,-35.3557100,149.2227430,house,3,1,1,,https://www.auhouseprices.com/sold/view/NSW/341419370/137+Ross+Road%2C+Queanbeyan+NSW/
1,2620,Queanbeyan,226,https://www.auhouseprices.com/sold/list/ACT/2620/Queanbeyan/,12 Moore Street ,-35.3458974,149.2297097,house,3,1,1,"$742,000",https://www.auhouseprices.com/sold/view/NSW/341527370/12+Moore+Street%2C+Queanbeyan+NSW/
2,2620,Queanbeyan,226,https://www.auhouseprices.com/sold/list/ACT/2620/Queanbeyan/,4/2 McIntosh Street ,-35.3572783,149.2243460,townhouse,2,2,1,"$455,000",https://www.auhouseprices.com/sold/view/NSW/341129370/4-2+McIntosh+Street%2C+Queanbeyan+NSW/
3,2620,Queanbeyan,226,https://www.auhouseprices.com/sold/list/ACT/2620/Queanbeyan/,29/85 Derrima Road ,-35.3434601,149.2212521,unit,2,1,1,"$218,000",https://www.auhouseprices.com/sold/view/NSW/341539370/29-85+Derrima+Road%2C+Queanbeyan+NSW/
4,2620,Queanbeyan,226,https://www.auhouseprices.com/sold/list/ACT/2620/Queanbeyan/,12 Granville Close Greenleigh ,-35.3668245,149.2408264,house,4,2,6,"$1,210,000",https://www.auhouseprices.com/sold/view/NSW/341784370/12+Granville+Close+Greenleigh%2C+Queanbeyan+NSW/
5,2620,Queanbeyan,226,https://www.auhouseprices.com/sold/list/ACT/2620/Queanbeyan/,5 Naylor Street ,-35.3492461,149.2216779,house,4,2,2,"$731,000",https://www.auhouseprices.com/sold/view/NSW/341937370/5+Naylor+Street%2C+Queanbeyan+NSW/
6,2620,Queanbeyan,226,https://www.auhouseprices.com/sold/list/ACT/2620/Queanbeyan/,6 Davison Street ,-35.3437769,149.2166783,house,3,1,1,,https://www.auhouseprices.com/sold/view/NSW/341357370/6+Davison+Street%2C+Queanbeyan+NSW/
7,2620,Queanbeyan,226,https://www.auhouseprices.com/sold/list/ACT/2620/Queanbeyan/,9/61 Donald Road ,-35.3622711,149.2238158,unit,2,1,1,"$240,000",https://www.auhouseprices.com/sold/view/NSW/341031370/9-61+Donald+Road%2C+Queanbeyan+NSW/
8,2620,Queanbeyan,226,https://www.auhouseprices.com/sold/list/ACT/2620/Queanbeyan/,8/94 Collett Street ,-35.3473170,149.2334227,unit,2,1,1,,https://www.auhouseprices.com/sold/view/NSW/341650270/8-94+Collett+Street%2C+Queanbeyan+NSW/
9,2620,Queanbeyan,226,https://www.auhouseprices.com/sold/list/ACT/2620/Queanbeyan/,18 Hakea Street ,-35.3654527,149.2213744,house,3,2,2,,https://www.auhouseprices.com/sold/view/NSW/341530270/18+Hakea+Street%2C+Queanbeyan+NSW/
10,2620,Queanbeyan,226,https://www.auhouseprices.com/sold/list/ACT/2620/Queanbeyan/,31 Buttle Street ,-35.3522264,149.2449591,house,3,2,2,"$680,000",https://www.auhouseprices.com/sold/view/NSW/341240270/31+Buttle+Street%2C+Queanbeyan+NSW/
11,2620,Queanbeyan,226,https://www.auhouseprices.com/sold/list/ACT/2620/Queanbeyan/,4/1 Gerald Street ,-35.3597258,149.2258101,house,2,1,1,,https://www.auhouseprices.com/sold/view/NSW/341957270/4-1+Gerald+Street%2C+Queanbeyan+NSW/
12,2620,Queanbeyan,226,https://www.auhouseprices.com/sold/list/ACT/2620/Queanbeyan/,34 Naylor Street ,-35.3509683,149.2214861,house,4,2,2,"$927,500",https://www.auhouseprices.com/sold/view/NSW/341377270/34+Naylor+Street%2C+Queanbeyan+NSW/
13,2620,Queanbeyan,226,https://www.auhouseprices.com/sold/list/ACT/2620/Queanbeyan/,51 Stornaway Road ,-35.3501761,149.2262752,house,3,1,2,"$720,000",https://www.auhouseprices.com/sold/view/NSW/341444270/51+Stornaway+Road%2C+Queanbeyan+NSW/
14,2620,Queanbeyan,226,https://www.auhouseprices.com/sold/list/ACT/2620/Queanbeyan/,13D/17 Uriarra Road ,-35.3453952,149.2268760,unit,2,2,1,"$350,000",https://www.auhouseprices.com/sold/view/NSW/341020170/13D-17+Uriarra+Road%2C+Queanbeyan+NSW/
15,2620,Queanbeyan,226,https://www.auhouseprices.com/sold/list/ACT/2620/Queanbeyan/,8 Heather Street ,-35.3521023,149.2144451,house,3,3,2,"$802,000",https://www.auhouseprices.com/sold/view/NSW/341430170/8+Heather+Street%2C+Queanbeyan+NSW/
16,2620,Queanbeyan,226,https://www.auhouseprices.com/sold/list/ACT/2620/Queanbeyan/,3 Kathleen Street ,-35.3620077,149.2344588,house,3,1,3,,https://www.auhouseprices.com/sold/view/NSW/341795170/3+Kathleen+Street%2C+Queanbeyan+NSW/
17,2620,Queanbeyan,226,https://www.auhouseprices.com/sold/list/ACT/2620/Queanbeyan/,6/13 Gerald Street ,-35.3600935,149.2268882,townhouse,3,2,2,"$520,000",https://www.auhouseprices.com/sold/view/NSW/341260170/6-13+Gerald+Street%2C+Queanbeyan+NSW/
18,2620,Queanbeyan,226,https://www.auhouseprices.com/sold/list/ACT/2620/Queanbeyan/,2 Mark Place ,-35.3597920,149.2311916,house,7,2,5,,https://www.auhouseprices.com/sold/view/NSW/341840170/2+Mark+Place%2C+Queanbeyan+NSW/
19,2620,Queanbeyan,226,https://www.auhouseprices.com/sold/list/ACT/2620/Queanbeyan/,12/3-5 Davison Street ,-35.3437525,149.2173923,house,2,1,1,"$284,000",https://www.auhouseprices.com/sold/view/NSW/341406170/12-3-5+Davison+Street%2C+Queanbeyan+NSW/
20,2620,Queanbeyan,226,https://www.auhouseprices.com/sold/list/ACT/2620/Queanbeyan/,28 Bendora Avenue ,-35.3498280,149.2147265,house,3,2,1,,https://www.auhouseprices.com/sold/view/NSW/341960170/28+Bendora+Avenue%2C+Queanbeyan+NSW/
21,2620,Queanbeyan,226,https://www.auhouseprices.com/sold/list/ACT/2620/Queanbeyan/,8/3 Velacia Place ,-35.3470721,149.2259790,unit,2,1,1,"$245,000",https://www.auhouseprices.com/sold/view/NSW/341740070/8-3+Velacia+Place%2C+Queanbeyan+NSW/
22,2620,Queanbeyan,226,https://www.auhouseprices.com/sold/list/ACT/2620/Queanbeyan/,25/22 Mowatt Street ,-35.3523173,149.2414599,unit,1,1,1,"$185,000",https://www.auhouseprices.com/sold/view/NSW/341450070/25-22+Mowatt+Street%2C+Queanbeyan+NSW/
23,2620,Queanbeyan,226,https://www.auhouseprices.com/sold/list/ACT/2620/Queanbeyan/,6/49 Erin Street ,-35.3468880,149.2340131,townhouse,3,2,1,"$550,000",https://www.auhouseprices.com/sold/view/NSW/341087270/6-49+Erin+Street%2C+Queanbeyan+NSW/
24,2620,Queanbeyan,226,https://www.auhouseprices.com/sold/list/ACT/2620/Queanbeyan/,10 Hayes Street ,-35.3595902,149.2346138,house,6,2,4,"$750,000",https://www.auhouseprices.com/sold/view/NSW/341558070/10+Hayes+Street%2C+Queanbeyan+NSW/
25,2620,Queanbeyan,226,https://www.auhouseprices.com/sold/list/ACT/2620/Queanbeyan/,1/92 Collett Street ,-35.3476742,149.2336827,townhouse,3,1,2,"$535,000",https://www.auhouseprices.com/sold/view/NSW/341808270/1-92+Collett+Street%2C+Queanbeyan+NSW/
26,2620,Queanbeyan,226,https://www.auhouseprices.com/sold/list/ACT/2620/Queanbeyan/,18 Nimmitabel Street ,-35.3534731,149.2111433,house,4,3,2,"$900,000",https://www.auhouseprices.com/sold/view/NSW/341865070/18+Nimmitabel+Street%2C+Queanbeyan+NSW/
27,2620,Queanbeyan,226,https://www.auhouseprices.com/sold/list/ACT/2620/Queanbeyan/,3 Hobbs Street ,-35.3536900,149.2250609,house,2,1,1,,https://www.auhouseprices.com/sold/view/NSW/341335070/3+Hobbs+Street%2C+Queanbeyan+NSW/
28,2620,Queanbeyan,226,https://www.auhouseprices.com/sold/list/ACT/2620/Queanbeyan/,58 Henderson Road ,-35.3434268,149.2258556,house,3,2,2,"$605,000",https://www.auhouseprices.com/sold/view/NSW/341045070/58+Henderson+Road%2C+Queanbeyan+NSW/
29,2620,Queanbeyan,226,https://www.auhouseprices.com/sold/list/ACT/2620/Queanbeyan/,4/3 Gerald Street ,-35.3597726,149.2261735,townhouse,2,1,1,"$437,000",https://www.auhouseprices.com/sold/view/NSW/341016070/4-3+Gerald+Street%2C+Queanbeyan+NSW/
30,2620,Queanbeyan,226,https://www.auhouseprices.com/sold/list/ACT/2620/Queanbeyan/,Unit 7/17 Campbell St ,-35.3487745,149.2295361,unit,2,1,1,,https://www.auhouseprices.com/sold/view/NSW/341716070/Unit+7-17+Campbell+St%2C+Queanbeyan+NSW/
31,2620,Queanbeyan,226,https://www.auhouseprices.com/sold/list/ACT/2620/Queanbeyan/,4/8-10 Donald Road ,-35.3573183,149.2256375,unitblock,3,2,1,"$545,000",https://www.auhouseprices.com/sold/view/NSW/341570070/4-8-10+Donald+Road%2C+Queanbeyan+NSW/
32,2620,Queanbeyan,226,https://www.auhouseprices.com/sold/list/ACT/2620/Queanbeyan/,8/8-10 Donald Road ,-35.3573183,149.2256375,unitblock,3,2,2,"$599,000",https://www.auhouseprices.com/sold/view/NSW/341860070/8-8-10+Donald+Road%2C+Queanbeyan+NSW/
33,2620,Queanbeyan,226,https://www.auhouseprices.com/sold/list/ACT/2620/Queanbeyan/,6/15 Charles Street ,-35.3597644,149.2271809,townhouse,2,1,1,,https://www.auhouseprices.com/sold/view/NSW/341759970/6-15+Charles+Street%2C+Queanbeyan+NSW/
34,2620,Queanbeyan,226,https://www.auhouseprices.com/sold/list/ACT/2620/Queanbeyan/,3/16 Yarrow Street ,-35.3544447,149.2461668,apartment,2,1,1,"$298,000",https://www.auhouseprices.com/sold/view/NSW/341879970/3-16+Yarrow+Street%2C+Queanbeyan+NSW/
35,2620,Queanbeyan,226,https://www.auhouseprices.com/sold/list/ACT/2620/Queanbeyan/,8/51 Erin Street ,-35.3467865,149.2341994,townhouse,3,2,2,"$500,000",https://www.auhouseprices.com/sold/view/NSW/341796870/8-51+Erin+Street%2C+Queanbeyan+NSW/
36,2620,Queanbeyan,226,https://www.auhouseprices.com/sold/list/ACT/2620/Queanbeyan/,11B/17 Uriarra Road ,-35.3453952,149.2268760,apartment,3,2,2,"$410,113",https://www.auhouseprices.com/sold/view/NSW/341055870/11B-17+Uriarra+Road%2C+Queanbeyan+NSW/
37,2620,Queanbeyan,226,https://www.auhouseprices.com/sold/list/ACT/2620/Queanbeyan/,5/12 Nimmitabel Street ,-35.3547425,149.2110665,townhouse,2,1,1,"$400,000",https://www.auhouseprices.com/sold/view/NSW/341283870/5-12+Nimmitabel+Street%2C+Queanbeyan+NSW/
38,2620,Queanbeyan,226,https://www.auhouseprices.com/sold/list/ACT/2620/Queanbeyan/,1/9 Thurralilly Street ,-35.3433152,149.2401624,townhouse,2,1,1,"$385,000",https://www.auhouseprices.com/sold/view/NSW/341679770/1-9+Thurralilly+Street%2C+Queanbeyan+NSW/
39,2620,Queanbeyan,226,https://www.auhouseprices.com/sold/list/ACT/2620/Queanbeyan/,84 Ross Road ,-35.3533814,149.2238913,house,3,1,1,,https://www.auhouseprices.com/sold/view/NSW/341799770/84+Ross+Road%2C+Queanbeyan+NSW/
40,2620,Queanbeyan,226,https://www.auhouseprices.com/sold/list/ACT/2620/Queanbeyan/,14/94 Collett Street ,-35.3473170,149.2334227,apartment,2,1,1,"$337,500",https://www.auhouseprices.com/sold/view/NSW/341485770/14-94+Collett+Street%2C+Queanbeyan+NSW/
41,2620,Queanbeyan,226,https://www.auhouseprices.com/sold/list/ACT/2620/Queanbeyan/,5/1 Velacia Place ,-35.3470613,149.2256704,unit,2,1,1,"$219,500",https://www.auhouseprices.com/sold/view/NSW/341693870/5-1+Velacia+Place%2C+Queanbeyan+NSW/
42,2620,Queanbeyan,226,https://www.auhouseprices.com/sold/list/ACT/2620/Queanbeyan/,18C/17 Uriarra Road ,-35.3454210,149.2268860,apartment,3,2,2,"$365,000",https://www.auhouseprices.com/sold/view/NSW/341640870/18C-17+Uriarra+Road%2C+Queanbeyan+NSW/
43,2620,Queanbeyan,226,https://www.auhouseprices.com/sold/list/ACT/2620/Queanbeyan/,3/40 Ross Road ,-35.3475394,149.2255895,townhouse,2,1,1,"$415,000",https://www.auhouseprices.com/sold/view/NSW/341977670/3-40+Ross+Road%2C+Queanbeyan+NSW/
44,2620,Queanbeyan,226,https://www.auhouseprices.com/sold/list/ACT/2620/Queanbeyan/,41/86 Derrima Road ,-35.3428240,149.2220520,unit,1,1,1,"$220,000",https://www.auhouseprices.com/sold/view/NSW/341605670/41-86+Derrima+Road%2C+Queanbeyan+NSW/
45,2620,Queanbeyan,226,https://www.auhouseprices.com/sold/list/ACT/2620/Queanbeyan/,1/2 Lazarus Crescent ,-35.3615977,149.2113642,townhouse,2,1,1,"$385,500",https://www.auhouseprices.com/sold/view/NSW/341393570/1-2+Lazarus+Crescent%2C+Queanbeyan+NSW/
46,2620,Queanbeyan,226,https://www.auhouseprices.com/sold/list/ACT/2620/Queanbeyan/,6 Christopher Crescent ,-35.3611713,149.2223561,house,3,2,4,,https://www.auhouseprices.com/sold/view/NSW/341107570/6+Christopher+Crescent%2C+Queanbeyan+NSW/
47,2620,Queanbeyan,226,https://www.auhouseprices.com/sold/list/ACT/2620/Queanbeyan/,15 Munro Road ,-35.3562467,149.2232406,house,4,4,4,"$770,000",https://www.auhouseprices.com/sold/view/NSW/341807570/15+Munro+Road%2C+Queanbeyan+NSW/
48,2620,Queanbeyan,226,https://www.auhouseprices.com/sold/list/ACT/2620/Queanbeyan/,2/32A Booth Street ,-35.3537970,149.2447968,townhouse,2,1,2,"$425,000",https://www.auhouseprices.com/sold/view/NSW/341406460/2-32A+Booth+Street%2C+Queanbeyan+NSW/
49,2620,Queanbeyan,226,https://www.auhouseprices.com/sold/list/ACT/2620/Queanbeyan/,56/17 Uriarra Road ,-35.3453952,149.2268760,unit,2,2,1,"$325,000",https://www.auhouseprices.com/sold/view/NSW/341397670/56-17+Uriarra+Road%2C+Queanbeyan+NSW/
50,2620,Queanbeyan,226,https://www.auhouseprices.com/sold/list/ACT/2620/Queanbeyan/,46 Ross Road ,-35.3481024,149.2248750,house,4,2,1,,https://www.auhouseprices.com/sold/view/NSW/341008670/46+Ross+Road%2C+Queanbeyan+NSW/
51,2620,Queanbeyan,226,https://www.auhouseprices.com/sold/list/ACT/2620/Queanbeyan/,102 Cameron Road ,-35.3666362,149.2294870,house,3,1,1,"$500,000",https://www.auhouseprices.com/sold/view/NSW/341438360/102+Cameron+Road%2C+Queanbeyan+NSW/
52,2620,Queanbeyan,226,https://www.auhouseprices.com/sold/list/ACT/2620/Queanbeyan/,15/80 COLLETT STREET ,-35.3488690,149.2345391,unit,2,1,1,,https://www.auhouseprices.com/sold/view/NSW/341985360/15-80+COLLETT+STREET%2C+Queanbeyan+NSW/
53,2620,Queanbeyan,226,https://www.auhouseprices.com/sold/list/ACT/2620/Queanbeyan/,1/25 Macquoid Street ,-35.3520055,149.2406800,unit,2,1,1,"$263,000",https://www.auhouseprices.com/sold/view/NSW/341384260/1-25+Macquoid+Street%2C+Queanbeyan+NSW/
54,2620,Queanbeyan,226,https://www.auhouseprices.com/sold/list/ACT/2620/Queanbeyan/,5/15 Charles Street ,-35.3597644,149.2271809,unit,2,1,2,"$390,000",https://www.auhouseprices.com/sold/view/NSW/341540160/5-15+Charles+Street%2C+Queanbeyan+NSW/
55,2620,Queanbeyan,226,https://www.auhouseprices.com/sold/list/ACT/2620/Queanbeyan/,26/39 Thurralilly Street ,-35.3436461,149.2429397,townhouse,2,1,1,"$212,500",https://www.auhouseprices.com/sold/view/NSW/341250160/26-39+Thurralilly+Street%2C+Queanbeyan+NSW/
56,2620,Queanbeyan,226,https://www.auhouseprices.com/sold/list/ACT/2620/Queanbeyan/,1/78-80 Derrima Road ,-35.3431027,149.2226718,apartment,2,1,1,"$416,500",https://www.auhouseprices.com/sold/view/NSW/341830160/1-78-80+Derrima+Road%2C+Queanbeyan+NSW/
57,2620,Queanbeyan,226,https://www.auhouseprices.com/sold/list/ACT/2620/Queanbeyan/,20/19 Charles Street ,-35.3593177,149.2272661,house,1,1,1,,https://www.auhouseprices.com/sold/view/NSW/341080160/20-19+Charles+Street%2C+Queanbeyan+NSW/
58,2620,Queanbeyan,226,https://www.auhouseprices.com/sold/list/ACT/2620/Queanbeyan/,93 Cameron Road ,-35.3640288,149.2293758,house,4,2,0,,https://www.auhouseprices.com/sold/view/NSW/341463260/93+Cameron+Road%2C+Queanbeyan+NSW/
59,2620,Queanbeyan,226,https://www.auhouseprices.com/sold/list/ACT/2620/Queanbeyan/,4/6-8 King Street ,-35.3436862,149.2196999,unit,1,1,1,,https://www.auhouseprices.com/sold/view/NSW/341873260/4-6-8+King+Street%2C+Queanbeyan+NSW/
60,2620,Queanbeyan,226,https://www.auhouseprices.com/sold/list/ACT/2620/Queanbeyan/,134 Collett St ,-35.3450654,149.2298613,house,3,1,2,"$508,000",https://www.auhouseprices.com/sold/view/NSW/341252260/134+Collett+St%2C+Queanbeyan+NSW/
61,2620,Queanbeyan,226,https://www.auhouseprices.com/sold/list/ACT/2620/Queanbeyan/,3/9 Hybon Avenue ,-35.3450294,149.2510428,townhouse,2,1,2,"$407,000",https://www.auhouseprices.com/sold/view/NSW/341952260/3-9+Hybon+Avenue%2C+Queanbeyan+NSW/
62,2620,Queanbeyan,226,https://www.auhouseprices.com/sold/list/ACT/2620/Queanbeyan/,4/56 Molonglo Street ,-35.3545940,149.2416245,townhouse,3,1,1,,https://www.auhouseprices.com/sold/view/NSW/341428060/4-56+Molonglo+Street%2C+Queanbeyan+NSW/
63,2620,Queanbeyan,226,https://www.auhouseprices.com/sold/list/ACT/2620/Queanbeyan/,46/4 Ross Road ,-35.3447230,149.2258210,unit,2,2,2,"$360,000",https://www.auhouseprices.com/sold/view/NSW/341636160/46-4+Ross+Road%2C+Queanbeyan+NSW/
64,2620,Queanbeyan,226,https://www.auhouseprices.com/sold/list/ACT/2620/Queanbeyan/,39a Morton Street ,-35.3484181,149.2249272,house,3,1,1,,https://www.auhouseprices.com/sold/view/NSW/341583260/39a+Morton+Street%2C+Queanbeyan+NSW/
65,2620,Queanbeyan,226,https://www.auhouseprices.com/sold/list/ACT/2620/Queanbeyan/,18/43 Antill ,-35.3484997,149.2350492,apartment,2,2,2,"$415,000",https://www.auhouseprices.com/sold/view/NSW/341325060/18-43+Antill%2C+Queanbeyan+NSW/
66,2620,Queanbeyan,226,https://www.auhouseprices.com/sold/list/ACT/2620/Queanbeyan/,8/25 Macquoid Street ,-35.3520055,149.2406800,townhouse,2,1,1,,https://www.auhouseprices.com/sold/view/NSW/341138060/8-25+Macquoid+Street%2C+Queanbeyan+NSW/
67,2620,Queanbeyan,226,https://www.auhouseprices.com/sold/list/ACT/2620/Queanbeyan/,8/20 Charles Street ,-35.3593520,149.2282238,unit,1,1,1,,https://www.auhouseprices.com/sold/view/NSW/341293260/8-20+Charles+Street%2C+Queanbeyan+NSW/
68,2620,Queanbeyan,226,https://www.auhouseprices.com/sold/list/ACT/2620/Queanbeyan/,27 Jordan Place ,-35.3571798,149.2080179,house,3,2,3,"$515,000",https://www.auhouseprices.com/sold/view/NSW/341845960/27+Jordan+Place%2C+Queanbeyan+NSW/
69,2620,Queanbeyan,226,https://www.auhouseprices.com/sold/list/ACT/2620/Queanbeyan/,4/16 Telopea Place ,-35.3640048,149.2125299,townhouse,3,2,2,"$585,000",https://www.auhouseprices.com/sold/view/NSW/341145960/4-16+Telopea+Place%2C+Queanbeyan+NSW/
70,2620,Queanbeyan,226,https://www.auhouseprices.com/sold/list/ACT/2620/Queanbeyan/,139 Ross Road ,-35.3558444,149.2227175,house,3,2,2,"$622,000",https://www.auhouseprices.com/sold/view/NSW/341927860/139+Ross+Road%2C+Queanbeyan+NSW/
71,2620,Queanbeyan,226,https://www.auhouseprices.com/sold/list/ACT/2620/Queanbeyan/,7 Baden Place ,-35.3774997,149.2240192,house,5,2,4,"$1,520,000",https://www.auhouseprices.com/sold/view/NSW/341227860/7+Baden+Place%2C+Queanbeyan+NSW/
72,2620,Queanbeyan,226,https://www.auhouseprices.com/sold/list/ACT/2620/Queanbeyan/,3/56 Tharwa Road ,-35.3580632,149.2223501,townhouse,3,2,4,"$615,000",https://www.auhouseprices.com/sold/view/NSW/341932860/3-56+Tharwa+Road%2C+Queanbeyan+NSW/
73,2620,Queanbeyan,226,https://www.auhouseprices.com/sold/list/ACT/2620/Queanbeyan/,3/9 Morton Street ,-35.3487108,149.2283144,house,3,2,1,,https://www.auhouseprices.com/sold/view/NSW/341265960/3-9+Morton+Street%2C+Queanbeyan+NSW/
74,2620,Queanbeyan,226,https://www.auhouseprices.com/sold/list/ACT/2620/Queanbeyan/,37 Kinsella Street ,-35.3698469,149.2210543,house,5,4,3,"$955,000",https://www.auhouseprices.com/sold/view/NSW/341839760/37+Kinsella+Street%2C+Queanbeyan+NSW/
75,2620,Queanbeyan,226,https://www.auhouseprices.com/sold/list/ACT/2620/Queanbeyan/,15 Hillbar Rise ,-35.3628940,149.2305637,house,4,1,2,,https://www.auhouseprices.com/sold/view/NSW/341396760/15+Hillbar+Rise%2C+Queanbeyan+NSW/
76,2620,Queanbeyan,226,https://www.auhouseprices.com/sold/list/ACT/2620/Queanbeyan/,8/2 Lazarus Crescent ,-35.3615977,149.2113642,townhouse,2,1,1,"$379,000",https://www.auhouseprices.com/sold/view/NSW/341669760/8-2+Lazarus+Crescent%2C+Queanbeyan+NSW/
77,2620,Queanbeyan,226,https://www.auhouseprices.com/sold/list/ACT/2620/Queanbeyan/,63 Thorpe Avenue ,-35.3630228,149.2353945,house,3,1,2,,https://www.auhouseprices.com/sold/view/NSW/341739660/63+Thorpe+Avenue%2C+Queanbeyan+NSW/
78,2620,Queanbeyan,226,https://www.auhouseprices.com/sold/list/ACT/2620/Queanbeyan/,12 West Avenue ,-35.3588347,149.2313494,house,2,1,1,,https://www.auhouseprices.com/sold/view/NSW/341387660/12+West+Avenue%2C+Queanbeyan+NSW/
79,2620,Queanbeyan,226,https://www.auhouseprices.com/sold/list/ACT/2620/Queanbeyan/,31/13-15 Mowatt Street ,-35.3538804,149.2416269,unit,2,1,1,"$296,950",https://www.auhouseprices.com/sold/view/NSW/341118660/31-13-15+Mowatt+Street%2C+Queanbeyan+NSW/
80,2620,Queanbeyan,226,https://www.auhouseprices.com/sold/list/ACT/2620/Queanbeyan/,38 River Drive ,-35.3733933,149.2406526,house,3,2,2,"$782,000",https://www.auhouseprices.com/sold/view/NSW/341135660/38+River+Drive%2C+Queanbeyan+NSW/
81,2620,Queanbeyan,226,https://www.auhouseprices.com/sold/list/ACT/2620/Queanbeyan/,89 Ross Road ,-35.3519115,149.2234380,house,3,1,2,"$742,000",https://www.auhouseprices.com/sold/view/NSW/341964760/89+Ross+Road%2C+Queanbeyan+NSW/
82,2620,Queanbeyan,226,https://www.auhouseprices.com/sold/list/ACT/2620/Queanbeyan/,86 Barracks Flat Drive ,-35.3768436,149.2441691,house,3,2,2,"$660,000",https://www.auhouseprices.com/sold/view/NSW/341022770/86+Barracks+Flat+Drive%2C+Queanbeyan+NSW/
83,2620,Queanbeyan,226,https://www.auhouseprices.com/sold/list/ACT/2620/Queanbeyan/,16 Furlong Road ,-35.3625008,149.2056595,townhouse,4,2,2,,https://www.auhouseprices.com/sold/view/NSW/341379760/16+Furlong+Road%2C+Queanbeyan+NSW/
84,2620,Queanbeyan,226,https://www.auhouseprices.com/sold/list/ACT/2620/Queanbeyan/,1/21 Ross Road ,-35.3448091,149.2244704,townhouse,2,1,2,"$412,675",https://www.auhouseprices.com/sold/view/NSW/341138560/1-21+Ross+Road%2C+Queanbeyan+NSW/
85,2620,Queanbeyan,226,https://www.auhouseprices.com/sold/list/ACT/2620/Queanbeyan/,15 Geebung Place ,-35.3540980,149.2511163,house,5,2,2,"$1,155,000",https://www.auhouseprices.com/sold/view/NSW/341351450/15+Geebung+Place%2C+Queanbeyan+NSW/
86,2620,Queanbeyan,226,https://www.auhouseprices.com/sold/list/ACT/2620/Queanbeyan/,2 Dane Street ,-35.3655222,149.2340914,house,3,1,2,,https://www.auhouseprices.com/sold/view/NSW/341768450/2+Dane+Street%2C+Queanbeyan+NSW/
87,2620,Queanbeyan,226,https://www.auhouseprices.com/sold/list/ACT/2620/Queanbeyan/,11/43 Antill Street ,-35.3484997,149.2350492,apartment,3,2,2,"$432,500",https://www.auhouseprices.com/sold/view/NSW/341586450/11-43+Antill+Street%2C+Queanbeyan+NSW/
88,2620,Queanbeyan,226,https://www.auhouseprices.com/sold/list/ACT/2620/Queanbeyan/,9/36 Cameron Road ,-35.3598653,149.2301339,townhouse,3,2,2,,https://www.auhouseprices.com/sold/view/NSW/341598450/9-36+Cameron+Road%2C+Queanbeyan+NSW/
89,2620,Queanbeyan,226,https://www.auhouseprices.com/sold/list/ACT/2620/Queanbeyan/,1/89 Morton Street ,-35.3472075,149.2164974,house,4,1,1,,https://www.auhouseprices.com/sold/view/NSW/341909450/1-89+Morton+Street%2C+Queanbeyan+NSW/
90,2620,Queanbeyan,226,https://www.auhouseprices.com/sold/list/ACT/2620/Queanbeyan/,2/1 Doyle Place ,-35.3761051,149.2384203,townhouse,2,2,1,"$455,000",https://www.auhouseprices.com/sold/view/NSW/341619450/2-1+Doyle+Place%2C+Queanbeyan+NSW/
91,2620,Queanbeyan,226,https://www.auhouseprices.com/sold/list/ACT/2620/Queanbeyan/,100 Ross Road ,-35.3544939,149.2236329,house,3,1,1,"$600,000",https://www.auhouseprices.com/sold/view/NSW/341278250/100+Ross+Road%2C+Queanbeyan+NSW/
92,2620,Queanbeyan,226,https://www.auhouseprices.com/sold/list/ACT/2620/Queanbeyan/,8c/17 Uriarra Road ,-35.3453952,149.2268760,unit,2,2,1,"$320,000",https://www.auhouseprices.com/sold/view/NSW/341449450/8c-17+Uriarra+Road%2C+Queanbeyan+NSW/
93,2620,Queanbeyan,226,https://www.auhouseprices.com/sold/list/ACT/2620/Queanbeyan/,24 Cassinia Street ,-35.3519656,149.2154470,house,4,2,2,,https://www.auhouseprices.com/sold/view/NSW/341329450/24+Cassinia+Street%2C+Queanbeyan+NSW/
94,2620,Queanbeyan,226,https://www.auhouseprices.com/sold/list/ACT/2620/Queanbeyan/,3/11 Charles Street ,-35.3600866,149.2273577,townhouse,3,1,0,,https://www.auhouseprices.com/sold/view/NSW/341039450/3-11+Charles+Street%2C+Queanbeyan+NSW/
95,2620,Queanbeyan,226,https://www.auhouseprices.com/sold/list/ACT/2620/Queanbeyan/,24/6 High Street ,-35.3484064,149.2430974,apartment,1,1,1,"$322,500",https://www.auhouseprices.com/sold/view/NSW/341978250/24-6+High+Street%2C+Queanbeyan+NSW/
96,2620,Queanbeyan,226,https://www.auhouseprices.com/sold/list/ACT/2620/Queanbeyan/,25/36 Antill Street ,-35.3481798,149.2340459,apartment,2,2,2,,https://www.auhouseprices.com/sold/view/NSW/341603560/25-36+Antill+Street%2C+Queanbeyan+NSW/
97,2620,Queanbeyan,226,https://www.auhouseprices.com/sold/list/ACT/2620/Queanbeyan/,44 Cooma Street ,-35.3613769,149.2338690,house,3,1,3,,https://www.auhouseprices.com/sold/view/NSW/341650150/44+Cooma+Street%2C+Queanbeyan+NSW/
98,2620,Queanbeyan,226,https://www.auhouseprices.com/sold/list/ACT/2620/Queanbeyan/,16/11 Donald Road ,-35.3574846,149.2247142,townhouse,2,1,1,"$415,000",https://www.auhouseprices.com/sold/view/NSW/341444150/16-11+Donald+Road%2C+Queanbeyan+NSW/
99,2620,Queanbeyan,226,https://www.auhouseprices.com/sold/list/ACT/2620/Queanbeyan/,2/21 Morton Street ,-35.3485625,149.2272237,townhouse,2,1,1,"$317,000",https://www.auhouseprices.com/sold/view/NSW/341360150/2-21+Morton+Street%2C+Queanbeyan+NSW/
100,2620,Queanbeyan,226,https://www.auhouseprices.com/sold/list/ACT/2620/Queanbeyan/,5/113 Stornaway Road ,-35.3550211,149.2252389,house,2,1,2,"$360,000",https://www.auhouseprices.com/sold/view/NSW/341746150/5-113+Stornaway+Road%2C+Queanbeyan+NSW/
101,2620,Queanbeyan,226,https://www.auhouseprices.com/sold/list/ACT/2620/Queanbeyan/,11 Woodridge Place ,-35.3688935,149.2195448,house,4,2,3,,https://www.auhouseprices.com/sold/view/NSW/341983250/11+Woodridge+Place%2C+Queanbeyan+NSW/
102,2620,Queanbeyan,226,https://www.auhouseprices.com/sold/list/ACT/2620/Queanbeyan/,Unit 11/5 Charles Street ,-35.3605487,149.2272141,apartment,1,1,1,"$145,000",https://www.auhouseprices.com/sold/view/NSW/341576150/Unit+11-5+Charles+Street%2C+Queanbeyan+NSW/
103,2620,Queanbeyan,226,https://www.auhouseprices.com/sold/list/ACT/2620/Queanbeyan/,2 Fergus Road ,-35.3621379,149.2329751,house,3,1,1,,https://www.auhouseprices.com/sold/view/NSW/341696150/2+Fergus+Road%2C+Queanbeyan+NSW/
104,2620,Queanbeyan,226,https://www.auhouseprices.com/sold/list/ACT/2620/Queanbeyan/,1/30 Buttle Street ,-35.3519650,149.2452618,townhouse,3,2,1,,https://www.auhouseprices.com/sold/view/NSW/341307150/1-30+Buttle+Street%2C+Queanbeyan+NSW/
105,2620,Queanbeyan,226,https://www.auhouseprices.com/sold/list/ACT/2620/Queanbeyan/,76 Morton Street ,-35.3482542,149.2201250,house,3,2,2,"$650,000",https://www.auhouseprices.com/sold/view/NSW/341030960/76+Morton+Street%2C+Queanbeyan+NSW/
106,2620,Queanbeyan,226,https://www.auhouseprices.com/sold/list/ACT/2620/Queanbeyan/,81 Barracks Flat Drive ,-35.3766676,149.2433173,house,3,2,2,,https://www.auhouseprices.com/sold/view/NSW/341902950/81+Barracks+Flat+Drive%2C+Queanbeyan+NSW/
107,2620,Queanbeyan,226,https://www.auhouseprices.com/sold/list/ACT/2620/Queanbeyan/,102 Munro Road ,-35.3539511,149.2148592,house,5,3,4,,https://www.auhouseprices.com/sold/view/NSW/341846750/102+Munro+Road%2C+Queanbeyan+NSW/
108,2620,Queanbeyan,226,https://www.auhouseprices.com/sold/list/ACT/2620/Queanbeyan/,127 Ross Road ,-35.3546940,149.2229093,house,3,1,1,,https://www.auhouseprices.com/sold/view/NSW/341930750/127+Ross+Road%2C+Queanbeyan+NSW/
109,2620,Queanbeyan,226,https://www.auhouseprices.com/sold/list/ACT/2620/Queanbeyan/,11 Karabar Street ,-35.3602252,149.2286591,house,3,1,2,,https://www.auhouseprices.com/sold/view/NSW/341640750/11+Karabar+Street%2C+Queanbeyan+NSW/
110,2620,Queanbeyan,226,https://www.auhouseprices.com/sold/list/ACT/2620/Queanbeyan/,21 Nimmitabel Street ,-35.3525380,149.2109360,house,4,3,2,"$810,000",https://www.auhouseprices.com/sold/view/NSW/341822750/21+Nimmitabel+Street%2C+Queanbeyan+NSW/
111,2620,Queanbeyan,226,https://www.auhouseprices.com/sold/list/ACT/2620/Queanbeyan/,1/12 McKeahnie Street ,-35.3427816,149.2191510,townhouse,2,1,2,"$388,000",https://www.auhouseprices.com/sold/view/NSW/341904650/1-12+McKeahnie+Street%2C+Queanbeyan+NSW/
112,2620,Queanbeyan,226,https://www.auhouseprices.com/sold/list/ACT/2620/Queanbeyan/,19/12 Waniassa Street ,-35.3497321,149.2400489,apartment,3,2,2,"$390,000",https://www.auhouseprices.com/sold/view/NSW/341538550/19-12+Waniassa+Street%2C+Queanbeyan+NSW/
113,2620,Queanbeyan,226,https://www.auhouseprices.com/sold/list/ACT/2620/Queanbeyan/,30 Surveyor Street ,-35.3528735,149.2241566,house,4,2,2,,https://www.auhouseprices.com/sold/view/NSW/341787650/30+Surveyor+Street%2C+Queanbeyan+NSW/
114,2620,Queanbeyan,226,https://www.auhouseprices.com/sold/list/ACT/2620/Queanbeyan/,30/39 Thuralilly Street ,-35.3436460,149.2429390,house,3,1,1,"$205,000",https://www.auhouseprices.com/sold/view/NSW/341461650/30-39+Thuralilly+Street%2C+Queanbeyan+NSW/
115,2620,Queanbeyan,226,https://www.auhouseprices.com/sold/list/ACT/2620/Queanbeyan/,31 Cooma Street ,-35.3589483,149.2327626,house,3,1,3,"$665,000",https://www.auhouseprices.com/sold/view/NSW/341675550/31+Cooma+Street%2C+Queanbeyan+NSW/
116,2620,Queanbeyan,226,https://www.auhouseprices.com/sold/list/ACT/2620/Queanbeyan/,119 Donald Road ,-35.3675365,149.2229596,house,3,1,2,,https://www.auhouseprices.com/sold/view/NSW/341248550/119+Donald+Road%2C+Queanbeyan+NSW/
117,2620,Queanbeyan,226,https://www.auhouseprices.com/sold/list/ACT/2620/Queanbeyan/,27 Derrima Road ,-35.3445610,149.2288400,residential land,3,1,2,"$340,000",https://www.auhouseprices.com/sold/view/NSW/341224550/27+Derrima+Road%2C+Queanbeyan+NSW/
118,2620,Queanbeyan,226,https://www.auhouseprices.com/sold/list/ACT/2620/Queanbeyan/,50/22 Mowatt Street ,-35.3523173,149.2414599,unit,1,1,1,,https://www.auhouseprices.com/sold/view/NSW/341948550/50-22+Mowatt+Street%2C+Queanbeyan+NSW/
119,2620,Queanbeyan,226,https://www.auhouseprices.com/sold/list/ACT/2620/Queanbeyan/,12 Ash Street ,-35.3666478,149.2216291,house,4,2,2,,https://www.auhouseprices.com/sold/view/NSW/341658550/12+Ash+Street%2C+Queanbeyan+NSW/
120,2620,Queanbeyan,226,https://www.auhouseprices.com/sold/list/ACT/2620/Queanbeyan/,14 Rusten Street ,-35.3726729,149.2255440,house,4,2,2,,https://www.auhouseprices.com/sold/view/NSW/341862550/14+Rusten+Street%2C+Queanbeyan+NSW/
121,2620,Queanbeyan,226,https://www.auhouseprices.com/sold/list/ACT/2620/Queanbeyan/,120 Donald Road ,-35.3672374,149.2236808,house,3,1,2,"$605,000",https://www.auhouseprices.com/sold/view/NSW/341808650/120+Donald+Road%2C+Queanbeyan+NSW/
122,2620,Queanbeyan,226,https://www.auhouseprices.com/sold/list/ACT/2620/Queanbeyan/,9 Irene Avenue ,-35.3596050,149.2314529,house,3,1,2,,https://www.auhouseprices.com/sold/view/NSW/341411550/9+Irene+Avenue%2C+Queanbeyan+NSW/
123,2620,Queanbeyan,226,https://www.auhouseprices.com/sold/list/ACT/2620/Queanbeyan/,10/36 Antill Street ,-35.3481798,149.2340459,apartment,1,1,1,,https://www.auhouseprices.com/sold/view/NSW/341634550/10-36+Antill+Street%2C+Queanbeyan+NSW/
124,2620,Queanbeyan,226,https://www.auhouseprices.com/sold/list/ACT/2620/Queanbeyan/,5/12 Atholbar Way ,-35.3642960,149.2319980,unit,1,1,0,,https://www.auhouseprices.com/sold/view/NSW/341282550/5-12+Atholbar+Way%2C+Queanbeyan+NSW/
125,2620,Queanbeyan,226,https://www.auhouseprices.com/sold/list/ACT/2620/Queanbeyan/,2/10 Stornaway Road ,-35.3467966,149.2277791,apartment,2,1,1,,https://www.auhouseprices.com/sold/view/NSW/341344550/2-10+Stornaway+Road%2C+Queanbeyan+NSW/
126,2620,Queanbeyan,226,https://www.auhouseprices.com/sold/list/ACT/2620/Queanbeyan/,53/4 Ross Road ,-35.3447229,149.2258208,unit,2,2,2,"$370,000",https://www.auhouseprices.com/sold/view/NSW/341310340/53-4+Ross+Road%2C+Queanbeyan+NSW/
127,2620,Queanbeyan,226,https://www.auhouseprices.com/sold/list/ACT/2620/Queanbeyan/,5/21 Ross Road ,-35.3448091,149.2244704,townhouse,3,1,1,,https://www.auhouseprices.com/sold/view/NSW/341406550/5-21+Ross+Road%2C+Queanbeyan+NSW/
128,2620,Queanbeyan,226,https://www.auhouseprices.com/sold/list/ACT/2620/Queanbeyan/,12/7 Young Street ,-35.3439742,149.2154461,unit,2,1,1,,https://www.auhouseprices.com/sold/view/NSW/341063440/12-7+Young+Street%2C+Queanbeyan+NSW/
129,2620,Queanbeyan,226,https://www.auhouseprices.com/sold/list/ACT/2620/Queanbeyan/,6 Margaret Street ,-35.3621266,149.2258289,house,3,2,2,"$525,000",https://www.auhouseprices.com/sold/view/NSW/341464340/6+Margaret+Street%2C+Queanbeyan+NSW/
130,2620,Queanbeyan,226,https://www.auhouseprices.com/sold/list/ACT/2620/Queanbeyan/,7/13 Ross Road ,-35.3444481,149.2247712,townhouse,2,1,1,,https://www.auhouseprices.com/sold/view/NSW/341174340/7-13+Ross+Road%2C+Queanbeyan+NSW/
131,2620,Queanbeyan,226,https://www.auhouseprices.com/sold/list/ACT/2620/Queanbeyan/,1 Begonia Place ,-35.3531636,149.2160117,house,4,2,2,"$960,000",https://www.auhouseprices.com/sold/view/NSW/341473440/1+Begonia+Place%2C+Queanbeyan+NSW/
132,2620,Queanbeyan,226,https://www.auhouseprices.com/sold/list/ACT/2620/Queanbeyan/,5/78-80 Derrima Road ,-35.3431027,149.2226718,apartment,2,2,2,"$399,950",https://www.auhouseprices.com/sold/view/NSW/341045240/5-78-80+Derrima+Road%2C+Queanbeyan+NSW/
133,2620,Queanbeyan,226,https://www.auhouseprices.com/sold/list/ACT/2620/Queanbeyan/,12/19-21 Henderson Road ,-35.3435546,149.2304177,townhouse,2,2,1,"$420,000",https://www.auhouseprices.com/sold/view/NSW/341994340/12-19-21+Henderson+Road%2C+Queanbeyan+NSW/
134,2620,Queanbeyan,226,https://www.auhouseprices.com/sold/list/ACT/2620/Queanbeyan/,14/7 Ford Street ,-35.3473100,149.2405675,townhouse,2,1,1,,https://www.auhouseprices.com/sold/view/NSW/341315340/14-7+Ford+Street%2C+Queanbeyan+NSW/
135,2620,Queanbeyan,226,https://www.auhouseprices.com/sold/list/ACT/2620/Queanbeyan/,8/17 Thurrailly Street ,-35.3434140,149.2409911,townhouse,2,1,1,,https://www.auhouseprices.com/sold/view/NSW/341930140/8-17+Thurrailly+Street%2C+Queanbeyan+NSW/
136,2620,Queanbeyan,226,https://www.auhouseprices.com/sold/list/ACT/2620/Queanbeyan/,61 Thomas Royal Gardens ,-35.3525871,149.2515772,house,3,1,2,"$595,000",https://www.auhouseprices.com/sold/view/NSW/341883440/61+Thomas+Royal+Gardens%2C+Queanbeyan+NSW/
137,2620,Queanbeyan,226,https://www.auhouseprices.com/sold/list/ACT/2620/Queanbeyan/,20 Doeberl Place ,-35.3757025,149.2472778,house,4,2,2,,https://www.auhouseprices.com/sold/view/NSW/341350140/20+Doeberl+Place%2C+Queanbeyan+NSW/
138,2620,Queanbeyan,226,https://www.auhouseprices.com/sold/list/ACT/2620/Queanbeyan/,2/7 Brook Street ,-35.3577840,149.2273924,unit,2,1,1,"$195,000",https://www.auhouseprices.com/sold/view/NSW/341760140/2-7+Brook+Street%2C+Queanbeyan+NSW/
139,2620,Queanbeyan,226,https://www.auhouseprices.com/sold/list/ACT/2620/Queanbeyan/,45 Cameron Road ,-35.3595228,149.2288732,house,6,3,4,,https://www.auhouseprices.com/sold/view/NSW/341025340/45+Cameron+Road%2C+Queanbeyan+NSW/
140,2620,Queanbeyan,226,https://www.auhouseprices.com/sold/list/ACT/2620/Queanbeyan/,1/29 Mowatt Street ,-35.3525637,149.2437808,townhouse,1,1,1,"$285,000",https://www.auhouseprices.com/sold/view/NSW/341691140/1-29+Mowatt+Street%2C+Queanbeyan+NSW/
141,2620,Queanbeyan,226,https://www.auhouseprices.com/sold/list/ACT/2620/Queanbeyan/,2/17 Hakea Street ,-35.3647075,149.2194569,townhouse,2,1,2,,https://www.auhouseprices.com/sold/view/NSW/341470140/2-17+Hakea+Street%2C+Queanbeyan+NSW/
142,2620,Queanbeyan,226,https://www.auhouseprices.com/sold/list/ACT/2620/Queanbeyan/,1/14 Yarrow Street ,-35.3545401,149.2459732,apartment,1,1,1,"$267,000",https://www.auhouseprices.com/sold/view/NSW/341387040/1-14+Yarrow+Street%2C+Queanbeyan+NSW/
143,2620,Queanbeyan,226,https://www.auhouseprices.com/sold/list/ACT/2620/Queanbeyan/,33 Wangara Crescent ,-35.3631797,149.2046577,house,4,2,2,,https://www.auhouseprices.com/sold/view/NSW/341422140/33+Wangara+Crescent%2C+Queanbeyan+NSW/
144,2620,Queanbeyan,226,https://www.auhouseprices.com/sold/list/ACT/2620/Queanbeyan/,22 Christopher Crescent ,-35.3622872,149.2221590,house,3,1,1,,https://www.auhouseprices.com/sold/view/NSW/341132140/22+Christopher+Crescent%2C+Queanbeyan+NSW/
145,2620,Queanbeyan,226,https://www.auhouseprices.com/sold/list/ACT/2620/Queanbeyan/,69A Macquoid Street ,-35.3501604,149.2435482,house,4,2,2,,https://www.auhouseprices.com/sold/view/NSW/341672940/69A+Macquoid+Street%2C+Queanbeyan+NSW/
146,2620,Queanbeyan,226,https://www.auhouseprices.com/sold/list/ACT/2620/Queanbeyan/,2/11 Charles Street ,-35.3600866,149.2273577,townhouse,3,2,2,,https://www.auhouseprices.com/sold/view/NSW/341046940/2-11+Charles+Street%2C+Queanbeyan+NSW/
147,2620,Queanbeyan,226,https://www.auhouseprices.com/sold/list/ACT/2620/Queanbeyan/,3/87 Donald Road ,-35.3644988,149.2233938,townhouse,2,1,1,,https://www.auhouseprices.com/sold/view/NSW/341198840/3-87+Donald+Road%2C+Queanbeyan+NSW/
148,2620,Queanbeyan,226,https://www.auhouseprices.com/sold/list/ACT/2620/Queanbeyan/,6/43 Isabella Street ,-35.3564799,149.2374515,house,3,2,2,,https://www.auhouseprices.com/sold/view/NSW/341116840/6-43+Isabella+Street%2C+Queanbeyan+NSW/
149,2620,Queanbeyan,226,https://www.auhouseprices.com/sold/list/ACT/2620/Queanbeyan/,9/22 Bungendore Road ,-35.3470182,149.2473446,townhouse,2,1,1,"$296,000",https://www.auhouseprices.com/sold/view/NSW/341037840/9-22+Bungendore+Road%2C+Queanbeyan+NSW/
150,2620,Queanbeyan,226,https://www.auhouseprices.com/sold/list/ACT/2620/Queanbeyan/,1/3 Parr Place ,-35.3757760,149.2303140,townhouse,2,1,1,,https://www.auhouseprices.com/sold/view/NSW/341952140/1-3+Parr+Place%2C+Queanbeyan+NSW/
151,2620,Queanbeyan,226,https://www.auhouseprices.com/sold/list/ACT/2620/Queanbeyan/,9 Kathleen Street ,-35.3620748,149.2349608,house,4,2,2,"$680,000",https://www.auhouseprices.com/sold/view/NSW/341701840/9+Kathleen+Street%2C+Queanbeyan+NSW/
152,2620,Queanbeyan,226,https://www.auhouseprices.com/sold/list/ACT/2620/Queanbeyan/,15/52 Trinculo Place ,-35.3552142,149.2403853,unit,2,1,1,"$265,000",https://www.auhouseprices.com/sold/view/NSW/341121840/15-52+Trinculo+Place%2C+Queanbeyan+NSW/
153,2620,Queanbeyan,226,https://www.auhouseprices.com/sold/list/ACT/2620/Queanbeyan/,3/4 Velacia Place ,-35.3466610,149.2260172,apartment,2,1,1,"$260,000",https://www.auhouseprices.com/sold/view/NSW/341423840/3-4+Velacia+Place%2C+Queanbeyan+NSW/
154,2620,Queanbeyan,226,https://www.auhouseprices.com/sold/list/ACT/2620/Queanbeyan/,10/5-9 Federal Avenue ,-35.3437953,149.2218458,townhouse,3,2,2,"$460,000",https://www.auhouseprices.com/sold/view/NSW/341728740/10-5-9+Federal+Avenue%2C+Queanbeyan+NSW/
155,2620,Queanbeyan,226,https://www.auhouseprices.com/sold/list/ACT/2620/Queanbeyan/,19 Ingleside Road ,-35.3624170,149.2216544,house,3,1,2,"$605,000",https://www.auhouseprices.com/sold/view/NSW/341496740/19+Ingleside+Road%2C+Queanbeyan+NSW/
156,2620,Queanbeyan,226,https://www.auhouseprices.com/sold/list/ACT/2620/Queanbeyan/,2/19 Dodsworth Street ,-35.3590607,149.2420479,townhouse,3,1,2,,https://www.auhouseprices.com/sold/view/NSW/341531840/2-19+Dodsworth+Street%2C+Queanbeyan+NSW/
157,2620,Queanbeyan,226,https://www.auhouseprices.com/sold/list/ACT/2620/Queanbeyan/,5/83 Derrima Road ,-35.3434400,149.2219190,unit,2,1,1,"$243,000",https://www.auhouseprices.com/sold/view/NSW/341438740/5-83+Derrima+Road%2C+Queanbeyan+NSW/
158,2620,Queanbeyan,226,https://www.auhouseprices.com/sold/list/ACT/2620/Queanbeyan/,69 Macquoid Street ,-35.3501604,149.2435482,house,4,1,2,,https://www.auhouseprices.com/sold/view/NSW/341792940/69+Macquoid+Street%2C+Queanbeyan+NSW/
159,2620,Queanbeyan,226,https://www.auhouseprices.com/sold/list/ACT/2620/Queanbeyan/,6 Rusten Street ,-35.3734172,149.2263961,house,3,2,2,,https://www.auhouseprices.com/sold/view/NSW/341219840/6+Rusten+Street%2C+Queanbeyan+NSW/
160,2620,Queanbeyan,226,https://www.auhouseprices.com/sold/list/ACT/2620/Queanbeyan/,4/9 Crest Road ,-35.3427521,149.2205582,unit,2,1,1,,https://www.auhouseprices.com/sold/view/NSW/341089640/4-9+Crest+Road%2C+Queanbeyan+NSW/
161,2620,Queanbeyan,226,https://www.auhouseprices.com/sold/list/ACT/2620/Queanbeyan/,1 Bangalay Street ,-35.3664083,149.2243656,house,3,1,1,,https://www.auhouseprices.com/sold/view/NSW/341941840/1+Bangalay+Street%2C+Queanbeyan+NSW/
162,2620,Queanbeyan,226,https://www.auhouseprices.com/sold/list/ACT/2620/Queanbeyan/,1 Surveyor Street ,-35.3527480,149.2281652,house,3,1,1,,https://www.auhouseprices.com/sold/view/NSW/341065640/1+Surveyor+Street%2C+Queanbeyan+NSW/
163,2620,Queanbeyan,226,https://www.auhouseprices.com/sold/list/ACT/2620/Queanbeyan/,2/27 Henderson Road ,-35.3435671,149.2296370,townhouse,3,2,2,"$487,000",https://www.auhouseprices.com/sold/view/NSW/341885640/2-27+Henderson+Road%2C+Queanbeyan+NSW/
164,2620,Queanbeyan,226,https://www.auhouseprices.com/sold/list/ACT/2620/Queanbeyan/,2/7 -11 Broughton Place ,-35.3577215,149.2261245,unit,1,1,1,"$237,500",https://www.auhouseprices.com/sold/view/NSW/341691640/2-7+-11+Broughton+Place%2C+Queanbeyan+NSW/
165,2620,Queanbeyan,226,https://www.auhouseprices.com/sold/list/ACT/2620/Queanbeyan/,3/70 Uriarra Road ,-35.3455820,149.2232481,unit,1,1,1,,https://www.auhouseprices.com/sold/view/NSW/341399540/3-70+Uriarra+Road%2C+Queanbeyan+NSW/
166,2620,Queanbeyan,226,https://www.auhouseprices.com/sold/list/ACT/2620/Queanbeyan/,4/55 Morton Street ,-35.3480470,149.2231040,unit,2,1,1,,https://www.auhouseprices.com/sold/view/NSW/341720540/4-55+Morton+Street%2C+Queanbeyan+NSW/
167,2620,Queanbeyan,226,https://www.auhouseprices.com/sold/list/ACT/2620/Queanbeyan/,7 Yass Road ,-35.3435572,149.2441805,house,4,1,4,,https://www.auhouseprices.com/sold/view/NSW/341550540/7+Yass+Road%2C+Queanbeyan+NSW/
168,2620,Queanbeyan,226,https://www.auhouseprices.com/sold/list/ACT/2620/Queanbeyan/,2/61 Donald Road ,-35.3622711,149.2238158,unit,2,1,1,"$158,000",https://www.auhouseprices.com/sold/view/NSW/341260540/2-61+Donald+Road%2C+Queanbeyan+NSW/
169,2620,Queanbeyan,226,https://www.auhouseprices.com/sold/list/ACT/2620/Queanbeyan/,5/18 Gilmore Place ,-35.3575517,149.2195719,unit,2,1,1,"$220,000",https://www.auhouseprices.com/sold/view/NSW/341839529/5-18+Gilmore+Place%2C+Queanbeyan+NSW/
170,2620,Queanbeyan,226,https://www.auhouseprices.com/sold/list/ACT/2620/Queanbeyan/,21 Stuart Street ,-35.3513952,149.2134205,house,4,1,2,"$600,000",https://www.auhouseprices.com/sold/view/NSW/341206529/21+Stuart+Street%2C+Queanbeyan+NSW/
171,2620,Queanbeyan,226,https://www.auhouseprices.com/sold/list/ACT/2620/Queanbeyan/,33 Alice Street ,-35.3613893,149.2370084,house,3,1,2,"$749,000",https://www.auhouseprices.com/sold/view/NSW/341463529/33+Alice+Street%2C+Queanbeyan+NSW/
172,2620,Queanbeyan,226,https://www.auhouseprices.com/sold/list/ACT/2620/Queanbeyan/,9/19 Henderson Road ,-35.3435546,149.2304177,unit,2,2,2,"$450,000",https://www.auhouseprices.com/sold/view/NSW/341691529/9-19+Henderson+Road%2C+Queanbeyan+NSW/
173,2620,Queanbeyan,226,https://www.auhouseprices.com/sold/list/ACT/2620/Queanbeyan/,3/67 Derrima Road ,-35.3440628,149.2242786,unit,2,1,1,"$201,000",https://www.auhouseprices.com/sold/view/NSW/341302529/3-67+Derrima+Road%2C+Queanbeyan+NSW/
174,2620,Queanbeyan,226,https://www.auhouseprices.com/sold/list/ACT/2620/Queanbeyan/,123 Stornaway Road ,-35.3557450,149.2250683,house,3,2,1,,https://www.auhouseprices.com/sold/view/NSW/341852540/123+Stornaway+Road%2C+Queanbeyan+NSW/
175,2620,Queanbeyan,226,https://www.auhouseprices.com/sold/list/ACT/2620/Queanbeyan/,15/2 Donald Road ,-35.3570464,149.2257116,unit,1,1,1,"$130,000",https://www.auhouseprices.com/sold/view/NSW/341996429/15-2+Donald+Road%2C+Queanbeyan+NSW/
176,2620,Queanbeyan,226,https://www.auhouseprices.com/sold/list/ACT/2620/Queanbeyan/,51 Rusten Street ,-35.3743199,149.2217289,house,4,3,6,,https://www.auhouseprices.com/sold/view/NSW/341399429/51+Rusten+Street%2C+Queanbeyan+NSW/
177,2620,Queanbeyan,226,https://www.auhouseprices.com/sold/list/ACT/2620/Queanbeyan/,3 Peony Place ,-35.3541829,149.2164542,house,4,1,2,"$610,000",https://www.auhouseprices.com/sold/view/NSW/341533429/3+Peony+Place%2C+Queanbeyan+NSW/
178,2620,Queanbeyan,226,https://www.auhouseprices.com/sold/list/ACT/2620/Queanbeyan/,68/39-43 Crawford Street ,-35.3449855,149.2277344,house,1,1,1,"$290,000",https://www.auhouseprices.com/sold/view/NSW/341943429/68-39-43+Crawford+Street%2C+Queanbeyan+NSW/
179,2620,Queanbeyan,226,https://www.auhouseprices.com/sold/list/ACT/2620/Queanbeyan/,14/6 High Street ,-35.3484064,149.2430974,unit,2,1,1,"$340,000",https://www.auhouseprices.com/sold/view/NSW/341607429/14-6+High+Street%2C+Queanbeyan+NSW/
180,2620,Queanbeyan,226,https://www.auhouseprices.com/sold/list/ACT/2620/Queanbeyan/,6/91-93 Donald Road ,-35.3650556,149.2234738,townhouse,2,1,2,,https://www.auhouseprices.com/sold/view/NSW/341773429/6-91-93+Donald+Road%2C+Queanbeyan+NSW/
181,2620,Queanbeyan,226,https://www.auhouseprices.com/sold/list/ACT/2620/Queanbeyan/,6/43 Antill Street ,-35.3484997,149.2350492,townhouse,3,2,2,"$422,000",https://www.auhouseprices.com/sold/view/NSW/341483429/6-43+Antill+Street%2C+Queanbeyan+NSW/
182,2620,Queanbeyan,226,https://www.auhouseprices.com/sold/list/ACT/2620/Queanbeyan/,2/24 Hellmund Street ,-35.3579935,149.2099044,duplex/semi-detached,3,2,4,"$560,000",https://www.auhouseprices.com/sold/view/NSW/341539229/2-24+Hellmund+Street%2C+Queanbeyan+NSW/
183,2620,Queanbeyan,226,https://www.auhouseprices.com/sold/list/ACT/2620/Queanbeyan/,23 Patrick Brick Court ,-35.3519536,149.2484337,house,4,2,2,"$605,000",https://www.auhouseprices.com/sold/view/NSW/341131329/23+Patrick+Brick+Court%2C+Queanbeyan+NSW/
184,2620,Queanbeyan,226,https://www.auhouseprices.com/sold/list/ACT/2620/Queanbeyan/,94 Southbar Road ,-35.3693102,149.2227052,house,3,1,1,"$411,000",https://www.auhouseprices.com/sold/view/NSW/341199229/94+Southbar+Road%2C+Queanbeyan+NSW/
185,2620,Queanbeyan,226,https://www.auhouseprices.com/sold/list/ACT/2620/Queanbeyan/,1/19 Bungendore Road ,-35.3465936,149.2466024,townhouse,2,1,1,,https://www.auhouseprices.com/sold/view/NSW/341712529/1-19+Bungendore+Road%2C+Queanbeyan+NSW/
186,2620,Queanbeyan,226,https://www.auhouseprices.com/sold/list/ACT/2620/Queanbeyan/,20 Collins Street ,-35.3492071,149.2252113,house,4,2,3,,https://www.auhouseprices.com/sold/view/NSW/341899229/20+Collins+Street%2C+Queanbeyan+NSW/
187,2620,Queanbeyan,226,https://www.auhouseprices.com/sold/list/ACT/2620/Queanbeyan/,37 Malcolm Road ,-35.3640879,149.2367190,house,3,1,1,"$605,665",https://www.auhouseprices.com/sold/view/NSW/341655129/37+Malcolm+Road%2C+Queanbeyan+NSW/
188,2620,Queanbeyan,226,https://www.auhouseprices.com/sold/list/ACT/2620/Queanbeyan/,20 Pindari Street ,-35.3688390,149.2352092,house,3,1,2,"$535,000",https://www.auhouseprices.com/sold/view/NSW/341473129/20+Pindari+Street%2C+Queanbeyan+NSW/
189,2620,Queanbeyan,226,https://www.auhouseprices.com/sold/list/ACT/2620/Queanbeyan/,11 Heatherbelle Place ,-35.3770096,149.2269905,house,4,2,2,"$825,000",https://www.auhouseprices.com/sold/view/NSW/341813129/11+Heatherbelle+Place%2C+Queanbeyan+NSW/
190,2620,Queanbeyan,226,https://www.auhouseprices.com/sold/list/ACT/2620/Queanbeyan/,15/3 Broughton place ,-35.3570436,149.2262718,house,2,2,2,"$402,000",https://www.auhouseprices.com/sold/view/NSW/341602129/15-3+Broughton+place%2C+Queanbeyan+NSW/
191,2620,Queanbeyan,226,https://www.auhouseprices.com/sold/list/ACT/2620/Queanbeyan/,18/12 Morisset Street ,-35.3515048,149.2316787,unit,2,1,1,"$220,000",https://www.auhouseprices.com/sold/view/NSW/341523129/18-12+Morisset+Street%2C+Queanbeyan+NSW/
192,2620,Queanbeyan,226,https://www.auhouseprices.com/sold/list/ACT/2620/Queanbeyan/,2/21 Broughton Place ,-35.3589539,149.2258883,townhouse,3,1,2,"$470,000",https://www.auhouseprices.com/sold/view/NSW/341658029/2-21+Broughton+Place%2C+Queanbeyan+NSW/
193,2620,Queanbeyan,226,https://www.auhouseprices.com/sold/list/ACT/2620/Queanbeyan/,47 Maloney Street ,-35.3622730,149.2083015,house,3,1,1,"$545,000",https://www.auhouseprices.com/sold/view/NSW/341027929/47+Maloney+Street%2C+Queanbeyan+NSW/
194,2620,Queanbeyan,226,https://www.auhouseprices.com/sold/list/ACT/2620/Queanbeyan/,7 Kenny Place ,-35.3738037,149.2392417,house,3,2,2,"$645,000",https://www.auhouseprices.com/sold/view/NSW/341485129/7+Kenny+Place%2C+Queanbeyan+NSW/
195,2620,Queanbeyan,226,https://www.auhouseprices.com/sold/list/ACT/2620/Queanbeyan/,12/38 Isabella Street ,-35.3552882,149.2376860,unit,2,1,1,"$202,500",https://www.auhouseprices.com/sold/view/NSW/341481029/12-38+Isabella+Street%2C+Queanbeyan+NSW/
196,2620,Queanbeyan,226,https://www.auhouseprices.com/sold/list/ACT/2620/Queanbeyan/,45/47 Mowatt Street ,-35.3517961,149.2466890,unit,2,2,2,"$402,500",https://www.auhouseprices.com/sold/view/NSW/341392929/45-47+Mowatt+Street%2C+Queanbeyan+NSW/
197,2620,Queanbeyan,226,https://www.auhouseprices.com/sold/list/ACT/2620/Queanbeyan/,22 Warratah Street ,-35.3690257,149.2302599,house,4,2,1,"$635,000",https://www.auhouseprices.com/sold/view/NSW/341231929/22+Warratah+Street%2C+Queanbeyan+NSW/
198,2620,Queanbeyan,226,https://www.auhouseprices.com/sold/list/ACT/2620/Queanbeyan/,4/3 Ross Road ,-35.3432860,149.2248700,house,3,2,2,"$445,000",https://www.auhouseprices.com/sold/view/NSW/341967929/4-3+Ross+Road%2C+Queanbeyan+NSW/
199,2620,Queanbeyan,226,https://www.auhouseprices.com/sold/list/ACT/2620/Queanbeyan/,2/120 Henderson Road ,-35.3425819,149.2173990,apartment,2,1,1,"$215,000",https://www.auhouseprices.com/sold/view/NSW/341349829/2-120+Henderson+Road%2C+Queanbeyan+NSW/
200,2620,Queanbeyan,226,https://www.auhouseprices.com/sold/list/ACT/2620/Queanbeyan/,10/20 Donald Road ,-35.3590637,149.2253043,townhouse,2,1,1,,https://www.auhouseprices.com/sold/view/NSW/341677929/10-20+Donald+Road%2C+Queanbeyan+NSW/
201,2620,Queanbeyan,226,https://www.auhouseprices.com/sold/list/ACT/2620/Queanbeyan/,Unit 4/104 Henderson Rd ,-35.3424577,149.2198667,unit,2,1,1,"$240,000",https://www.auhouseprices.com/sold/view/NSW/341210829/Unit+4-104+Henderson+Rd%2C+Queanbeyan+NSW/
202,2620,Queanbeyan,226,https://www.auhouseprices.com/sold/list/ACT/2620/Queanbeyan/,13/9 Stornaway Road ,-35.3471621,149.2267040,unit,2,2,2,,https://www.auhouseprices.com/sold/view/NSW/341128029/13-9+Stornaway+Road%2C+Queanbeyan+NSW/
203,2620,Queanbeyan,226,https://www.auhouseprices.com/sold/list/ACT/2620/Queanbeyan/,15/11-13 Campbell St ,-35.3484740,149.2293093,townhouse,2,1,1,"$405,000",https://www.auhouseprices.com/sold/view/NSW/341634029/15-11-13+Campbell+St%2C+Queanbeyan+NSW/
204,2620,Queanbeyan,226,https://www.auhouseprices.com/sold/list/ACT/2620/Queanbeyan/,2 Bruce St ,-35.3503039,149.2290526,house,3,2,3,"$600,000",https://www.auhouseprices.com/sold/view/NSW/341515729/2+Bruce+St%2C+Queanbeyan+NSW/
205,2620,Queanbeyan,226,https://www.auhouseprices.com/sold/list/ACT/2620/Queanbeyan/,6/41 Carinya Street ,-35.3469804,149.2347550,townhouse,3,2,2,"$545,000",https://www.auhouseprices.com/sold/view/NSW/341258829/6-41+Carinya+Street%2C+Queanbeyan+NSW/
206,2620,Queanbeyan,226,https://www.auhouseprices.com/sold/list/ACT/2620/Queanbeyan/,52 Cooma Street ,-35.3620713,149.2339663,house,3,2,2,,https://www.auhouseprices.com/sold/view/NSW/341497629/52+Cooma+Street%2C+Queanbeyan+NSW/
207,2620,Queanbeyan,226,https://www.auhouseprices.com/sold/list/ACT/2620/Queanbeyan/,11/111 Uriarra Road ,-35.3443946,149.2187725,townhouse,2,1,1,"$350,000",https://www.auhouseprices.com/sold/view/NSW/341461629/11-111+Uriarra+Road%2C+Queanbeyan+NSW/
208,2620,Queanbeyan,226,https://www.auhouseprices.com/sold/list/ACT/2620/Queanbeyan/,3/106 Henderson Road ,-35.3421025,149.2197509,townhouse,2,1,1,"$245,000",https://www.auhouseprices.com/sold/view/NSW/341660629/3-106+Henderson+Road%2C+Queanbeyan+NSW/
209,2620,Queanbeyan,226,https://www.auhouseprices.com/sold/list/ACT/2620/Queanbeyan/,24 Bendora Avenue ,-35.3496803,149.2150479,house,3,1,3,,https://www.auhouseprices.com/sold/view/NSW/341370629/24+Bendora+Avenue%2C+Queanbeyan+NSW/
210,2620,Queanbeyan,226,https://www.auhouseprices.com/sold/list/ACT/2620/Queanbeyan/,3/78 Crest Park Parade ,-35.3620400,149.2131183,townhouse,3,1,2,"$540,000",https://www.auhouseprices.com/sold/view/NSW/341738519/3-78+Crest+Park+Parade%2C+Queanbeyan+NSW/
211,2620,Queanbeyan,226,https://www.auhouseprices.com/sold/list/ACT/2620/Queanbeyan/,9/17 Carinya Street ,-35.3485265,149.2362211,townhouse,3,1,1,"$295,000",https://www.auhouseprices.com/sold/view/NSW/341316519/9-17+Carinya+Street%2C+Queanbeyan+NSW/
212,2620,Queanbeyan,226,https://www.auhouseprices.com/sold/list/ACT/2620/Queanbeyan/,5/39 Thuralilly Street ,-35.3436460,149.2429390,unit,2,1,1,,https://www.auhouseprices.com/sold/view/NSW/341780629/5-39+Thuralilly+Street%2C+Queanbeyan+NSW/
213,2620,Queanbeyan,226,https://www.auhouseprices.com/sold/list/ACT/2620/Queanbeyan/,3/22 Blackall Avenue ,-35.3473638,149.2230390,townhouse,1,1,0,"$168,000",https://www.auhouseprices.com/sold/view/NSW/341242519/3-22+Blackall+Avenue%2C+Queanbeyan+NSW/
214,2620,Queanbeyan,226,https://www.auhouseprices.com/sold/list/ACT/2620/Queanbeyan/,16/10 Macquoid Street ,-35.3519940,149.2382410,unit,1,1,0,"$127,500",https://www.auhouseprices.com/sold/view/NSW/341942519/16-10+Macquoid+Street%2C+Queanbeyan+NSW/
215,2620,Queanbeyan,226,https://www.auhouseprices.com/sold/list/ACT/2620/Queanbeyan/,26/3a Stornaway Road ,-35.3467040,149.2266280,house,1,1,1,,https://www.auhouseprices.com/sold/view/NSW/341746419/26-3a+Stornaway+Road%2C+Queanbeyan+NSW/
216,2620,Queanbeyan,226,https://www.auhouseprices.com/sold/list/ACT/2620/Queanbeyan/,13/30 Trinculo Place ,-35.3536772,149.2391458,unit,2,1,1,"$248,750",https://www.auhouseprices.com/sold/view/NSW/341456419/13-30+Trinculo+Place%2C+Queanbeyan+NSW/
217,2620,Queanbeyan,226,https://www.auhouseprices.com/sold/list/ACT/2620/Queanbeyan/,25/56 Henderson Road ,-35.3436170,149.2261520,unit,1,1,0,"$162,500",https://www.auhouseprices.com/sold/view/NSW/341801419/25-56+Henderson+Road%2C+Queanbeyan+NSW/
218,2620,Queanbeyan,226,https://www.auhouseprices.com/sold/list/ACT/2620/Queanbeyan/,38 Agnes Avenue ,-35.3514430,149.2230209,house,5,2,0,,https://www.auhouseprices.com/sold/view/NSW/341166419/38+Agnes+Avenue%2C+Queanbeyan+NSW/
219,2620,Queanbeyan,226,https://www.auhouseprices.com/sold/list/ACT/2620/Queanbeyan/,9/7-11 Broughton Place ,-35.3577210,149.2261250,townhouse,1,1,1,"$233,500",https://www.auhouseprices.com/sold/view/NSW/341227219/9-7-11+Broughton+Place%2C+Queanbeyan+NSW/
220,2620,Queanbeyan,226,https://www.auhouseprices.com/sold/list/ACT/2620/Queanbeyan/,58 Henderson Rd ,-35.3434268,149.2258556,house,3,1,2,"$480,000",https://www.auhouseprices.com/sold/view/NSW/341517219/58+Henderson+Rd%2C+Queanbeyan+NSW/
221,2620,Queanbeyan,226,https://www.auhouseprices.com/sold/list/ACT/2620/Queanbeyan/,65 Stornaway Road ,-35.3512960,149.2260214,house,3,1,1,,https://www.auhouseprices.com/sold/view/NSW/341866419/65+Stornaway+Road%2C+Queanbeyan+NSW/
222,2620,Queanbeyan,226,https://www.auhouseprices.com/sold/list/ACT/2620/Queanbeyan/,88 Cooma Street ,-35.3653208,149.2343631,house,4,1,2,,https://www.auhouseprices.com/sold/view/NSW/341124219/88+Cooma+Street%2C+Queanbeyan+NSW/
223,2620,Queanbeyan,226,https://www.auhouseprices.com/sold/list/ACT/2620/Queanbeyan/,3 Albert Street ,-35.3505873,149.2288184,house,3,1,1,,https://www.auhouseprices.com/sold/view/NSW/341637219/3+Albert+Street%2C+Queanbeyan+NSW/
224,2620,Queanbeyan,226,https://www.auhouseprices.com/sold/list/ACT/2620/Queanbeyan/,2/9 Morton Street ,-35.3487108,149.2283144,townhouse,3,1,2,"$456,500",https://www.auhouseprices.com/sold/view/NSW/341432419/2-9+Morton+Street%2C+Queanbeyan+NSW/
225,2620,Queanbeyan,226,https://www.auhouseprices.com/sold/list/ACT/2620/Queanbeyan/,21 Southwell Place ,-35.3748341,149.2342147,house,3,2,2,,https://www.auhouseprices.com/sold/view/NSW/341686119/21+Southwell+Place%2C+Queanbeyan+NSW/
226,2620,Queanbeyan,226,https://www.auhouseprices.com/sold/list/ACT/2620/Queanbeyan/,8/11-13 Hakea Street ,-35.3647695,149.2200928,townhouse,2,1,1,"$378,000",https://www.auhouseprices.com/sold/view/NSW/341091219/8-11-13+Hakea+Street%2C+Queanbeyan+NSW/
227,2620,Queanbeyan,226,https://www.auhouseprices.com/sold/list/ACT/2620/Queanbeyan/,16/56 Henderson Road ,-35.3436162,149.2261543,unit,1,1,1,"$155,000",https://www.auhouseprices.com/sold/view/NSW/341791219/16-56+Henderson+Road%2C+Queanbeyan+NSW/
228,2620,Queanbeyan,226,https://www.auhouseprices.com/sold/list/ACT/2620/Queanbeyan/,24/46 Trinculo Place ,-35.3548351,149.2401121,unit,1,1,1,"$170,000",https://www.auhouseprices.com/sold/view/NSW/341235119/24-46+Trinculo+Place%2C+Queanbeyan+NSW/
229,2620,Queanbeyan,226,https://www.auhouseprices.com/sold/list/ACT/2620/Queanbeyan/,1/44-46 Carrington Street ,-35.3387518,149.2417783,townhouse,2,1,1,,https://www.auhouseprices.com/sold/view/NSW/341557019/1-44-46+Carrington+Street%2C+Queanbeyan+NSW/
230,2620,Queanbeyan,226,https://www.auhouseprices.com/sold/list/ACT/2620/Queanbeyan/,16 Morrison Place ,-35.3737849,149.2231456,house,5,2,2,,https://www.auhouseprices.com/sold/view/NSW/341847019/16+Morrison+Place%2C+Queanbeyan+NSW/
231,2620,Queanbeyan,226,https://www.auhouseprices.com/sold/list/ACT/2620/Queanbeyan/,33 Ingelside Road ,-35.3638498,149.2213787,house,3,1,4,,https://www.auhouseprices.com/sold/view/NSW/341396119/33+Ingelside+Road%2C+Queanbeyan+NSW/
232,2620,Queanbeyan,226,https://www.auhouseprices.com/sold/list/ACT/2620/Queanbeyan/,34 Murray Street ,-35.3715441,149.2242361,house,3,1,4,"$520,000",https://www.auhouseprices.com/sold/view/NSW/341007119/34+Murray+Street%2C+Queanbeyan+NSW/
233,2620,Queanbeyan,226,https://www.auhouseprices.com/sold/list/ACT/2620/Queanbeyan/,141 Collett Street ,-35.3455099,149.2293135,house,2,1,1,,https://www.auhouseprices.com/sold/view/NSW/341061019/141+Collett+Street%2C+Queanbeyan+NSW/
234,2620,Queanbeyan,226,https://www.auhouseprices.com/sold/list/ACT/2620/Queanbeyan/,49 Elizabeth Street ,-35.3462795,149.2493164,house,4,2,2,,https://www.auhouseprices.com/sold/view/NSW/341986919/49+Elizabeth+Street%2C+Queanbeyan+NSW/
235,2620,Queanbeyan,226,https://www.auhouseprices.com/sold/list/ACT/2620/Queanbeyan/,19/38 Isabella Street ,-35.3552882,149.2376860,unit,2,2,0,,https://www.auhouseprices.com/sold/view/NSW/341569019/19-38+Isabella+Street%2C+Queanbeyan+NSW/
236,2620,Queanbeyan,226,https://www.auhouseprices.com/sold/list/ACT/2620/Queanbeyan/,5 Hayes Street ,-35.3601043,149.2341369,house,4,1,1,"$510,000",https://www.auhouseprices.com/sold/view/NSW/341092919/5+Hayes+Street%2C+Queanbeyan+NSW/
237,2620,Queanbeyan,226,https://www.auhouseprices.com/sold/list/ACT/2620/Queanbeyan/,19 Hellmund Street ,-35.3584508,149.2106782,house,4,2,1,,https://www.auhouseprices.com/sold/view/NSW/341812219/19+Hellmund+Street%2C+Queanbeyan+NSW/
238,2620,Queanbeyan,226,https://www.auhouseprices.com/sold/list/ACT/2620/Queanbeyan/,13 Fairmount Crescent ,-35.3624746,149.2196836,house,3,1,2,"$420,000",https://www.auhouseprices.com/sold/view/NSW/341547919/13+Fairmount+Crescent%2C+Queanbeyan+NSW/
239,2620,Queanbeyan,226,https://www.auhouseprices.com/sold/list/ACT/2620/Queanbeyan/,2/11 Bungendore Road ,-35.3470499,149.2460344,townhouse,3,2,2,"$500,000",https://www.auhouseprices.com/sold/view/NSW/341837919/2-11+Bungendore+Road%2C+Queanbeyan+NSW/
240,2620,Queanbeyan,226,https://www.auhouseprices.com/sold/list/ACT/2620/Queanbeyan/,6 Garland Avenue ,-35.3584112,149.2252536,house,3,1,2,,https://www.auhouseprices.com/sold/view/NSW/341257919/6+Garland+Avenue%2C+Queanbeyan+NSW/
241,2620,Queanbeyan,226,https://www.auhouseprices.com/sold/list/ACT/2620/Queanbeyan/,14 Bruce Street ,-35.3501625,149.2280511,house,3,1,1,"$619,000",https://www.auhouseprices.com/sold/view/NSW/341261719/14+Bruce+Street%2C+Queanbeyan+NSW/
242,2620,Queanbeyan,226,https://www.auhouseprices.com/sold/list/ACT/2620/Queanbeyan/,2A Kinkora Place ,-35.3452797,149.2211676,house,3,1,2,"$445,000",https://www.auhouseprices.com/sold/view/NSW/341961719/2A+Kinkora+Place%2C+Queanbeyan+NSW/
243,2620,Queanbeyan,226,https://www.auhouseprices.com/sold/list/ACT/2620/Queanbeyan/,4/12 Morisset Street ,-35.3515048,149.2316787,unit,2,1,0,"$215,000",https://www.auhouseprices.com/sold/view/NSW/341667919/4-12+Morisset+Street%2C+Queanbeyan+NSW/
244,2620,Queanbeyan,226,https://www.auhouseprices.com/sold/list/ACT/2620/Queanbeyan/,6/56-58 Trinculo Place ,-35.3555300,149.2404427,unit,2,1,1,,https://www.auhouseprices.com/sold/view/NSW/341839619/6-56-58+Trinculo+Place%2C+Queanbeyan+NSW/
245,2620,Queanbeyan,226,https://www.auhouseprices.com/sold/list/ACT/2620/Queanbeyan/,20 Crinoline Street ,-35.3531850,149.2185640,house,3,1,1,"$462,000",https://www.auhouseprices.com/sold/view/NSW/341139619/20+Crinoline+Street%2C+Queanbeyan+NSW/
246,2620,Queanbeyan,226,https://www.auhouseprices.com/sold/list/ACT/2620/Queanbeyan/,26/7-11 Stornaway Road ,-35.3532770,149.2259490,apartment,3,2,2,"$395,000",https://www.auhouseprices.com/sold/view/NSW/341549619/26-7-11+Stornaway+Road%2C+Queanbeyan+NSW/
247,2620,Queanbeyan,226,https://www.auhouseprices.com/sold/list/ACT/2620/Queanbeyan/,32 Brereton Street ,-35.3599781,149.2160195,house,4,2,3,"$675,500",https://www.auhouseprices.com/sold/view/NSW/341865509/32+Brereton+Street%2C+Queanbeyan+NSW/
248,2620,Queanbeyan,226,https://www.auhouseprices.com/sold/list/ACT/2620/Queanbeyan/,21/43 Antill Street ,-35.3484997,149.2350492,house,2,2,2,"$395,000",https://www.auhouseprices.com/sold/view/NSW/341575509/21-43+Antill+Street%2C+Queanbeyan+NSW/
249,2620,Queanbeyan,226,https://www.auhouseprices.com/sold/list/ACT/2620/Queanbeyan/,1/18 Booth Street ,-35.3545043,149.2429872,unit,2,1,1,"$237,000",https://www.auhouseprices.com/sold/view/NSW/341100719/1-18+Booth+Street%2C+Queanbeyan+NSW/
250,2620,Queanbeyan,226,https://www.auhouseprices.com/sold/list/ACT/2620/Queanbeyan/,24/39-43 Crawford Street ,-35.3449855,149.2277344,unit,2,2,2,"$345,000",https://www.auhouseprices.com/sold/view/NSW/341220719/24-39-43+Crawford+Street%2C+Queanbeyan+NSW/
251,2620,Queanbeyan,226,https://www.auhouseprices.com/sold/list/ACT/2620/Queanbeyan/,7/38 Isabella Street ,-35.3552882,149.2376860,unit,1,1,1,"$168,000",https://www.auhouseprices.com/sold/view/NSW/341501409/7-38+Isabella+Street%2C+Queanbeyan+NSW/
252,2620,Queanbeyan,226,https://www.auhouseprices.com/sold/list/ACT/2620/Queanbeyan/,27 Stornaway Road ,-35.3483500,149.2266714,house,4,1,3,"$660,000",https://www.auhouseprices.com/sold/view/NSW/341027309/27+Stornaway+Road%2C+Queanbeyan+NSW/
253,2620,Queanbeyan,226,https://www.auhouseprices.com/sold/list/ACT/2620/Queanbeyan/,10/39-43 Crawford Street ,-35.3449855,149.2277344,apartment,2,2,1,"$337,500",https://www.auhouseprices.com/sold/view/NSW/341706209/10-39-43+Crawford+Street%2C+Queanbeyan+NSW/
254,2620,Queanbeyan,226,https://www.auhouseprices.com/sold/list/ACT/2620/Queanbeyan/,16/94 Collett Street ,-35.3473170,149.2334227,townhouse,2,1,1,"$305,000",https://www.auhouseprices.com/sold/view/NSW/341416209/16-94+Collett+Street%2C+Queanbeyan+NSW/
255,2620,Queanbeyan,226,https://www.auhouseprices.com/sold/list/ACT/2620/Queanbeyan/,7 Patrick Brick Court ,-35.3511449,149.2488049,house,3,2,2,"$530,400",https://www.auhouseprices.com/sold/view/NSW/341536209/7+Patrick+Brick+Court%2C+Queanbeyan+NSW/
256,2620,Queanbeyan,226,https://www.auhouseprices.com/sold/list/ACT/2620/Queanbeyan/,31/22 Mowatt Street ,-35.3523173,149.2414599,unit,1,1,1,,https://www.auhouseprices.com/sold/view/NSW/341196209/31-22+Mowatt+Street%2C+Queanbeyan+NSW/
257,2620,Queanbeyan,226,https://www.auhouseprices.com/sold/list/ACT/2620/Queanbeyan/,12/70 Uriarra Road ,-35.3455820,149.2232481,unit,1,1,1,"$164,000",https://www.auhouseprices.com/sold/view/NSW/341287209/12-70+Uriarra+Road%2C+Queanbeyan+NSW/
258,2620,Queanbeyan,226,https://www.auhouseprices.com/sold/list/ACT/2620/Queanbeyan/,9/56 Trinculo Place ,-35.3555300,149.2404427,apartment,2,1,1,"$255,000",https://www.auhouseprices.com/sold/view/NSW/341867209/9-56+Trinculo+Place%2C+Queanbeyan+NSW/
259,2620,Queanbeyan,226,https://www.auhouseprices.com/sold/list/ACT/2620/Queanbeyan/,12/10 Stornaway Road ,-35.3467966,149.2277791,apartment,2,1,0,,https://www.auhouseprices.com/sold/view/NSW/341577209/12-10+Stornaway+Road%2C+Queanbeyan+NSW/
260,2620,Queanbeyan,226,https://www.auhouseprices.com/sold/list/ACT/2620/Queanbeyan/,3/21 Broughton Place ,-35.3589539,149.2258883,townhouse,3,1,2,"$426,000",https://www.auhouseprices.com/sold/view/NSW/341167209/3-21+Broughton+Place%2C+Queanbeyan+NSW/
261,2620,Queanbeyan,226,https://www.auhouseprices.com/sold/list/ACT/2620/Queanbeyan/,130 Collett St ,-35.3451006,149.2301744,house,2,1,3,"$446,000",https://www.auhouseprices.com/sold/view/NSW/341457209/130+Collett+St%2C+Queanbeyan+NSW/
262,2620,Queanbeyan,226,https://www.auhouseprices.com/sold/list/ACT/2620/Queanbeyan/,10 Bruce Street ,-35.3502109,149.2283859,house,3,1,2,,https://www.auhouseprices.com/sold/view/NSW/341627209/10+Bruce+Street%2C+Queanbeyan+NSW/
263,2620,Queanbeyan,226,https://www.auhouseprices.com/sold/list/ACT/2620/Queanbeyan/,22/47 Mowatt Street ,-35.3517961,149.2466890,apartment,2,2,2,"$382,500",https://www.auhouseprices.com/sold/view/NSW/341197909/22-47+Mowatt+Street%2C+Queanbeyan+NSW/
264,2620,Queanbeyan,226,https://www.auhouseprices.com/sold/list/ACT/2620/Queanbeyan/,4/122 Fergus Road ,-35.3603983,149.2193342,townhouse,3,2,1,"$425,000",https://www.auhouseprices.com/sold/view/NSW/341628909/4-122+Fergus+Road%2C+Queanbeyan+NSW/
265,2620,Queanbeyan,226,https://www.auhouseprices.com/sold/list/ACT/2620/Queanbeyan/,31 Agnes Avenue ,-35.3508156,149.2224097,house,5,2,2,,https://www.auhouseprices.com/sold/view/NSW/341218909/31+Agnes+Avenue%2C+Queanbeyan+NSW/
266,2620,Queanbeyan,226,https://www.auhouseprices.com/sold/list/ACT/2620/Queanbeyan/,7 Pooley Street ,-35.3616455,149.2070509,house,4,2,4,"$635,000",https://www.auhouseprices.com/sold/view/NSW/341168909/7+Pooley+Street%2C+Queanbeyan+NSW/
267,2620,Queanbeyan,226,https://www.auhouseprices.com/sold/list/ACT/2620/Queanbeyan/,31/86 Derrima Road ,-35.3428258,149.2220487,unit,2,1,1,"$230,000",https://www.auhouseprices.com/sold/view/NSW/341718209/31-86+Derrima+Road%2C+Queanbeyan+NSW/
268,2620,Queanbeyan,226,https://www.auhouseprices.com/sold/list/ACT/2620/Queanbeyan/,40 Morton Street ,-35.3487405,149.2241383,house,5,2,2,,https://www.auhouseprices.com/sold/view/NSW/341346309/40+Morton+Street%2C+Queanbeyan+NSW/
269,2620,Queanbeyan,226,https://www.auhouseprices.com/sold/list/ACT/2620/Queanbeyan/,62 Stuart Street ,-35.3510006,149.2138751,house,3,2,2,,https://www.auhouseprices.com/sold/view/NSW/341309909/62+Stuart+Street%2C+Queanbeyan+NSW/
270,2620,Queanbeyan,226,https://www.auhouseprices.com/sold/list/ACT/2620/Queanbeyan/,8/122 Henderson Road ,-35.3427980,149.2171940,unit,1,1,1,"$165,000",https://www.auhouseprices.com/sold/view/NSW/341719909/8-122+Henderson+Road%2C+Queanbeyan+NSW/
271,2620,Queanbeyan,226,https://www.auhouseprices.com/sold/list/ACT/2620/Queanbeyan/,21/12 Morisset Street ,-35.3515048,149.2316787,unit,2,1,1,"$225,000",https://www.auhouseprices.com/sold/view/NSW/341536709/21-12+Morisset+Street%2C+Queanbeyan+NSW/
272,2620,Queanbeyan,226,https://www.auhouseprices.com/sold/list/ACT/2620/Queanbeyan/,7/157 Uriarra Road ,-35.3440045,149.2145935,townhouse,2,1,2,"$385,000",https://www.auhouseprices.com/sold/view/NSW/341292709/7-157+Uriarra+Road%2C+Queanbeyan+NSW/
273,2620,Queanbeyan,226,https://www.auhouseprices.com/sold/list/ACT/2620/Queanbeyan/,11/2 Booth Street ,-35.3554534,149.2409229,unit,2,1,1,"$235,000",https://www.auhouseprices.com/sold/view/NSW/341139909/11-2+Booth+Street%2C+Queanbeyan+NSW/
274,2620,Queanbeyan,226,https://www.auhouseprices.com/sold/list/ACT/2620/Queanbeyan/,50 Tennyson Drive ,-35.3554467,149.2466954,house,4,2,1,"$720,000",https://www.auhouseprices.com/sold/view/NSW/341992709/50+Tennyson+Drive%2C+Queanbeyan+NSW/
275,2620,Queanbeyan,226,https://www.auhouseprices.com/sold/list/ACT/2620/Queanbeyan/,3/53 Cooma Street ,-35.3600200,149.2328637,townhouse,2,1,2,"$392,000",https://www.auhouseprices.com/sold/view/NSW/341764709/3-53+Cooma+Street%2C+Queanbeyan+NSW/
276,2620,Queanbeyan,226,https://www.auhouseprices.com/sold/list/ACT/2620/Queanbeyan/,6/22 Carrington Street ,-35.3420160,149.2419578,studio,1,1,0,,https://www.auhouseprices.com/sold/view/NSW/341839909/6-22+Carrington+Street%2C+Queanbeyan+NSW/
277,2620,Queanbeyan,226,https://www.auhouseprices.com/sold/list/ACT/2620/Queanbeyan/,6/1 River Drive ,-35.3740863,149.2361303,townhouse,3,2,2,"$555,000",https://www.auhouseprices.com/sold/view/NSW/341229499/6-1+River+Drive%2C+Queanbeyan+NSW/
278,2620,Queanbeyan,226,https://www.auhouseprices.com/sold/list/ACT/2620/Queanbeyan/,5/27 O'Hanlon Road ,-35.3603299,149.2305498,townhouse,2,1,1,"$365,000",https://www.auhouseprices.com/sold/view/NSW/341690709/5-27+O%27Hanlon+Road%2C+Queanbeyan+NSW/
279,2620,Queanbeyan,226,https://www.auhouseprices.com/sold/list/ACT/2620/Queanbeyan/,4 Hayes Street ,-35.3595266,149.2340706,house,4,1,2,,https://www.auhouseprices.com/sold/view/NSW/341301709/4+Hayes+Street%2C+Queanbeyan+NSW/
280,2620,Queanbeyan,226,https://www.auhouseprices.com/sold/list/ACT/2620/Queanbeyan/,7/8-10 Erin Street ,-35.3468909,149.2317289,townhouse,3,2,2,"$460,000",https://www.auhouseprices.com/sold/view/NSW/341639499/7-8-10+Erin+Street%2C+Queanbeyan+NSW/
281,2620,Queanbeyan,226,https://www.auhouseprices.com/sold/list/ACT/2620/Queanbeyan/,12/33 Macquoid Street ,-35.3516792,149.2411272,townhouse,3,2,2,,https://www.auhouseprices.com/sold/view/NSW/341258209/12-33+Macquoid+Street%2C+Queanbeyan+NSW/
282,2620,Queanbeyan,226,https://www.auhouseprices.com/sold/list/ACT/2620/Queanbeyan/,1/12 Morisset Street ,-35.3515040,149.2316790,unit,2,1,1,,https://www.auhouseprices.com/sold/view/NSW/341059499/1-12+Morisset+Street%2C+Queanbeyan+NSW/
283,2620,Queanbeyan,226,https://www.auhouseprices.com/sold/list/ACT/2620/Queanbeyan/,13 Alice Street ,-35.3611664,149.2351318,house,3,1,2,,https://www.auhouseprices.com/sold/view/NSW/341378709/13+Alice+Street%2C+Queanbeyan+NSW/
284,2620,Queanbeyan,226,https://www.auhouseprices.com/sold/list/ACT/2620/Queanbeyan/,23/46 Trinculo Place ,-35.3548351,149.2401121,unit,1,1,1,"$204,250",https://www.auhouseprices.com/sold/view/NSW/341908399/23-46+Trinculo+Place%2C+Queanbeyan+NSW/
285,2620,Queanbeyan,226,https://www.auhouseprices.com/sold/list/ACT/2620/Queanbeyan/,1/47 Mowatt Street ,-35.3517961,149.2466890,apartment,2,2,2,"$360,000",https://www.auhouseprices.com/sold/view/NSW/341469499/1-47+Mowatt+Street%2C+Queanbeyan+NSW/
286,2620,Queanbeyan,226,https://www.auhouseprices.com/sold/list/ACT/2620/Queanbeyan/,17 Elizabeth Crescent ,-35.3476038,149.2502769,house,3,2,0,,https://www.auhouseprices.com/sold/view/NSW/341759499/17+Elizabeth+Crescent%2C+Queanbeyan+NSW/
287,2620,Queanbeyan,226,https://www.auhouseprices.com/sold/list/ACT/2620/Queanbeyan/,64 Collett Street ,-35.3495995,149.2350680,house,3,1,1,"$455,000",https://www.auhouseprices.com/sold/view/NSW/341668209/64+Collett+Street%2C+Queanbeyan+NSW/
288,2620,Queanbeyan,226,https://www.auhouseprices.com/sold/list/ACT/2620/Queanbeyan/,131 Morton Street ,-35.3466866,149.2119583,house,3,2,2,"$650,000",https://www.auhouseprices.com/sold/view/NSW/341465399/131+Morton+Street%2C+Queanbeyan+NSW/
289,2620,Queanbeyan,226,https://www.auhouseprices.com/sold/list/ACT/2620/Queanbeyan/,2 Kinkora Place ,-35.3452797,149.2211676,house,4,3,2,"$730,000",https://www.auhouseprices.com/sold/view/NSW/341755399/2+Kinkora+Place%2C+Queanbeyan+NSW/
290,2620,Queanbeyan,226,https://www.auhouseprices.com/sold/list/ACT/2620/Queanbeyan/,14 Marril Street ,-35.3637743,149.2018381,house,4,2,2,"$650,000",https://www.auhouseprices.com/sold/view/NSW/341498209/14+Marril+Street%2C+Queanbeyan+NSW/
291,2620,Queanbeyan,226,https://www.auhouseprices.com/sold/list/ACT/2620/Queanbeyan/,77 Thomas Royal Gardens ,-35.3515377,149.2517854,house,4,2,2,"$700,000",https://www.auhouseprices.com/sold/view/NSW/341702399/77+Thomas+Royal+Gardens%2C+Queanbeyan+NSW/
292,2620,Queanbeyan,226,https://www.auhouseprices.com/sold/list/ACT/2620/Queanbeyan/,29/39-43 Crawford Street ,-35.3449855,149.2277344,unit,2,2,1,,https://www.auhouseprices.com/sold/view/NSW/341245299/29-39-43+Crawford+Street%2C+Queanbeyan+NSW/
293,2620,Queanbeyan,226,https://www.auhouseprices.com/sold/list/ACT/2620/Queanbeyan/,57 Derrima Road ,-35.3442060,149.2256590,house,6,3,2,"$617,500",https://www.auhouseprices.com/sold/view/NSW/341999499/57+Derrima+Road%2C+Queanbeyan+NSW/
294,2620,Queanbeyan,226,https://www.auhouseprices.com/sold/list/ACT/2620/Queanbeyan/,31 Early Street ,-35.3544183,149.2199019,house,3,1,4,,https://www.auhouseprices.com/sold/view/NSW/341109209/31+Early+Street%2C+Queanbeyan+NSW/
295,2620,Queanbeyan,226,https://www.auhouseprices.com/sold/list/ACT/2620/Queanbeyan/,2/9 Thurralilly Street ,-35.3433152,149.2401624,townhouse,2,1,1,"$319,000",https://www.auhouseprices.com/sold/view/NSW/341610499/2-9+Thurralilly+Street%2C+Queanbeyan+NSW/
296,2620,Queanbeyan,226,https://www.auhouseprices.com/sold/list/ACT/2620/Queanbeyan/,67 Uriarra Road ,-35.3446733,149.2227710,house,3,2,1,"$452,500",https://www.auhouseprices.com/sold/view/NSW/341532609/67+Uriarra+Road%2C+Queanbeyan+NSW/
297,2620,Queanbeyan,226,https://www.auhouseprices.com/sold/list/ACT/2620/Queanbeyan/,22/18 Booth Street ,-35.3545043,149.2429872,unit,2,1,1,"$236,000",https://www.auhouseprices.com/sold/view/NSW/341030499/22-18+Booth+Street%2C+Queanbeyan+NSW/
298,2620,Queanbeyan,226,https://www.auhouseprices.com/sold/list/ACT/2620/Queanbeyan/,4/9 Thurralilly Street ,-35.3433152,149.2401624,townhouse,2,1,1,,https://www.auhouseprices.com/sold/view/NSW/341772609/4-9+Thurralilly+Street%2C+Queanbeyan+NSW/
299,2620,Queanbeyan,226,https://www.auhouseprices.com/sold/list/ACT/2620/Queanbeyan/,26 Bruce Street ,-35.3500251,149.2270574,house,3,1,1,"$500,000",https://www.auhouseprices.com/sold/view/NSW/341005299/26+Bruce+Street%2C+Queanbeyan+NSW/
300,2620,Queanbeyan,226,https://www.auhouseprices.com/sold/list/ACT/2620/Queanbeyan/,5/110 Fergus Road ,-35.3607260,149.2209330,unit,1,1,1,"$150,000",https://www.auhouseprices.com/sold/view/NSW/341104199/5-110+Fergus+Road%2C+Queanbeyan+NSW/
301,2620,Queanbeyan,226,https://www.auhouseprices.com/sold/list/ACT/2620/Queanbeyan/,1/24 Hellmund Street ,-35.3579935,149.2099044,unit,3,2,2,"$615,000",https://www.auhouseprices.com/sold/view/NSW/341889099/1-24+Hellmund+Street%2C+Queanbeyan+NSW/
302,2620,Queanbeyan,226,https://www.auhouseprices.com/sold/list/ACT/2620/Queanbeyan/,16/48 Trinculo Place ,-35.3550246,149.2402483,unit,2,1,1,"$220,000",https://www.auhouseprices.com/sold/view/NSW/341910099/16-48+Trinculo+Place%2C+Queanbeyan+NSW/
303,2620,Queanbeyan,226,https://www.auhouseprices.com/sold/list/ACT/2620/Queanbeyan/,22/5 Crest Road ,-35.3422999,149.2206059,unit,2,1,1,"$230,000",https://www.auhouseprices.com/sold/view/NSW/341841099/22-5+Crest+Road%2C+Queanbeyan+NSW/
304,2620,Queanbeyan,226,https://www.auhouseprices.com/sold/list/ACT/2620/Queanbeyan/,1/49 Donald Road ,-35.3613544,149.2240651,townhouse,3,2,4,,https://www.auhouseprices.com/sold/view/NSW/341138999/1-49+Donald+Road%2C+Queanbeyan+NSW/
305,2620,Queanbeyan,226,https://www.auhouseprices.com/sold/list/ACT/2620/Queanbeyan/,37/85 Derrima Road ,-35.3434601,149.2212521,unit,1,1,1,"$145,000",https://www.auhouseprices.com/sold/view/NSW/341194099/37-85+Derrima+Road%2C+Queanbeyan+NSW/
306,2620,Queanbeyan,226,https://www.auhouseprices.com/sold/list/ACT/2620/Queanbeyan/,8 Northcott Street ,-35.3490996,149.2174013,house,3,3,3,"$565,000",https://www.auhouseprices.com/sold/view/NSW/341474999/8+Northcott+Street%2C+Queanbeyan+NSW/
307,2620,Queanbeyan,226,https://www.auhouseprices.com/sold/list/ACT/2620/Queanbeyan/,5 Phillip Avenue ,-35.3480194,149.2518884,house,4,1,2,"$910,000",https://www.auhouseprices.com/sold/view/NSW/341620099/5+Phillip+Avenue%2C+Queanbeyan+NSW/
308,2620,Queanbeyan,226,https://www.auhouseprices.com/sold/list/ACT/2620/Queanbeyan/,14 Furlong Road ,-35.3625008,149.2056595,house,4,2,2,"$505,000",https://www.auhouseprices.com/sold/view/NSW/341894099/14+Furlong+Road%2C+Queanbeyan+NSW/
309,2620,Queanbeyan,226,https://www.auhouseprices.com/sold/list/ACT/2620/Queanbeyan/,17 Maloney Street ,-35.3607940,149.2071754,house,4,2,2,"$642,500",https://www.auhouseprices.com/sold/view/NSW/341394299/17+Maloney+Street%2C+Queanbeyan+NSW/
310,2620,Queanbeyan,226,https://www.auhouseprices.com/sold/list/ACT/2620/Queanbeyan/,19/10 Macquoid Street ,-35.3519475,149.2382328,unit,2,1,1,"$220,000",https://www.auhouseprices.com/sold/view/NSW/341688899/19-10+Macquoid+Street%2C+Queanbeyan+NSW/
311,2620,Queanbeyan,226,https://www.auhouseprices.com/sold/list/ACT/2620/Queanbeyan/,6 Dane Street ,-35.3655900,149.2344980,house,3,1,4,"$510,000",https://www.auhouseprices.com/sold/view/NSW/341945299/6+Dane+Street%2C+Queanbeyan+NSW/
312,2620,Queanbeyan,226,https://www.auhouseprices.com/sold/list/ACT/2620/Queanbeyan/,1/43 Isabella Street ,-35.3564830,149.2374500,townhouse,3,2,2,,https://www.auhouseprices.com/sold/view/NSW/341544899/1-43+Isabella+Street%2C+Queanbeyan+NSW/
313,2620,Queanbeyan,226,https://www.auhouseprices.com/sold/list/ACT/2620/Queanbeyan/,27 Early Street ,-35.3544630,149.2202550,residential land,3,2,2,"$379,000",https://www.auhouseprices.com/sold/view/NSW/341639209/27+Early+Street%2C+Queanbeyan+NSW/
314,2620,Queanbeyan,226,https://www.auhouseprices.com/sold/list/ACT/2620/Queanbeyan/,11/10-12 Booth Street ,-35.3545680,149.2423880,townhouse,2,1,1,"$358,000",https://www.auhouseprices.com/sold/view/NSW/341349209/11-10-12+Booth+Street%2C+Queanbeyan+NSW/
315,2620,Queanbeyan,226,https://www.auhouseprices.com/sold/list/ACT/2620/Queanbeyan/,6/12 King Street ,-35.3433263,149.2197779,unit,2,1,1,"$277,500",https://www.auhouseprices.com/sold/view/NSW/341072899/6-12+King+Street%2C+Queanbeyan+NSW/
316,2620,Queanbeyan,226,https://www.auhouseprices.com/sold/list/ACT/2620/Queanbeyan/,9/3 Broughton Place ,-35.3570436,149.2262718,townhouse,2,2,1,"$412,500",https://www.auhouseprices.com/sold/view/NSW/341679799/9-3+Broughton+Place%2C+Queanbeyan+NSW/
317,2620,Queanbeyan,226,https://www.auhouseprices.com/sold/list/ACT/2620/Queanbeyan/,7/13-15 Morisset Street ,-35.3521560,149.2325930,unit,1,1,1,"$300,000",https://www.auhouseprices.com/sold/view/NSW/341389799/7-13-15+Morisset+Street%2C+Queanbeyan+NSW/
318,2620,Queanbeyan,226,https://www.auhouseprices.com/sold/list/ACT/2620/Queanbeyan/,13 Ash Street ,-35.3661579,149.2220408,house,4,1,1,,https://www.auhouseprices.com/sold/view/NSW/341040999/13+Ash+Street%2C+Queanbeyan+NSW/
319,2620,Queanbeyan,226,https://www.auhouseprices.com/sold/list/ACT/2620/Queanbeyan/,10/1A Davison Street ,-35.3442858,149.2173014,townhouse,2,1,1,,https://www.auhouseprices.com/sold/view/NSW/341059209/10-1A+Davison+Street%2C+Queanbeyan+NSW/
320,2620,Queanbeyan,226,https://www.auhouseprices.com/sold/list/ACT/2620/Queanbeyan/,21/34-36 Mowatt Street ,-35.3513876,149.2439284,apartment,2,1,1,"$228,000",https://www.auhouseprices.com/sold/view/NSW/341099799/21-34-36+Mowatt+Street%2C+Queanbeyan+NSW/
321,2620,Queanbeyan,226,https://www.auhouseprices.com/sold/list/ACT/2620/Queanbeyan/,6/3 Velacia Place ,-35.3470680,149.2260080,unit,2,1,1,"$220,000",https://www.auhouseprices.com/sold/view/NSW/341928799/6-3+Velacia+Place%2C+Queanbeyan+NSW/
322,2620,Queanbeyan,226,https://www.auhouseprices.com/sold/list/ACT/2620/Queanbeyan/,54 Crest Road ,-35.3475440,149.2195560,house,3,1,4,"$535,000",https://www.auhouseprices.com/sold/view/NSW/341518799/54+Crest+Road%2C+Queanbeyan+NSW/
323,2620,Queanbeyan,226,https://www.auhouseprices.com/sold/list/ACT/2620/Queanbeyan/,6 Beard Street ,-35.3740582,149.2257550,house,3,1,2,"$517,000",https://www.auhouseprices.com/sold/view/NSW/341348799/6+Beard+Street%2C+Queanbeyan+NSW/
324,2620,Queanbeyan,226,https://www.auhouseprices.com/sold/list/ACT/2620/Queanbeyan/,3/32A Booth Street ,-35.3537970,149.2447968,unit,2,1,1,,https://www.auhouseprices.com/sold/view/NSW/341759209/3-32A+Booth+Street%2C+Queanbeyan+NSW/
325,2620,Queanbeyan,226,https://www.auhouseprices.com/sold/list/ACT/2620/Queanbeyan/,14 Cassinia Street ,-35.3528406,149.2167294,house,3,1,2,"$607,500",https://www.auhouseprices.com/sold/view/NSW/341468799/14+Cassinia+Street%2C+Queanbeyan+NSW/
326,2620,Queanbeyan,226,https://www.auhouseprices.com/sold/list/ACT/2620/Queanbeyan/,7 Derrima Road ,-35.3448027,149.2302353,house,4,2,2,"$725,000",https://www.auhouseprices.com/sold/view/NSW/341179209/7+Derrima+Road%2C+Queanbeyan+NSW/
327,2620,Queanbeyan,226,https://www.auhouseprices.com/sold/list/ACT/2620/Queanbeyan/,1/27 Mowatt Street ,-35.3526606,149.2435889,house,2,1,1,,https://www.auhouseprices.com/sold/view/NSW/341589209/1-27+Mowatt+Street%2C+Queanbeyan+NSW/
328,2620,Queanbeyan,226,https://www.auhouseprices.com/sold/list/ACT/2620/Queanbeyan/,53 Southbar Road ,-35.3702289,149.2294237,house,3,1,1,"$401,000",https://www.auhouseprices.com/sold/view/NSW/341374899/53+Southbar+Road%2C+Queanbeyan+NSW/
329,2620,Queanbeyan,226,https://www.auhouseprices.com/sold/list/ACT/2620/Queanbeyan/,21 Adams Street ,-35.3583716,149.2180702,house,3,1,1,,https://www.auhouseprices.com/sold/view/NSW/341629699/21+Adams+Street%2C+Queanbeyan+NSW/
330,2620,Queanbeyan,226,https://www.auhouseprices.com/sold/list/ACT/2620/Queanbeyan/,14 Temora Place ,-35.3758070,149.2244915,house,3,1,1,"$510,000",https://www.auhouseprices.com/sold/view/NSW/341432799/14+Temora+Place%2C+Queanbeyan+NSW/
331,2620,Queanbeyan,226,https://www.auhouseprices.com/sold/list/ACT/2620/Queanbeyan/,86 Ross Road ,-35.3535160,149.2238660,house,2,1,1,"$440,000",https://www.auhouseprices.com/sold/view/NSW/341169699/86+Ross+Road%2C+Queanbeyan+NSW/
332,2620,Queanbeyan,226,https://www.auhouseprices.com/sold/list/ACT/2620/Queanbeyan/,4 Nimmitabel Street ,-35.3546008,149.2101648,townhouse,6,3,3,"$850,000",https://www.auhouseprices.com/sold/view/NSW/341299209/4+Nimmitabel+Street%2C+Queanbeyan+NSW/
333,2620,Queanbeyan,226,https://www.auhouseprices.com/sold/list/ACT/2620/Queanbeyan/,19/13-15 Morisset Street ,-35.3521541,149.2325894,unit,2,2,2,"$433,500",https://www.auhouseprices.com/sold/view/NSW/341084899/19-13-15+Morisset+Street%2C+Queanbeyan+NSW/
334,2620,Queanbeyan,226,https://www.auhouseprices.com/sold/list/ACT/2620/Queanbeyan/,2/10 Kinkora Place ,-35.3455333,149.2218862,duplex/semi-detached,2,1,1,"$395,000",https://www.auhouseprices.com/sold/view/NSW/341124599/2-10+Kinkora+Place%2C+Queanbeyan+NSW/
335,2620,Queanbeyan,226,https://www.auhouseprices.com/sold/list/ACT/2620/Queanbeyan/,5/37-43 Derrima Road ,-35.3447153,149.2270184,townhouse,3,1,1,"$432,000",https://www.auhouseprices.com/sold/view/NSW/341352599/5-37-43+Derrima+Road%2C+Queanbeyan+NSW/
336,2620,Queanbeyan,226,https://www.auhouseprices.com/sold/list/ACT/2620/Queanbeyan/,8 Corin Place ,-35.3510168,149.2162459,house,5,3,2,,https://www.auhouseprices.com/sold/view/NSW/341579699/8+Corin+Place%2C+Queanbeyan+NSW/
337,2620,Queanbeyan,226,https://www.auhouseprices.com/sold/list/ACT/2620/Queanbeyan/,65 The Crescent ,-35.3548160,149.2236290,house,4,3,3,"$655,000",https://www.auhouseprices.com/sold/view/NSW/341730209/65+The+Crescent%2C+Queanbeyan+NSW/
338,2620,Queanbeyan,226,https://www.auhouseprices.com/sold/list/ACT/2620/Queanbeyan/,19/41 Carinya Street ,-35.3473190,149.2344710,apartment,3,2,1,"$429,000",https://www.auhouseprices.com/sold/view/NSW/341848389/19-41+Carinya+Street%2C+Queanbeyan+NSW/
339,2620,Queanbeyan,226,https://www.auhouseprices.com/sold/list/ACT/2620/Queanbeyan/,84 Stornaway Road ,-35.3548810,149.2259380,house,4,1,1,"$500,000",https://www.auhouseprices.com/sold/view/NSW/341373489/84+Stornaway+Road%2C+Queanbeyan+NSW/
340,2620,Queanbeyan,226,https://www.auhouseprices.com/sold/list/ACT/2620/Queanbeyan/,3/49 Erin Street ,-35.3468800,149.2340100,townhouse,2,1,2,,https://www.auhouseprices.com/sold/view/NSW/341481699/3-49+Erin+Street%2C+Queanbeyan+NSW/
341,2620,Queanbeyan,226,https://www.auhouseprices.com/sold/list/ACT/2620/Queanbeyan/,4/20 Charles Street ,-35.3593520,149.2282230,apartment,1,1,1,,https://www.auhouseprices.com/sold/view/NSW/341558389/4-20+Charles+Street%2C+Queanbeyan+NSW/
342,2620,Queanbeyan,226,https://www.auhouseprices.com/sold/list/ACT/2620/Queanbeyan/,15/30 Trinculo Place ,-35.3536780,149.2391460,unit,2,1,1,"$245,000",https://www.auhouseprices.com/sold/view/NSW/341376389/15-30+Trinculo+Place%2C+Queanbeyan+NSW/
343,2620,Queanbeyan,226,https://www.auhouseprices.com/sold/list/ACT/2620/Queanbeyan/,35 Derrima Road ,-35.3444300,149.2274880,house,3,1,2,,https://www.auhouseprices.com/sold/view/NSW/341150209/35+Derrima+Road%2C+Queanbeyan+NSW/
344,2620,Queanbeyan,226,https://www.auhouseprices.com/sold/list/ACT/2620/Queanbeyan/,2/47-49 Booth Street ,-35.3538588,149.2461422,unit,2,1,1,"$300,000",https://www.auhouseprices.com/sold/view/NSW/341807389/2-47-49+Booth+Street%2C+Queanbeyan+NSW/
345,2620,Queanbeyan,226,https://www.auhouseprices.com/sold/list/ACT/2620/Queanbeyan/,12/34 Uriarra Rd ,-35.3462080,149.2258630,unit,2,1,1,"$259,000",https://www.auhouseprices.com/sold/view/NSW/341517389/12-34+Uriarra+Rd%2C+Queanbeyan+NSW/
346,2620,Queanbeyan,226,https://www.auhouseprices.com/sold/list/ACT/2620/Queanbeyan/,3/22 Broughton Place ,-35.3586900,149.2266970,townhouse,3,2,2,"$489,000",https://www.auhouseprices.com/sold/view/NSW/341720489/3-22+Broughton+Place%2C+Queanbeyan+NSW/
347,2620,Queanbeyan,226,https://www.auhouseprices.com/sold/list/ACT/2620/Queanbeyan/,10/3 Broughton Place ,-35.3570370,149.2262800,townhouse,1,1,1,"$315,000",https://www.auhouseprices.com/sold/view/NSW/341417289/10-3+Broughton+Place%2C+Queanbeyan+NSW/
348,2620,Queanbeyan,226,https://www.auhouseprices.com/sold/list/ACT/2620/Queanbeyan/,17/39 Crawford Street ,-35.3449860,149.2277350,apartment,1,1,1,"$249,000",https://www.auhouseprices.com/sold/view/NSW/341571289/17-39+Crawford+Street%2C+Queanbeyan+NSW/
349,2620,Queanbeyan,226,https://www.auhouseprices.com/sold/list/ACT/2620/Queanbeyan/,5 Hambly Place ,-35.3633096,149.2346116,house,4,2,0,"$475,000",https://www.auhouseprices.com/sold/view/NSW/341176189/5+Hambly+Place%2C+Queanbeyan+NSW/
350,2620,Queanbeyan,226,https://www.auhouseprices.com/sold/list/ACT/2620/Queanbeyan/,6/71 Donald Road ,-35.3630660,149.2236630,townhouse,3,1,1,"$380,000",https://www.auhouseprices.com/sold/view/NSW/341876189/6-71+Donald+Road%2C+Queanbeyan+NSW/
351,2620,Queanbeyan,226,https://www.auhouseprices.com/sold/list/ACT/2620/Queanbeyan/,39/85 Derrima Road ,-35.3435680,149.2212980,house,1,1,1,"$140,000",https://www.auhouseprices.com/sold/view/NSW/341296189/39-85+Derrima+Road%2C+Queanbeyan+NSW/
352,2620,Queanbeyan,226,https://www.auhouseprices.com/sold/list/ACT/2620/Queanbeyan/,11 Doyle Place ,-35.3751960,149.2385400,house,4,1,2,,https://www.auhouseprices.com/sold/view/NSW/341637389/11+Doyle+Place%2C+Queanbeyan+NSW/
353,2620,Queanbeyan,226,https://www.auhouseprices.com/sold/list/ACT/2620/Queanbeyan/,20/37 Derrima Road ,-35.3447340,149.2270020,townhouse,3,1,1,"$425,000",https://www.auhouseprices.com/sold/view/NSW/341375189/20-37+Derrima+Road%2C+Queanbeyan+NSW/
354,2620,Queanbeyan,226,https://www.auhouseprices.com/sold/list/ACT/2620/Queanbeyan/,3/47 Mowatt Street ,-35.3517970,149.2466680,apartment,2,2,2,"$385,000",https://www.auhouseprices.com/sold/view/NSW/341893189/3-47+Mowatt++Street%2C+Queanbeyan+NSW/
355,2620,Queanbeyan,226,https://www.auhouseprices.com/sold/list/ACT/2620/Queanbeyan/,6/11 Crest Road ,-35.3430180,149.2205030,unit,2,1,1,"$202,000",https://www.auhouseprices.com/sold/view/NSW/341504189/6-11+Crest+Road%2C+Queanbeyan+NSW/
356,2620,Queanbeyan,226,https://www.auhouseprices.com/sold/list/ACT/2620/Queanbeyan/,1/64 Thorpe Avenue ,-35.3623813,149.2344697,townhouse,2,1,1,"$415,000",https://www.auhouseprices.com/sold/view/NSW/341852189/1-64+Thorpe+Avenue%2C+Queanbeyan+NSW/
357,2620,Queanbeyan,226,https://www.auhouseprices.com/sold/list/ACT/2620/Queanbeyan/,1/5 Adams Street ,-35.3588610,149.2196760,unit,1,1,1,"$172,000",https://www.auhouseprices.com/sold/view/NSW/341680089/1-5+Adams+Street%2C+Queanbeyan+NSW/
358,2620,Queanbeyan,226,https://www.auhouseprices.com/sold/list/ACT/2620/Queanbeyan/,40/39-43 Crawford Street ,-35.3449860,149.2277350,unit,1,1,2,"$260,000",https://www.auhouseprices.com/sold/view/NSW/341401189/40-39-43+Crawford+Street%2C+Queanbeyan+NSW/
359,2620,Queanbeyan,226,https://www.auhouseprices.com/sold/list/ACT/2620/Queanbeyan/,3/15 Charles Street ,-35.3597650,149.2271810,townhouse,2,1,1,"$266,500",https://www.auhouseprices.com/sold/view/NSW/341879089/3-15+Charles+Street%2C+Queanbeyan+NSW/
360,2620,Queanbeyan,226,https://www.auhouseprices.com/sold/list/ACT/2620/Queanbeyan/,3/36 Cameron Road ,-35.3598650,149.2301430,townhouse,3,2,2,"$480,000",https://www.auhouseprices.com/sold/view/NSW/341680209/3-36+Cameron+Road%2C+Queanbeyan+NSW/
361,2620,Queanbeyan,226,https://www.auhouseprices.com/sold/list/ACT/2620/Queanbeyan/,55/47 Mowatt Street ,-35.3517970,149.2466680,house,2,2,2,"$405,250",https://www.auhouseprices.com/sold/view/NSW/341896089/55-47+Mowatt+Street%2C+Queanbeyan+NSW/
362,2620,Queanbeyan,226,https://www.auhouseprices.com/sold/list/ACT/2620/Queanbeyan/,3/26 Mowatt Street ,-35.3517470,149.2431870,townhouse,3,1,1,"$355,000",https://www.auhouseprices.com/sold/view/NSW/341917089/3-26+Mowatt+Street%2C+Queanbeyan+NSW/
363,2620,Queanbeyan,226,https://www.auhouseprices.com/sold/list/ACT/2620/Queanbeyan/,1/29 Ash Street ,-35.3666000,149.2205050,townhouse,3,2,2,"$450,000",https://www.auhouseprices.com/sold/view/NSW/341329189/1-29+Ash+Street%2C+Queanbeyan+NSW/
364,2620,Queanbeyan,226,https://www.auhouseprices.com/sold/list/ACT/2620/Queanbeyan/,4/24 Bungendore Road ,-35.3467380,149.2476960,townhouse,2,1,1,"$346,500",https://www.auhouseprices.com/sold/view/NSW/341855089/4-24+Bungendore+Road%2C+Queanbeyan+NSW/
365,2620,Queanbeyan,226,https://www.auhouseprices.com/sold/list/ACT/2620/Queanbeyan/,2/107 Campbell Street ,-35.3558620,149.2281880,villa,2,1,1,"$435,000",https://www.auhouseprices.com/sold/view/NSW/341039189/2-107+Campbell+Street%2C+Queanbeyan+NSW/
366,2620,Queanbeyan,226,https://www.auhouseprices.com/sold/list/ACT/2620/Queanbeyan/,8 Eecen Road ,-35.3670810,149.2357060,house,4,3,1,"$630,000",https://www.auhouseprices.com/sold/view/NSW/341802089/8+Eecen+Road%2C+Queanbeyan+NSW/
367,2620,Queanbeyan,226,https://www.auhouseprices.com/sold/list/ACT/2620/Queanbeyan/,2/13-15 Gilmore Place ,-35.3583820,149.2196500,unit,1,1,1,"$135,500",https://www.auhouseprices.com/sold/view/NSW/341668089/2-13-15+Gilmore+Place%2C+Queanbeyan+NSW/
368,2620,Queanbeyan,226,https://www.auhouseprices.com/sold/list/ACT/2620/Queanbeyan/,4/16 Charles Street ,-35.3598020,149.2281370,townhouse,2,1,1,"$350,000",https://www.auhouseprices.com/sold/view/NSW/341512089/4-16+Charles+Street%2C+Queanbeyan+NSW/
369,2620,Queanbeyan,226,https://www.auhouseprices.com/sold/list/ACT/2620/Queanbeyan/,6/32 Doeberl Place ,-35.3768010,149.2461390,townhouse,3,2,2,"$470,000",https://www.auhouseprices.com/sold/view/NSW/341934089/6-32+Doeberl+Place%2C+Queanbeyan+NSW/
370,2620,Queanbeyan,226,https://www.auhouseprices.com/sold/list/ACT/2620/Queanbeyan/,10/48-50 Richard Avenue ,-35.3494230,149.2146790,unit,2,1,1,"$252,500",https://www.auhouseprices.com/sold/view/NSW/341828989/10-48-50+Richard+Avenue%2C+Queanbeyan+NSW/
371,2620,Queanbeyan,226,https://www.auhouseprices.com/sold/list/ACT/2620/Queanbeyan/,2/2 Crest Road ,-35.3426690,149.2213010,unit,2,1,2,,https://www.auhouseprices.com/sold/view/NSW/341100209/2-2+Crest+Road%2C+Queanbeyan+NSW/
372,2620,Queanbeyan,226,https://www.auhouseprices.com/sold/list/ACT/2620/Queanbeyan/,32 Morton St ,-35.3491120,149.2258070,house,3,1,2,"$530,000",https://www.auhouseprices.com/sold/view/NSW/341248989/32+Morton+St%2C+Queanbeyan+NSW/
373,2620,Queanbeyan,226,https://www.auhouseprices.com/sold/list/ACT/2620/Queanbeyan/,96 Barracks Flat Drive ,-35.3762130,149.2446720,house,4,2,2,"$645,000",https://www.auhouseprices.com/sold/view/NSW/341800209/96+Barracks+Flat+Drive%2C+Queanbeyan+NSW/
374,2620,Queanbeyan,226,https://www.auhouseprices.com/sold/list/ACT/2620/Queanbeyan/,9/12 Morisset Street ,-35.3515040,149.2316790,unit,2,1,1,"$190,000",https://www.auhouseprices.com/sold/view/NSW/341078989/9-12+Morisset+Street%2C+Queanbeyan+NSW/
375,2620,Queanbeyan,226,https://www.auhouseprices.com/sold/list/ACT/2620/Queanbeyan/,11 Harper Close ,-35.3721970,149.2270330,house,3,1,2,"$550,000",https://www.auhouseprices.com/sold/view/NSW/341495189/11+Harper+Close%2C+Queanbeyan+NSW/
376,2620,Queanbeyan,226,https://www.auhouseprices.com/sold/list/ACT/2620/Queanbeyan/,28 O'Hanlon Road ,-35.3608920,149.2300870,house,3,1,1,"$487,000",https://www.auhouseprices.com/sold/view/NSW/341531989/28+O%27Hanlon+Road%2C+Queanbeyan+NSW/
377,2620,Queanbeyan,226,https://www.auhouseprices.com/sold/list/ACT/2620/Queanbeyan/,41 Gilmore Place ,-35.3574650,149.2170860,house,3,1,1,"$447,000",https://www.auhouseprices.com/sold/view/NSW/341241989/41+Gilmore+Place%2C+Queanbeyan+NSW/
378,2620,Queanbeyan,226,https://www.auhouseprices.com/sold/list/ACT/2620/Queanbeyan/,3/61 Donald Road ,-35.3622710,149.2238160,unit,1,1,1,"$180,000",https://www.auhouseprices.com/sold/view/NSW/341778989/3-61+Donald+Road%2C+Queanbeyan+NSW/
379,2620,Queanbeyan,226,https://www.auhouseprices.com/sold/list/ACT/2620/Queanbeyan/,54/39 Crawford Street ,-35.3449860,149.2277350,house,2,2,1,"$330,000",https://www.auhouseprices.com/sold/view/NSW/341627089/54-39+Crawford+Street%2C+Queanbeyan+NSW/
380,2620,Queanbeyan,226,https://www.auhouseprices.com/sold/list/ACT/2620/Queanbeyan/,5/10 Stornaway Road ,-35.3467960,149.2277790,unit,2,1,1,,https://www.auhouseprices.com/sold/view/NSW/341401309/5-10+Stornaway+Road%2C+Queanbeyan+NSW/
381,2620,Queanbeyan,226,https://www.auhouseprices.com/sold/list/ACT/2620/Queanbeyan/,11/2-4 Mowatt Street ,-35.3539590,149.2393720,unit,2,1,1,"$255,000",https://www.auhouseprices.com/sold/view/NSW/341599889/11-2-4+Mowatt+Street%2C+Queanbeyan+NSW/
382,2620,Queanbeyan,226,https://www.auhouseprices.com/sold/list/ACT/2620/Queanbeyan/,15/12 King Street ,-35.3433210,149.2197900,unit,2,1,1,"$220,000",https://www.auhouseprices.com/sold/view/NSW/341651989/15-12+King+Street%2C+Queanbeyan+NSW/
383,2620,Queanbeyan,226,https://www.auhouseprices.com/sold/list/ACT/2620/Queanbeyan/,153 Cooma Street ,-35.3680340,149.2327350,house,3,1,1,"$480,000",https://www.auhouseprices.com/sold/view/NSW/341335889/153+Cooma+Street%2C+Queanbeyan+NSW/
384,2620,Queanbeyan,226,https://www.auhouseprices.com/sold/list/ACT/2620/Queanbeyan/,38 Severne Street ,-35.3643890,149.2535190,house,5,3,3,"$1,075,000",https://www.auhouseprices.com/sold/view/NSW/341297889/38+Severne+Street%2C+Queanbeyan+NSW/
385,2620,Queanbeyan,226,https://www.auhouseprices.com/sold/list/ACT/2620/Queanbeyan/,15/48-50 Trinculo Place ,-35.3550250,149.2402480,unit,2,1,1,"$220,000",https://www.auhouseprices.com/sold/view/NSW/341200989/15-48-50+Trinculo+Place%2C+Queanbeyan+NSW/
386,2620,Queanbeyan,226,https://www.auhouseprices.com/sold/list/ACT/2620/Queanbeyan/,9/63 Donald Road ,-35.3625410,149.2237180,unit,1,1,1,"$192,500",https://www.auhouseprices.com/sold/view/NSW/341997889/9-63+Donald+Road%2C+Queanbeyan+NSW/
387,2620,Queanbeyan,226,https://www.auhouseprices.com/sold/list/ACT/2620/Queanbeyan/,2/63 Donald Road ,-35.3624378,149.2237837,unit,2,1,1,"$180,000",https://www.auhouseprices.com/sold/view/NSW/341632089/2-63+Donald+Road%2C+Queanbeyan+NSW/
388,2620,Queanbeyan,226,https://www.auhouseprices.com/sold/list/ACT/2620/Queanbeyan/,79 Tharwa Road ,-35.3590780,149.2199490,house,3,1,0,"$420,500",https://www.auhouseprices.com/sold/view/NSW/341644089/79+Tharwa+Road%2C+Queanbeyan+NSW/
389,2620,Queanbeyan,226,https://www.auhouseprices.com/sold/list/ACT/2620/Queanbeyan/,29/7-11 Stornaway Road ,-35.3532770,149.2259490,apartment,1,1,1,"$275,000",https://www.auhouseprices.com/sold/view/NSW/341608889/29-7-11+Stornaway+Road%2C+Queanbeyan+NSW/
390,2620,Queanbeyan,226,https://www.auhouseprices.com/sold/list/ACT/2620/Queanbeyan/,5/24 Booth Street ,-35.3542530,149.2430750,townhouse,2,2,1,"$341,000",https://www.auhouseprices.com/sold/view/NSW/341133989/5-24+Booth+Street%2C+Queanbeyan+NSW/
391,2620,Queanbeyan,226,https://www.auhouseprices.com/sold/list/ACT/2620/Queanbeyan/,3/36 Antill Street ,-35.3481800,149.2340460,unit,1,1,1,"$285,000",https://www.auhouseprices.com/sold/view/NSW/341521309/3-36+Antill+Street%2C+Queanbeyan+NSW/
392,2620,Queanbeyan,226,https://www.auhouseprices.com/sold/list/ACT/2620/Queanbeyan/,41/47 Mowatt Street ,-35.3517970,149.2466680,unit,1,1,0,"$302,000",https://www.auhouseprices.com/sold/view/NSW/341488989/41-47+Mowatt+Street%2C+Queanbeyan+NSW/
393,2620,Queanbeyan,226,https://www.auhouseprices.com/sold/list/ACT/2620/Queanbeyan/,25/14 King Street ,-35.3429200,149.2197690,unit,2,1,1,"$210,000",https://www.auhouseprices.com/sold/view/NSW/341185789/25-14+King+Street%2C+Queanbeyan+NSW/
394,2620,Queanbeyan,226,https://www.auhouseprices.com/sold/list/ACT/2620/Queanbeyan/,11/116 Henderson Road ,-35.3425900,149.2177680,townhouse,3,1,1,"$377,500",https://www.auhouseprices.com/sold/view/NSW/341931309/11-116+Henderson+Road%2C+Queanbeyan+NSW/
395,2620,Queanbeyan,226,https://www.auhouseprices.com/sold/list/ACT/2620/Queanbeyan/,2 Charles Street ,-35.3610430,149.2278020,house,3,2,2,,https://www.auhouseprices.com/sold/view/NSW/341451789/2+Charles+Street%2C+Queanbeyan+NSW/
396,2620,Queanbeyan,226,https://www.auhouseprices.com/sold/list/ACT/2620/Queanbeyan/,2/41 Carinya Street ,-35.3473190,149.2344710,townhouse,2,1,1,"$315,000",https://www.auhouseprices.com/sold/view/NSW/341984689/2-41+Carinya+Street%2C+Queanbeyan+NSW/
397,2620,Queanbeyan,226,https://www.auhouseprices.com/sold/list/ACT/2620/Queanbeyan/,24 Cassinia Street ,-35.3519450,149.2154490,house,4,2,2,"$585,000",https://www.auhouseprices.com/sold/view/NSW/341351309/24+Cassinia+Street%2C+Queanbeyan+NSW/
398,2620,Queanbeyan,226,https://www.auhouseprices.com/sold/list/ACT/2620/Queanbeyan/,5 Pooley Street ,-35.3616120,149.2067980,house,4,3,2,"$700,000",https://www.auhouseprices.com/sold/view/NSW/341747589/5+Pooley+Street%2C+Queanbeyan+NSW/
399,2620,Queanbeyan,226,https://www.auhouseprices.com/sold/list/ACT/2620/Queanbeyan/,2/5 Adams Street ,-35.3588610,149.2196760,unit,1,1,1,"$115,000",https://www.auhouseprices.com/sold/view/NSW/341548589/2-5+Adams+Street%2C+Queanbeyan+NSW/
400,2620,Queanbeyan,226,https://www.auhouseprices.com/sold/list/ACT/2620/Queanbeyan/,4/18 Yarrow Street ,-35.3542850,149.2464120,unit,2,1,2,"$290,000",https://www.auhouseprices.com/sold/view/NSW/341016889/4-18+Yarrow+Street%2C+Queanbeyan+NSW/
401,2620,Queanbeyan,226,https://www.auhouseprices.com/sold/list/ACT/2620/Queanbeyan/,4 Myola Street ,-35.3433880,149.2188880,townhouse,2,1,2,"$380,000",https://www.auhouseprices.com/sold/view/NSW/341457589/4+Myola+Street%2C+Queanbeyan+NSW/
402,2620,Queanbeyan,226,https://www.auhouseprices.com/sold/list/ACT/2620/Queanbeyan/,6 Cooma Street ,-35.3584350,149.2334010,house,3,2,2,"$720,000",https://www.auhouseprices.com/sold/view/NSW/341975589/6+Cooma+Street%2C+Queanbeyan+NSW/
403,2620,Queanbeyan,226,https://www.auhouseprices.com/sold/list/ACT/2620/Queanbeyan/,1/30 Trinculo Place ,-35.3536780,149.2391460,unit,2,1,1,"$245,000",https://www.auhouseprices.com/sold/view/NSW/341562689/1-30+Trinculo+Place%2C+Queanbeyan+NSW/
404,2620,Queanbeyan,226,https://www.auhouseprices.com/sold/list/ACT/2620/Queanbeyan/,36 Crawford Street ,-35.3449930,149.2284900,house,3,1,4,"$515,000",https://www.auhouseprices.com/sold/view/NSW/341577589/36+Crawford+Street%2C+Queanbeyan+NSW/
405,2620,Queanbeyan,226,https://www.auhouseprices.com/sold/list/ACT/2620/Queanbeyan/,6/7-11 Cassidy Street ,-35.3596690,149.2182980,townhouse,3,2,1,"$472,000",https://www.auhouseprices.com/sold/view/NSW/341685589/6-7-11+Cassidy+Street%2C+Queanbeyan+NSW/
406,2620,Queanbeyan,226,https://www.auhouseprices.com/sold/list/ACT/2620/Queanbeyan/,41/3A Stornaway Road ,-35.3467040,149.2266280,unit,1,1,1,"$272,000",https://www.auhouseprices.com/sold/view/NSW/341395589/41-3A+Stornaway+Road%2C+Queanbeyan+NSW/
407,2620,Queanbeyan,226,https://www.auhouseprices.com/sold/list/ACT/2620/Queanbeyan/,94 Ross Road ,-35.3540620,149.2237610,house,3,2,1,"$560,000",https://www.auhouseprices.com/sold/view/NSW/341383589/94+Ross+Road%2C+Queanbeyan+NSW/
408,2620,Queanbeyan,226,https://www.auhouseprices.com/sold/list/ACT/2620/Queanbeyan/,5/4-6 Brook Street ,-35.3583140,149.2279550,townhouse,2,1,2,"$390,000",https://www.auhouseprices.com/sold/view/NSW/341354589/5-4-6+Brook+Street%2C+Queanbeyan+NSW/
409,2620,Queanbeyan,226,https://www.auhouseprices.com/sold/list/ACT/2620/Queanbeyan/,5/7 Munro Road ,-35.3561870,149.2241520,apartment,2,1,1,"$185,000",https://www.auhouseprices.com/sold/view/NSW/341885789/5-7+Munro+Road%2C+Queanbeyan+NSW/
410,2620,Queanbeyan,226,https://www.auhouseprices.com/sold/list/ACT/2620/Queanbeyan/,11/48 Trinculo Place ,-35.3550250,149.2402480,unit,2,1,0,"$197,000",https://www.auhouseprices.com/sold/view/NSW/341006589/11-48+Trinculo+Place%2C+Queanbeyan+NSW/
411,2620,Queanbeyan,226,https://www.auhouseprices.com/sold/list/ACT/2620/Queanbeyan/,14 Woodger Parade ,-35.3651190,149.2379550,house,4,2,2,"$570,000",https://www.auhouseprices.com/sold/view/NSW/341061309/14+Woodger+Parade%2C+Queanbeyan+NSW/
412,2620,Queanbeyan,226,https://www.auhouseprices.com/sold/list/ACT/2620/Queanbeyan/,1/2-4 Cassidy Street ,-35.3607530,149.2175970,townhouse,2,1,2,"$416,000",https://www.auhouseprices.com/sold/view/NSW/341793589/1-2-4+Cassidy+Street%2C+Queanbeyan+NSW/
413,2620,Queanbeyan,226,https://www.auhouseprices.com/sold/list/ACT/2620/Queanbeyan/,15 Lazarus Crescent ,-35.3615840,149.2105280,house,3,1,4,"$520,000",https://www.auhouseprices.com/sold/view/NSW/341209479/15+Lazarus+Crescent%2C+Queanbeyan+NSW/
