,Postcode,Suburb Name,Recent Sales,Suburb Link,Street Address,Latitude,Longitude,Property Type,Beds,Baths,Cars,Sold Price,Property Link
0,2902,Kambah,221,https://www.auhouseprices.com/sold/list/ACT/2902/Kambah/,13 Battersby Circuit ,-35.3758247,149.0531354,house,3,1,3,,https://www.auhouseprices.com/sold/view/ACT/341510370/13+Battersby+Circuit%2C+Kambah+ACT/
1,2902,Kambah,221,https://www.auhouseprices.com/sold/list/ACT/2902/Kambah/,119 Harrington Circuit ,-35.3772003,149.0607652,house,4,1,3,"$810,000",https://www.auhouseprices.com/sold/view/ACT/341630370/119+Harrington+Circuit%2C+Kambah+ACT/
2,2902,Kambah,221,https://www.auhouseprices.com/sold/list/ACT/2902/Kambah/,33 Bateman Street ,-35.3915504,149.0481396,house,4,2,2,"$751,000",https://www.auhouseprices.com/sold/view/ACT/341043370/33+Bateman+Street%2C+Kambah+ACT/
3,2902,Kambah,221,https://www.auhouseprices.com/sold/list/ACT/2902/Kambah/,22 Inkster Street ,-35.3768742,149.0661283,house,3,2,2,"$800,000",https://www.auhouseprices.com/sold/view/ACT/341122370/22+Inkster+Street%2C+Kambah+ACT/
4,2902,Kambah,221,https://www.auhouseprices.com/sold/list/ACT/2902/Kambah/,17 McLeod Place ,-35.3910512,149.0552388,house,3,1,1,"$696,000",https://www.auhouseprices.com/sold/view/ACT/341758270/17+McLeod+Place%2C+Kambah+ACT/
5,2902,Kambah,221,https://www.auhouseprices.com/sold/list/ACT/2902/Kambah/,25A Humble Court ,-35.3825775,149.0783933,house,3,2,1,"$730,000",https://www.auhouseprices.com/sold/view/ACT/341792270/25A+Humble+Court%2C+Kambah+ACT/
6,2902,Kambah,221,https://www.auhouseprices.com/sold/list/ACT/2902/Kambah/,11 McCullock Place ,-35.3856937,149.0670137,house,3,2,2,,https://www.auhouseprices.com/sold/view/ACT/341751270/11+McCullock+Place%2C+Kambah+ACT/
7,2902,Kambah,221,https://www.auhouseprices.com/sold/list/ACT/2902/Kambah/,19 Broadhurst Street ,-35.3872556,149.0805279,house,4,2,2,"$1,080,000",https://www.auhouseprices.com/sold/view/ACT/341277170/19+Broadhurst+Street%2C+Kambah+ACT/
8,2902,Kambah,221,https://www.auhouseprices.com/sold/list/ACT/2902/Kambah/,6 Masters Place ,-35.3907655,149.0518959,house,4,2,1,"$753,000",https://www.auhouseprices.com/sold/view/ACT/341049170/6+Masters+Place%2C+Kambah+ACT/
9,2902,Kambah,221,https://www.auhouseprices.com/sold/list/ACT/2902/Kambah/,12/19 Ashby Circuit ,-35.3960927,149.0670212,townhouse,2,1,1,,https://www.auhouseprices.com/sold/view/ACT/341464170/12-19+Ashby+Circuit%2C+Kambah+ACT/
10,2902,Kambah,221,https://www.auhouseprices.com/sold/list/ACT/2902/Kambah/,17 Maidment Place ,-35.3931297,149.0496328,house,3,1,4,"$752,000",https://www.auhouseprices.com/sold/view/ACT/341821170/17+Maidment+Place%2C+Kambah+ACT/
11,2902,Kambah,221,https://www.auhouseprices.com/sold/list/ACT/2902/Kambah/,5 Broad Place ,-35.3901100,149.0575708,house,4,3,4,,https://www.auhouseprices.com/sold/view/ACT/341534070/5+Broad+Place%2C+Kambah+ACT/
12,2902,Kambah,221,https://www.auhouseprices.com/sold/list/ACT/2902/Kambah/,5 Franks Place ,-35.3908791,149.0605738,house,3,2,2,"$770,000",https://www.auhouseprices.com/sold/view/ACT/341519970/5+Franks+Place%2C+Kambah+ACT/
13,2902,Kambah,221,https://www.auhouseprices.com/sold/list/ACT/2902/Kambah/,58 Summerland Circuit ,-35.3841370,149.0684271,house,3,1,2,"$770,000",https://www.auhouseprices.com/sold/view/ACT/341021070/58+Summerland+Circuit%2C+Kambah+ACT/
14,2902,Kambah,221,https://www.auhouseprices.com/sold/list/ACT/2902/Kambah/,2/112 Bacchus Circuit ,-35.3789010,149.0540057,duplex-semi-detached,4,2,2,"$780,000",https://www.auhouseprices.com/sold/view/ACT/341837270/2-112+Bacchus+Circuit%2C+Kambah+ACT/
15,2902,Kambah,221,https://www.auhouseprices.com/sold/list/ACT/2902/Kambah/,15 Trussell Place ,-35.4006973,149.0605154,house,4,2,2,"$1,116,500",https://www.auhouseprices.com/sold/view/ACT/341383970/15+Trussell+Place%2C+Kambah+ACT/
16,2902,Kambah,221,https://www.auhouseprices.com/sold/list/ACT/2902/Kambah/,34 Fisken Crescent ,-35.3726350,149.0413437,house,4,2,2,,https://www.auhouseprices.com/sold/view/ACT/341271870/34+Fisken+Crescent%2C+Kambah+ACT/
17,2902,Kambah,221,https://www.auhouseprices.com/sold/list/ACT/2902/Kambah/,3 Bellingham Crescent ,-35.3879225,149.0684687,house,4,1,2,"$725,000",https://www.auhouseprices.com/sold/view/ACT/341652870/3+Bellingham+Crescent%2C+Kambah+ACT/
18,2902,Kambah,221,https://www.auhouseprices.com/sold/list/ACT/2902/Kambah/,14 Horton Close ,-35.3876218,149.0880340,house,4,2,2,"$800,000",https://www.auhouseprices.com/sold/view/ACT/341447670/14+Horton+Close%2C+Kambah+ACT/
19,2902,Kambah,221,https://www.auhouseprices.com/sold/list/ACT/2902/Kambah/,6 Bethune Close ,-35.3866737,149.0523646,house,3,1,1,"$600,000",https://www.auhouseprices.com/sold/view/ACT/341891670/6+Bethune+Close%2C+Kambah+ACT/
20,2902,Kambah,221,https://www.auhouseprices.com/sold/list/ACT/2902/Kambah/,10/71 Morrison Street ,-35.3923050,149.0706566,townhouse,3,1,2,"$541,000",https://www.auhouseprices.com/sold/view/ACT/341208370/10-71+Morrison+Street%2C+Kambah+ACT/
21,2902,Kambah,221,https://www.auhouseprices.com/sold/list/ACT/2902/Kambah/,76A Learmonth Drive ,-35.3963518,149.0563727,house,4,2,2,,https://www.auhouseprices.com/sold/view/ACT/341505570/76A+Learmonth+Drive%2C+Kambah+ACT/
22,2902,Kambah,221,https://www.auhouseprices.com/sold/list/ACT/2902/Kambah/,13 Faithfull Circuit ,-35.3818699,149.0459245,house,3,1,2,"$755,000",https://www.auhouseprices.com/sold/view/ACT/341021570/13+Faithfull+Circuit%2C+Kambah+ACT/
23,2902,Kambah,221,https://www.auhouseprices.com/sold/list/ACT/2902/Kambah/,3 Rounsevell Street ,-35.3944266,149.0465169,residential land,3,1,2,,https://www.auhouseprices.com/sold/view/ACT/341381570/3+Rounsevell+Street%2C+Kambah+ACT/
24,2902,Kambah,221,https://www.auhouseprices.com/sold/list/ACT/2902/Kambah/,50 Harrington Circuit ,-35.3756823,149.0577987,house,3,1,2,,https://www.auhouseprices.com/sold/view/ACT/341049460/50+Harrington+Circuit%2C+Kambah+ACT/
25,2902,Kambah,221,https://www.auhouseprices.com/sold/list/ACT/2902/Kambah/,24 Stanfield Close ,-35.3866440,149.0509328,house,3,1,1,"$637,500",https://www.auhouseprices.com/sold/view/ACT/341704360/24+Stanfield+Close%2C+Kambah+ACT/
26,2902,Kambah,221,https://www.auhouseprices.com/sold/list/ACT/2902/Kambah/,5/35 Ashby Circuit ,-35.3970538,149.0660425,townhouse,3,2,1,"$500,000",https://www.auhouseprices.com/sold/view/ACT/341932360/5-35+Ashby+Circuit%2C+Kambah+ACT/
27,2902,Kambah,221,https://www.auhouseprices.com/sold/list/ACT/2902/Kambah/,4 Fanning Place ,-35.3701694,149.0617750,house,4,3,2,"$730,100",https://www.auhouseprices.com/sold/view/ACT/341118160/4+Fanning+Place%2C+Kambah+ACT/
28,2902,Kambah,221,https://www.auhouseprices.com/sold/list/ACT/2902/Kambah/,54 Meredith Circuit ,-35.3954607,149.0488000,house,5,3,3,"$880,000",https://www.auhouseprices.com/sold/view/ACT/341504160/54+Meredith+Circuit%2C+Kambah+ACT/
29,2902,Kambah,221,https://www.auhouseprices.com/sold/list/ACT/2902/Kambah/,20 Ivo Whitton Circuit ,-35.3943631,149.0390840,house,5,2,2,"$1,020,000",https://www.auhouseprices.com/sold/view/ACT/341246060/20+Ivo+Whitton+Circuit%2C+Kambah+ACT/
30,2902,Kambah,221,https://www.auhouseprices.com/sold/list/ACT/2902/Kambah/,15 Aitken Circuit ,-35.3785772,149.0556158,house,3,1,2,"$532,000",https://www.auhouseprices.com/sold/view/ACT/341548060/15+Aitken+Circuit%2C+Kambah+ACT/
31,2902,Kambah,221,https://www.auhouseprices.com/sold/list/ACT/2902/Kambah/,4 Harrington Circuit ,-35.3785288,149.0584544,house,3,1,2,"$509,000",https://www.auhouseprices.com/sold/view/ACT/341685060/4+Harrington+Circuit%2C+Kambah+ACT/
32,2902,Kambah,221,https://www.auhouseprices.com/sold/list/ACT/2902/Kambah/,72 Kingsmill Street ,-35.3886934,149.0734533,house,4,1,2,"$627,000",https://www.auhouseprices.com/sold/view/ACT/341088060/72+Kingsmill+Street%2C+Kambah+ACT/
33,2902,Kambah,221,https://www.auhouseprices.com/sold/list/ACT/2902/Kambah/,33 Buckley Circuit ,-35.3803771,149.0499595,house,5,2,2,"$775,000",https://www.auhouseprices.com/sold/view/ACT/341222060/33+Buckley+Circuit%2C+Kambah+ACT/
34,2902,Kambah,221,https://www.auhouseprices.com/sold/list/ACT/2902/Kambah/,54 Bosworth Circuit ,-35.3739267,149.0550135,house,5,2,2,"$1,180,000",https://www.auhouseprices.com/sold/view/ACT/341766960/54+Bosworth+Circuit%2C+Kambah+ACT/
35,2902,Kambah,221,https://www.auhouseprices.com/sold/list/ACT/2902/Kambah/,3 Lacey Place ,-35.3844843,149.0739289,house,4,2,1,"$732,000",https://www.auhouseprices.com/sold/view/ACT/341831060/3+Lacey+Place%2C+Kambah+ACT/
36,2902,Kambah,221,https://www.auhouseprices.com/sold/list/ACT/2902/Kambah/,139B Boddington Crescent ,-35.3895830,149.0539539,house,2,1,2,"$535,000",https://www.auhouseprices.com/sold/view/ACT/341385960/139B+Boddington+Crescent%2C+Kambah+ACT/
37,2902,Kambah,221,https://www.auhouseprices.com/sold/list/ACT/2902/Kambah/,4/10 Vanzetti Crescent ,-35.3921950,149.0723403,townhouse,3,1,2,"$543,000",https://www.auhouseprices.com/sold/view/ACT/341289960/4-10+Vanzetti+Crescent%2C+Kambah+ACT/
38,2902,Kambah,221,https://www.auhouseprices.com/sold/list/ACT/2902/Kambah/,2 Coglin Place ,-35.3942818,149.0724514,house,4,2,2,"$960,000",https://www.auhouseprices.com/sold/view/ACT/341608860/2+Coglin+Place%2C+Kambah+ACT/
39,2902,Kambah,221,https://www.auhouseprices.com/sold/list/ACT/2902/Kambah/,8 Darlot Place ,-35.3919657,149.0592363,house,3,2,2,,https://www.auhouseprices.com/sold/view/ACT/341318860/8+Darlot+Place%2C+Kambah+ACT/
40,2902,Kambah,221,https://www.auhouseprices.com/sold/list/ACT/2902/Kambah/,7 Kidman Close ,-35.3866529,149.0493478,house,3,1,2,"$600,000",https://www.auhouseprices.com/sold/view/ACT/341409860/7+Kidman+Close%2C+Kambah+ACT/
41,2902,Kambah,221,https://www.auhouseprices.com/sold/list/ACT/2902/Kambah/,18 Lawrence Crescent ,-35.3812929,149.0670996,house,4,3,2,"$945,000",https://www.auhouseprices.com/sold/view/ACT/341153860/18+Lawrence+Crescent%2C+Kambah+ACT/
42,2902,Kambah,221,https://www.auhouseprices.com/sold/list/ACT/2902/Kambah/,32 Drysdale Circuit ,-35.3846424,149.0466990,house,5,2,2,"$982,000",https://www.auhouseprices.com/sold/view/ACT/341033860/32+Drysdale+Circuit%2C+Kambah+ACT/
43,2902,Kambah,221,https://www.auhouseprices.com/sold/list/ACT/2902/Kambah/,5/92 Crozier Circuit ,-35.3893299,149.0443450,house,4,2,2,,https://www.auhouseprices.com/sold/view/ACT/341990860/5-92+Crozier+Circuit%2C+Kambah+ACT/
44,2902,Kambah,221,https://www.auhouseprices.com/sold/list/ACT/2902/Kambah/,48 Crozier Circuit ,-35.3897093,149.0472014,house,4,2,2,"$760,000",https://www.auhouseprices.com/sold/view/ACT/341156760/48+Crozier+Circuit%2C+Kambah+ACT/
45,2902,Kambah,221,https://www.auhouseprices.com/sold/list/ACT/2902/Kambah/,34 Vansittart Crescent ,-35.3992775,149.0634189,house,3,2,2,,https://www.auhouseprices.com/sold/view/ACT/341768660/34+Vansittart+Crescent%2C+Kambah+ACT/
46,2902,Kambah,221,https://www.auhouseprices.com/sold/list/ACT/2902/Kambah/,1/2 Conolly Place ,-35.3820523,149.0759141,house,4,2,2,"$745,000",https://www.auhouseprices.com/sold/view/ACT/341756660/1-2+Conolly+Place%2C+Kambah+ACT/
47,2902,Kambah,221,https://www.auhouseprices.com/sold/list/ACT/2902/Kambah/,10 Rundle Place ,-35.3717781,149.0610125,house,3,2,2,,https://www.auhouseprices.com/sold/view/ACT/341334660/10+Rundle+Place%2C+Kambah+ACT/
48,2902,Kambah,221,https://www.auhouseprices.com/sold/list/ACT/2902/Kambah/,41a Livingston Avenue ,-35.3878821,149.0839236,house,4,2,2,,https://www.auhouseprices.com/sold/view/ACT/341020660/41a+Livingston+Avenue%2C+Kambah+ACT/
49,2902,Kambah,221,https://www.auhouseprices.com/sold/list/ACT/2902/Kambah/,47 Ferrett Circuit ,-35.3858697,149.0524653,house,3,1,1,"$550,000",https://www.auhouseprices.com/sold/view/ACT/341917560/47+Ferrett+Circuit%2C+Kambah+ACT/
50,2902,Kambah,221,https://www.auhouseprices.com/sold/list/ACT/2902/Kambah/,74 Learmonth Drive ,-35.3965562,149.0564795,house,4,2,2,"$812,000",https://www.auhouseprices.com/sold/view/ACT/341615560/74+Learmonth+Drive%2C+Kambah+ACT/
51,2902,Kambah,221,https://www.auhouseprices.com/sold/list/ACT/2902/Kambah/,11 Yaldwyn Place ,-35.3935574,149.0557648,house,3,1,0,"$582,000",https://www.auhouseprices.com/sold/view/ACT/341922560/11+Yaldwyn+Place%2C+Kambah+ACT/
52,2902,Kambah,221,https://www.auhouseprices.com/sold/list/ACT/2902/Kambah/,11 Burges Place ,-35.3906032,149.0735352,house,3,2,2,"$656,000",https://www.auhouseprices.com/sold/view/ACT/341900450/11+Burges+Place%2C+Kambah+ACT/
53,2902,Kambah,221,https://www.auhouseprices.com/sold/list/ACT/2902/Kambah/,166 Boddington Crescent ,-35.3897091,149.0562286,house,3,1,2,"$608,000",https://www.auhouseprices.com/sold/view/ACT/341570560/166+Boddington+Crescent%2C+Kambah+ACT/
54,2902,Kambah,221,https://www.auhouseprices.com/sold/list/ACT/2902/Kambah/,19 Fimister Circuit ,-35.3887779,149.0779800,house,3,1,1,,https://www.auhouseprices.com/sold/view/ACT/341860560/19+Fimister+Circuit%2C+Kambah+ACT/
55,2902,Kambah,221,https://www.auhouseprices.com/sold/list/ACT/2902/Kambah/,14 Brimage Place ,-35.3845001,149.0672255,house,4,2,2,"$780,000",https://www.auhouseprices.com/sold/view/ACT/341972450/14+Brimage+Place%2C+Kambah+ACT/
56,2902,Kambah,221,https://www.auhouseprices.com/sold/list/ACT/2902/Kambah/,48 Oldfield Circuit ,-35.3887467,149.0813588,house,3,1,1,"$585,000",https://www.auhouseprices.com/sold/view/ACT/341521450/48+Oldfield+Circuit%2C+Kambah+ACT/
57,2902,Kambah,221,https://www.auhouseprices.com/sold/list/ACT/2902/Kambah/,5 Naismith Place Gleneagles ,-35.3935486,149.0398011,house,5,2,3,"$1,050,000",https://www.auhouseprices.com/sold/view/ACT/341809350/5+Naismith+Place+Gleneagles%2C+Kambah+ACT/
58,2902,Kambah,221,https://www.auhouseprices.com/sold/list/ACT/2902/Kambah/,8 Lyall Crescent ,-35.3772664,149.0409431,house,3,1,2,"$760,000",https://www.auhouseprices.com/sold/view/ACT/341560350/8+Lyall+Crescent%2C+Kambah+ACT/
59,2902,Kambah,221,https://www.auhouseprices.com/sold/list/ACT/2902/Kambah/,83 Ivo Whitton Circuit ,-35.3923746,149.0356541,house,5,3,3,"$1,400,100",https://www.auhouseprices.com/sold/view/ACT/341234350/83+Ivo+Whitton+Circuit%2C+Kambah+ACT/
60,2902,Kambah,221,https://www.auhouseprices.com/sold/list/ACT/2902/Kambah/,11 Kidman Close ,-35.3866289,149.0496995,house,3,1,2,"$595,000",https://www.auhouseprices.com/sold/view/ACT/341176450/11+Kidman+Close%2C+Kambah+ACT/
61,2902,Kambah,221,https://www.auhouseprices.com/sold/list/ACT/2902/Kambah/,57 Harrington Circuit ,-35.3747519,149.0584355,house,3,2,5,"$665,000",https://www.auhouseprices.com/sold/view/ACT/341369250/57+Harrington+Circuit%2C+Kambah+ACT/
62,2902,Kambah,221,https://www.auhouseprices.com/sold/list/ACT/2902/Kambah/,61 Livingston Avenue ,-35.3881905,149.0812014,house,3,2,1,"$585,000",https://www.auhouseprices.com/sold/view/ACT/341512350/61+Livingston+Avenue%2C+Kambah+ACT/
63,2902,Kambah,221,https://www.auhouseprices.com/sold/list/ACT/2902/Kambah/,12 Colquhoun Street ,-35.3722016,149.0599666,house,3,1,0,"$550,000",https://www.auhouseprices.com/sold/view/ACT/341709250/12+Colquhoun+Street%2C+Kambah+ACT/
64,2902,Kambah,221,https://www.auhouseprices.com/sold/list/ACT/2902/Kambah/,3 Tozer Place ,-35.4020262,149.0639955,house,3,1,2,"$605,000",https://www.auhouseprices.com/sold/view/ACT/341585250/3+Tozer+Place%2C+Kambah+ACT/
65,2902,Kambah,221,https://www.auhouseprices.com/sold/list/ACT/2902/Kambah/,62 Mt Vernon Drive ,-35.3897215,149.0353052,house,4,3,2,"$1,085,000",https://www.auhouseprices.com/sold/view/ACT/341055250/62+Mt+Vernon+Drive%2C+Kambah+ACT/
66,2902,Kambah,221,https://www.auhouseprices.com/sold/list/ACT/2902/Kambah/,4/49 Pinkerton Circuit ,-35.3995196,149.0658938,townhouse,3,1,1,"$482,000",https://www.auhouseprices.com/sold/view/ACT/341366350/4-49+Pinkerton+Circuit%2C+Kambah+ACT/
67,2902,Kambah,221,https://www.auhouseprices.com/sold/list/ACT/2902/Kambah/,19 Fitzalan Street ,-35.3850297,149.0804817,house,4,2,2,"$853,000",https://www.auhouseprices.com/sold/view/ACT/341547150/19+Fitzalan+Street%2C+Kambah+ACT/
68,2902,Kambah,221,https://www.auhouseprices.com/sold/list/ACT/2902/Kambah/,108 Learmonth Drive ,-35.3945444,149.0517934,house,3,2,1,"$707,000",https://www.auhouseprices.com/sold/view/ACT/341758150/108+Learmonth+Drive%2C+Kambah+ACT/
69,2902,Kambah,221,https://www.auhouseprices.com/sold/list/ACT/2902/Kambah/,55 Gallagher Street ,-35.3872859,149.0682653,house,4,2,2,"$750,000",https://www.auhouseprices.com/sold/view/ACT/341365150/55+Gallagher+Street%2C+Kambah+ACT/
70,2902,Kambah,221,https://www.auhouseprices.com/sold/list/ACT/2902/Kambah/,4 Inkster Street ,-35.3765663,149.0683218,house,5,3,3,"$970,000",https://www.auhouseprices.com/sold/view/ACT/341559150/4+Inkster+Street%2C+Kambah+ACT/
71,2902,Kambah,221,https://www.auhouseprices.com/sold/list/ACT/2902/Kambah/,7/15 Weavell Place ,-35.3879133,149.0852796,townhouse,3,2,2,"$510,000",https://www.auhouseprices.com/sold/view/ACT/341643150/7-15+Weavell+Place%2C+Kambah+ACT/
72,2902,Kambah,221,https://www.auhouseprices.com/sold/list/ACT/2902/Kambah/,10 McDowall Place ,-35.3784678,149.0683594,house,4,2,2,"$770,000",https://www.auhouseprices.com/sold/view/ACT/341722150/10+McDowall+Place%2C+Kambah+ACT/
73,2902,Kambah,221,https://www.auhouseprices.com/sold/list/ACT/2902/Kambah/,63 Summerland Circuit ,-35.3846246,149.0699586,house,4,3,2,"$661,000",https://www.auhouseprices.com/sold/view/ACT/341092150/63+Summerland+Circuit%2C+Kambah+ACT/
74,2902,Kambah,221,https://www.auhouseprices.com/sold/list/ACT/2902/Kambah/,1 Schlam Place ,-35.3857800,149.0770560,other,3,2,2,,https://www.auhouseprices.com/sold/view/ACT/341101150/1+Schlam+Place%2C+Kambah+ACT/
75,2902,Kambah,221,https://www.auhouseprices.com/sold/list/ACT/2902/Kambah/,21/69 Morrison Circuit ,-35.3931242,149.0713815,townhouse,2,1,1,"$410,000",https://www.auhouseprices.com/sold/view/ACT/341025050/21-69+Morrison+Circuit%2C+Kambah+ACT/
76,2902,Kambah,221,https://www.auhouseprices.com/sold/list/ACT/2902/Kambah/,48 Harrington Circuit ,-35.3757735,149.0577350,house,3,1,2,"$485,000",https://www.auhouseprices.com/sold/view/ACT/341795050/48+Harrington+Circuit%2C+Kambah+ACT/
77,2902,Kambah,221,https://www.auhouseprices.com/sold/list/ACT/2902/Kambah/,14 Buckley Cct ,-35.3819357,149.0505494,house,3,1,2,"$590,500",https://www.auhouseprices.com/sold/view/ACT/341948050/14+Buckley+Cct%2C+Kambah+ACT/
78,2902,Kambah,221,https://www.auhouseprices.com/sold/list/ACT/2902/Kambah/,59 Chirnside Circuit ,-35.3840784,149.0565479,house,3,1,2,"$530,000",https://www.auhouseprices.com/sold/view/ACT/341984950/59+Chirnside+Circuit%2C+Kambah+ACT/
79,2902,Kambah,221,https://www.auhouseprices.com/sold/list/ACT/2902/Kambah/,24 Dinnison Circuit ,-35.3904105,149.0478466,house,3,2,2,"$685,000",https://www.auhouseprices.com/sold/view/ACT/341955950/24+Dinnison+Circuit%2C+Kambah+ACT/
80,2902,Kambah,221,https://www.auhouseprices.com/sold/list/ACT/2902/Kambah/,60 Bissenberger Crescent ,-35.3822146,149.0706566,house,3,2,4,,https://www.auhouseprices.com/sold/view/ACT/341562950/60+Bissenberger+Crescent%2C+Kambah+ACT/
81,2902,Kambah,221,https://www.auhouseprices.com/sold/list/ACT/2902/Kambah/,66 Summerland Circuit ,-35.3845054,149.0690199,house,3,1,2,,https://www.auhouseprices.com/sold/view/ACT/341486850/66+Summerland+Circuit%2C+Kambah+ACT/
82,2902,Kambah,221,https://www.auhouseprices.com/sold/list/ACT/2902/Kambah/,31 McTaggart Crescent ,-35.3853306,149.0870723,house,3,2,2,,https://www.auhouseprices.com/sold/view/ACT/341310950/31+McTaggart+Crescent%2C+Kambah+ACT/
83,2902,Kambah,221,https://www.auhouseprices.com/sold/list/ACT/2902/Kambah/,77 O'Halloran Circuit ,-35.3954278,149.0592143,house,3,1,2,"$615,000",https://www.auhouseprices.com/sold/view/ACT/341987850/77+O%27Halloran+Circuit%2C+Kambah+ACT/
84,2902,Kambah,221,https://www.auhouseprices.com/sold/list/ACT/2902/Kambah/,4 Humble Court ,-35.3833197,149.0782252,house,5,3,3,,https://www.auhouseprices.com/sold/view/ACT/341963850/4+Humble+Court%2C+Kambah+ACT/
85,2902,Kambah,221,https://www.auhouseprices.com/sold/list/ACT/2902/Kambah/,5 Shaw Place ,-35.3801789,149.0705605,house,3,1,1,"$606,000",https://www.auhouseprices.com/sold/view/ACT/341603850/5+Shaw+Place%2C+Kambah+ACT/
86,2902,Kambah,221,https://www.auhouseprices.com/sold/list/ACT/2902/Kambah/,1/15 Vansittart Crescent ,-35.3967044,149.0643312,townhouse,2,2,2,"$510,000",https://www.auhouseprices.com/sold/view/ACT/341155850/1-15+Vansittart+Crescent%2C+Kambah+ACT/
87,2902,Kambah,221,https://www.auhouseprices.com/sold/list/ACT/2902/Kambah/,7 Menzie Place ,-35.3845859,149.0790283,house,4,4,6,"$1,100,000",https://www.auhouseprices.com/sold/view/ACT/341160850/7+Menzie+Place%2C+Kambah+ACT/
88,2902,Kambah,221,https://www.auhouseprices.com/sold/list/ACT/2902/Kambah/,29 Eagle Circuit ,-35.3840099,149.0467821,house,5,3,3,"$820,500",https://www.auhouseprices.com/sold/view/ACT/341858750/29+Eagle+Circuit%2C+Kambah+ACT/
89,2902,Kambah,221,https://www.auhouseprices.com/sold/list/ACT/2902/Kambah/,120 Marconi Cres ,-35.3807407,149.0656545,house,3,1,1,"$605,000",https://www.auhouseprices.com/sold/view/ACT/341553850/120+Marconi+Cres%2C+Kambah+ACT/
90,2902,Kambah,221,https://www.auhouseprices.com/sold/list/ACT/2902/Kambah/,11 Franks Place ,-35.3906017,149.0599282,house,3,1,1,,https://www.auhouseprices.com/sold/view/ACT/341175750/11+Franks+Place%2C+Kambah+ACT/
91,2902,Kambah,221,https://www.auhouseprices.com/sold/list/ACT/2902/Kambah/,75 Bacchus Circuit ,-35.3762322,149.0551490,house,4,2,2,,https://www.auhouseprices.com/sold/view/ACT/341998650/75+Bacchus+Circuit%2C+Kambah+ACT/
92,2902,Kambah,221,https://www.auhouseprices.com/sold/list/ACT/2902/Kambah/,2 Millar Place ,-35.3767362,149.0499156,house,4,2,2,"$785,500",https://www.auhouseprices.com/sold/view/ACT/341286650/2+Millar+Place%2C+Kambah+ACT/
93,2902,Kambah,221,https://www.auhouseprices.com/sold/list/ACT/2902/Kambah/,134 Learmonth Drive ,-35.3935070,149.0486515,house,4,2,1,"$695,000",https://www.auhouseprices.com/sold/view/ACT/341324650/134+Learmonth+Drive%2C+Kambah+ACT/
94,2902,Kambah,221,https://www.auhouseprices.com/sold/list/ACT/2902/Kambah/,21 Severne Crescent ,-35.3905690,149.0692189,house,4,2,2,"$725,000",https://www.auhouseprices.com/sold/view/ACT/341699550/21+Severne+Crescent%2C+Kambah+ACT/
95,2902,Kambah,221,https://www.auhouseprices.com/sold/list/ACT/2902/Kambah/,34 Allchin Circuit ,-35.3738650,149.0453701,house,5,2,2,"$800,000",https://www.auhouseprices.com/sold/view/ACT/341049550/34+Allchin+Circuit%2C+Kambah+ACT/
96,2902,Kambah,221,https://www.auhouseprices.com/sold/list/ACT/2902/Kambah/,42 Sinclair Street ,-35.3744762,149.0656049,house,3,2,1,"$650,000",https://www.auhouseprices.com/sold/view/ACT/341423550/42+Sinclair+Street%2C+Kambah+ACT/
97,2902,Kambah,221,https://www.auhouseprices.com/sold/list/ACT/2902/Kambah/,7 Hardy Place ,-35.3785801,149.0675917,house,4,2,4,"$500,000",https://www.auhouseprices.com/sold/view/ACT/341610550/7+Hardy+Place%2C+Kambah+ACT/
98,2902,Kambah,221,https://www.auhouseprices.com/sold/list/ACT/2902/Kambah/,30 Bellingham Crescent ,-35.3873457,149.0663514,house,4,2,2,"$750,000",https://www.auhouseprices.com/sold/view/ACT/341360440/30+Bellingham+Crescent%2C+Kambah+ACT/
99,2902,Kambah,221,https://www.auhouseprices.com/sold/list/ACT/2902/Kambah/,61 Bissenberger Crescent ,-35.3821641,149.0715029,house,4,2,2,"$780,000",https://www.auhouseprices.com/sold/view/ACT/341104550/61+Bissenberger+Crescent%2C+Kambah+ACT/
100,2902,Kambah,221,https://www.auhouseprices.com/sold/list/ACT/2902/Kambah/,7/61 Ashby Circuit ,-35.3949189,149.0648919,townhouse,3,2,2,"$582,500",https://www.auhouseprices.com/sold/view/ACT/341324440/7-61+Ashby+Circuit%2C+Kambah+ACT/
101,2902,Kambah,221,https://www.auhouseprices.com/sold/list/ACT/2902/Kambah/,3 Lyne Place ,-35.3855736,149.0550338,house,3,1,3,,https://www.auhouseprices.com/sold/view/ACT/341684440/3+Lyne+Place%2C+Kambah+ACT/
102,2902,Kambah,221,https://www.auhouseprices.com/sold/list/ACT/2902/Kambah/,45 Vansittart Crescent ,-35.3999319,149.0631053,house,3,1,4,"$635,000",https://www.auhouseprices.com/sold/view/ACT/341631440/45+Vansittart+Crescent%2C+Kambah+ACT/
103,2902,Kambah,221,https://www.auhouseprices.com/sold/list/ACT/2902/Kambah/,113 McKillop Circuit ,-35.3948559,149.0562712,house,3,1,0,"$550,000",https://www.auhouseprices.com/sold/view/ACT/341889240/113+McKillop+Circuit%2C+Kambah+ACT/
104,2902,Kambah,221,https://www.auhouseprices.com/sold/list/ACT/2902/Kambah/,15 Finnerty Place ,-35.3859307,149.0679115,house,3,1,1,"$620,000",https://www.auhouseprices.com/sold/view/ACT/341400240/15+Finnerty+Place%2C+Kambah+ACT/
105,2902,Kambah,221,https://www.auhouseprices.com/sold/list/ACT/2902/Kambah/,8B Hepburn Place ,-35.3890788,149.0502066,house,4,2,2,"$670,000",https://www.auhouseprices.com/sold/view/ACT/341891340/8B+Hepburn+Place%2C+Kambah+ACT/
106,2902,Kambah,221,https://www.auhouseprices.com/sold/list/ACT/2902/Kambah/,19 Maidment Place ,-35.3930879,149.0494446,house,3,1,2,"$565,000",https://www.auhouseprices.com/sold/view/ACT/341285240/19+Maidment+Place%2C+Kambah+ACT/
107,2902,Kambah,221,https://www.auhouseprices.com/sold/list/ACT/2902/Kambah/,19 Chirnside Circuit ,-35.3865871,149.0579877,house,3,2,2,"$655,501",https://www.auhouseprices.com/sold/view/ACT/341637240/19+Chirnside+Circuit%2C+Kambah+ACT/
108,2902,Kambah,221,https://www.auhouseprices.com/sold/list/ACT/2902/Kambah/,144 Livingston Avenue ,-35.3897118,149.0755710,house,3,1,2,"$515,000",https://www.auhouseprices.com/sold/view/ACT/341042340/144+Livingston+Avenue%2C+Kambah+ACT/
109,2902,Kambah,221,https://www.auhouseprices.com/sold/list/ACT/2902/Kambah/,5/79 Crozier Circuit ,-35.3904483,149.0440457,townhouse,3,2,1,"$560,000",https://www.auhouseprices.com/sold/view/ACT/341452340/5-79+Crozier+Circuit%2C+Kambah+ACT/
110,2902,Kambah,221,https://www.auhouseprices.com/sold/list/ACT/2902/Kambah/,53 Sinclair Street ,-35.3748626,149.0646241,house,3,2,2,"$780,000",https://www.auhouseprices.com/sold/view/ACT/341141240/53+Sinclair+Street%2C+Kambah+ACT/
111,2902,Kambah,221,https://www.auhouseprices.com/sold/list/ACT/2902/Kambah/,22 Downward Place ,-35.3884514,149.0864592,house,3,2,1,"$572,800",https://www.auhouseprices.com/sold/view/ACT/341549140/22+Downward+Place%2C+Kambah+ACT/
112,2902,Kambah,221,https://www.auhouseprices.com/sold/list/ACT/2902/Kambah/,10 Lempriere Crescent ,-35.3924000,149.0378896,house,4,2,3,,https://www.auhouseprices.com/sold/view/ACT/341281140/10+Lempriere+Crescent%2C+Kambah+ACT/
113,2902,Kambah,221,https://www.auhouseprices.com/sold/list/ACT/2902/Kambah/,23/69 Morrison Street ,-35.3931242,149.0713815,townhouse,2,1,1,"$383,000",https://www.auhouseprices.com/sold/view/ACT/341420040/23-69+Morrison+Street%2C+Kambah+ACT/
114,2902,Kambah,221,https://www.auhouseprices.com/sold/list/ACT/2902/Kambah/,21/19 Ashby Circuit ,-35.3960927,149.0670212,townhouse,2,1,1,"$387,000",https://www.auhouseprices.com/sold/view/ACT/341372140/21-19+Ashby+Circuit%2C+Kambah+ACT/
115,2902,Kambah,221,https://www.auhouseprices.com/sold/list/ACT/2902/Kambah/,1/105 Mt Vernon Drive ,-35.3922305,149.0324615,townhouse,4,2,2,,https://www.auhouseprices.com/sold/view/ACT/341900040/1-105+Mt+Vernon+Drive%2C+Kambah+ACT/
116,2902,Kambah,221,https://www.auhouseprices.com/sold/list/ACT/2902/Kambah/,34 Bullock Circuit ,-35.3842962,149.0485066,townhouse,4,2,2,"$720,000",https://www.auhouseprices.com/sold/view/ACT/341938040/34+Bullock+Circuit%2C+Kambah+ACT/
117,2902,Kambah,221,https://www.auhouseprices.com/sold/list/ACT/2902/Kambah/,4 Masters Place ,-35.3908418,149.0516446,house,4,2,2,,https://www.auhouseprices.com/sold/view/ACT/341557040/4+Masters+Place%2C+Kambah+ACT/
118,2902,Kambah,221,https://www.auhouseprices.com/sold/list/ACT/2902/Kambah/,61 Ragless Circuit ,-35.3994510,149.0611773,house,3,1,2,"$594,000",https://www.auhouseprices.com/sold/view/ACT/341322040/61+Ragless+Circuit%2C+Kambah+ACT/
119,2902,Kambah,221,https://www.auhouseprices.com/sold/list/ACT/2902/Kambah/,46/25 Pinkerton Circuit ,-35.3975359,149.0666399,townhouse,2,1,1,"$365,000",https://www.auhouseprices.com/sold/view/ACT/341808940/46-25+Pinkerton+Circuit%2C+Kambah+ACT/
120,2902,Kambah,221,https://www.auhouseprices.com/sold/list/ACT/2902/Kambah/,6 Clifton Place ,-35.3866597,149.0695593,house,4,2,2,"$680,500",https://www.auhouseprices.com/sold/view/ACT/341991940/6+Clifton+Place%2C+Kambah+ACT/
121,2902,Kambah,221,https://www.auhouseprices.com/sold/list/ACT/2902/Kambah/,42 Faithfull Circuit ,-35.3826614,149.0465609,house,4,2,2,"$788,000",https://www.auhouseprices.com/sold/view/ACT/341432940/42+Faithfull+Circuit%2C+Kambah+ACT/
122,2902,Kambah,221,https://www.auhouseprices.com/sold/list/ACT/2902/Kambah/,101 O'Halloran Circuit ,-35.3960184,149.0621138,house,3,1,2,"$622,000",https://www.auhouseprices.com/sold/view/ACT/341142940/101+O%27Halloran+Circuit%2C+Kambah+ACT/
123,2902,Kambah,221,https://www.auhouseprices.com/sold/list/ACT/2902/Kambah/,4 Schlink Place ,-35.3912533,149.0507743,house,3,2,1,"$649,000",https://www.auhouseprices.com/sold/view/ACT/341596840/4+Schlink+Place%2C+Kambah+ACT/
124,2902,Kambah,221,https://www.auhouseprices.com/sold/list/ACT/2902/Kambah/,37 Studley Street ,-35.3743245,149.0448534,house,4,2,2,,https://www.auhouseprices.com/sold/view/ACT/341862840/37+Studley+Street%2C+Kambah+ACT/
125,2902,Kambah,221,https://www.auhouseprices.com/sold/list/ACT/2902/Kambah/,9 Amherst Street ,-35.3858128,149.0637363,house,3,1,2,"$629,500",https://www.auhouseprices.com/sold/view/ACT/341030840/9+Amherst+Street%2C+Kambah+ACT/
126,2902,Kambah,221,https://www.auhouseprices.com/sold/list/ACT/2902/Kambah/,21 Winser Crescent ,-35.3957969,149.0363897,house,5,2,3,"$1,295,000",https://www.auhouseprices.com/sold/view/ACT/341318740/21+Winser+Crescent%2C+Kambah+ACT/
127,2902,Kambah,221,https://www.auhouseprices.com/sold/list/ACT/2902/Kambah/,48 Bullock Circuit ,-35.3852818,149.0483334,house,4,2,2,,https://www.auhouseprices.com/sold/view/ACT/341135040/48+Bullock+Circuit%2C+Kambah+ACT/
128,2902,Kambah,221,https://www.auhouseprices.com/sold/list/ACT/2902/Kambah/,54 Tepper Circuit ,-35.3792566,149.0527711,house,3,1,2,"$590,000",https://www.auhouseprices.com/sold/view/ACT/341033740/54+Tepper+Circuit%2C+Kambah+ACT/
129,2902,Kambah,221,https://www.auhouseprices.com/sold/list/ACT/2902/Kambah/,102 O'Halloran Circuit ,-35.3963330,149.0621659,house,3,2,4,,https://www.auhouseprices.com/sold/view/ACT/341566640/102+O%27Halloran+Circuit%2C+Kambah+ACT/
130,2902,Kambah,221,https://www.auhouseprices.com/sold/list/ACT/2902/Kambah/,45 Ferrett Circuit ,-35.3856707,149.0525043,house,3,1,0,"$561,000",https://www.auhouseprices.com/sold/view/ACT/341024640/45+Ferrett+Circuit%2C+Kambah+ACT/
131,2902,Kambah,221,https://www.auhouseprices.com/sold/list/ACT/2902/Kambah/,12 Maidment Place ,-35.3930031,149.0501911,house,3,2,3,"$740,000",https://www.auhouseprices.com/sold/view/ACT/341571640/12+Maidment+Place%2C+Kambah+ACT/
132,2902,Kambah,221,https://www.auhouseprices.com/sold/list/ACT/2902/Kambah/,2 Khull Crescent ,-35.3746161,149.0393353,house,3,1,2,"$652,000",https://www.auhouseprices.com/sold/view/ACT/341906640/2+Khull+Crescent%2C+Kambah+ACT/
133,2902,Kambah,221,https://www.auhouseprices.com/sold/list/ACT/2902/Kambah/,7/59 Pinkerton Circuit ,-35.3991855,149.0644805,townhouse,2,1,2,"$431,000",https://www.auhouseprices.com/sold/view/ACT/341135540/7-59+Pinkerton+Circuit%2C+Kambah+ACT/
134,2902,Kambah,221,https://www.auhouseprices.com/sold/list/ACT/2902/Kambah/,39 Studley Street ,-35.3741070,149.0450100,house,4,2,2,"$735,000",https://www.auhouseprices.com/sold/view/ACT/341322540/39+Studley+Street%2C+Kambah+ACT/
135,2902,Kambah,221,https://www.auhouseprices.com/sold/list/ACT/2902/Kambah/,5 Schlam Place ,-35.3854314,149.0770465,house,3,1,2,"$606,500",https://www.auhouseprices.com/sold/view/ACT/341931540/5+Schlam+Place%2C+Kambah+ACT/
136,2902,Kambah,221,https://www.auhouseprices.com/sold/list/ACT/2902/Kambah/,30 McConnel Crescent ,-35.3812343,149.0731523,house,3,1,0,,https://www.auhouseprices.com/sold/view/ACT/341197529/30+McConnel+Crescent%2C+Kambah+ACT/
137,2902,Kambah,221,https://www.auhouseprices.com/sold/list/ACT/2902/Kambah/,54 McKillop Circuit ,-35.3917524,149.0521741,house,3,1,1,"$554,000",https://www.auhouseprices.com/sold/view/ACT/341815529/54+McKillop+Circuit%2C+Kambah+ACT/
138,2902,Kambah,221,https://www.auhouseprices.com/sold/list/ACT/2902/Kambah/,16 Lawrence Crescent ,-35.3813881,149.0668048,house,4,2,2,,https://www.auhouseprices.com/sold/view/ACT/341794529/16+Lawrence+Crescent%2C+Kambah+ACT/
139,2902,Kambah,221,https://www.auhouseprices.com/sold/list/ACT/2902/Kambah/,6 Khull Crescent ,-35.3750824,149.0400185,house,3,1,0,"$574,000",https://www.auhouseprices.com/sold/view/ACT/341281529/6+Khull+Crescent%2C+Kambah+ACT/
140,2902,Kambah,221,https://www.auhouseprices.com/sold/list/ACT/2902/Kambah/,16 Morant Circuit ,-35.3800966,149.0489618,house,4,2,2,,https://www.auhouseprices.com/sold/view/ACT/341317429/16+Morant+Circuit%2C+Kambah+ACT/
141,2902,Kambah,221,https://www.auhouseprices.com/sold/list/ACT/2902/Kambah/,37 Bullock Circuit ,-35.3859147,149.0487567,house,3,1,4,"$600,000",https://www.auhouseprices.com/sold/view/ACT/341425429/37+Bullock+Circuit%2C+Kambah+ACT/
142,2902,Kambah,221,https://www.auhouseprices.com/sold/list/ACT/2902/Kambah/,21 Bolger Place ,-35.3936662,149.0360388,house,4,2,2,"$1,100,000",https://www.auhouseprices.com/sold/view/ACT/341694429/21+Bolger+Place%2C+Kambah+ACT/
143,2902,Kambah,221,https://www.auhouseprices.com/sold/list/ACT/2902/Kambah/,78 Ragless Circuit ,-35.4000740,149.0616446,house,4,2,2,"$851,000",https://www.auhouseprices.com/sold/view/ACT/341392429/78+Ragless+Circuit%2C+Kambah+ACT/
144,2902,Kambah,221,https://www.auhouseprices.com/sold/list/ACT/2902/Kambah/,3 Everard Place ,-35.3887490,149.0533199,house,4,1,2,"$720,000",https://www.auhouseprices.com/sold/view/ACT/341562429/3+Everard+Place%2C+Kambah+ACT/
145,2902,Kambah,221,https://www.auhouseprices.com/sold/list/ACT/2902/Kambah/,6/92 Crozier Circuit ,-35.3893299,149.0443450,townhouse,4,2,2,"$670,000",https://www.auhouseprices.com/sold/view/ACT/341351429/6-92+Crozier+Circuit%2C+Kambah+ACT/
146,2902,Kambah,221,https://www.auhouseprices.com/sold/list/ACT/2902/Kambah/,16 Ivo Whitton Circuit ,-35.3938063,149.0389598,house,4,2,2,"$875,000",https://www.auhouseprices.com/sold/view/ACT/341366329/16+Ivo+Whitton+Circuit%2C+Kambah+ACT/
147,2902,Kambah,221,https://www.auhouseprices.com/sold/list/ACT/2902/Kambah/,15 Ferrett Circuit ,-35.3841820,149.0515199,house,4,2,4,"$705,000",https://www.auhouseprices.com/sold/view/ACT/341378329/15+Ferrett+Circuit%2C+Kambah+ACT/
148,2902,Kambah,221,https://www.auhouseprices.com/sold/list/ACT/2902/Kambah/,8/59 Pinkerton Circuit ,-35.3991855,149.0644805,townhouse,3,1,1,"$445,000",https://www.auhouseprices.com/sold/view/ACT/341541329/8-59+Pinkerton+Circuit%2C+Kambah+ACT/
149,2902,Kambah,221,https://www.auhouseprices.com/sold/list/ACT/2902/Kambah/,65 Karney Place ,-35.3865097,149.0572372,house,3,1,2,"$570,000",https://www.auhouseprices.com/sold/view/ACT/341179329/65+Karney+Place%2C+Kambah+ACT/
150,2902,Kambah,221,https://www.auhouseprices.com/sold/list/ACT/2902/Kambah/,54/85 Crozier Circuit ,-35.3882543,149.0450454,townhouse,2,1,1,"$545,000",https://www.auhouseprices.com/sold/view/ACT/341834229/54-85+Crozier+Circuit%2C+Kambah+ACT/
151,2902,Kambah,221,https://www.auhouseprices.com/sold/list/ACT/2902/Kambah/,36 Dinnison Circuit ,-35.3911447,149.0481404,house,4,2,2,"$618,000",https://www.auhouseprices.com/sold/view/ACT/341254229/36+Dinnison+Circuit%2C+Kambah+ACT/
152,2902,Kambah,221,https://www.auhouseprices.com/sold/list/ACT/2902/Kambah/,74 Lee-Steere Crescent ,-35.3846429,149.0757426,house,3,1,2,"$585,000",https://www.auhouseprices.com/sold/view/ACT/341362229/74+Lee-Steere+Crescent%2C+Kambah+ACT/
153,2902,Kambah,221,https://www.auhouseprices.com/sold/list/ACT/2902/Kambah/,9 Brimage Place ,-35.3841509,149.0670844,house,4,2,3,"$700,000",https://www.auhouseprices.com/sold/view/ACT/341729129/9+Brimage+Place%2C+Kambah+ACT/
154,2902,Kambah,221,https://www.auhouseprices.com/sold/list/ACT/2902/Kambah/,2 Crouch Place ,-35.3920296,149.0560123,house,4,2,3,"$691,000",https://www.auhouseprices.com/sold/view/ACT/341415129/2+Crouch+Place%2C+Kambah+ACT/
155,2902,Kambah,221,https://www.auhouseprices.com/sold/list/ACT/2902/Kambah/,9 Buckley Circuit ,-35.3809432,149.0506013,house,4,1,1,"$635,000",https://www.auhouseprices.com/sold/view/ACT/341879329/9+Buckley+Circuit%2C+Kambah+ACT/
156,2902,Kambah,221,https://www.auhouseprices.com/sold/list/ACT/2902/Kambah/,15 Meredith Circuit ,-35.3950712,149.0457185,house,4,2,2,"$789,000",https://www.auhouseprices.com/sold/view/ACT/341262129/15+Meredith+Circuit%2C+Kambah+ACT/
157,2902,Kambah,221,https://www.auhouseprices.com/sold/list/ACT/2902/Kambah/,82 Allchin Circuit ,-35.3741259,149.0390038,house,4,2,2,"$810,000",https://www.auhouseprices.com/sold/view/ACT/341207029/82+Allchin+Circuit%2C+Kambah+ACT/
158,2902,Kambah,221,https://www.auhouseprices.com/sold/list/ACT/2902/Kambah/,58B Bissenberger Crescent ,-35.3823183,149.0703950,house,3,2,2,"$737,000",https://www.auhouseprices.com/sold/view/ACT/341624929/58B+Bissenberger+Crescent%2C+Kambah+ACT/
159,2902,Kambah,221,https://www.auhouseprices.com/sold/list/ACT/2902/Kambah/,24 Allchin Circuit ,-35.3745307,149.0465206,house,3,2,4,"$650,000",https://www.auhouseprices.com/sold/view/ACT/341574929/24+Allchin+Circuit%2C+Kambah+ACT/
160,2902,Kambah,221,https://www.auhouseprices.com/sold/list/ACT/2902/Kambah/,14 Carleton Street ,-35.3820000,149.0494800,house,3,1,0,"$496,000",https://www.auhouseprices.com/sold/view/ACT/341519829/14+Carleton+Street%2C+Kambah+ACT/
161,2902,Kambah,221,https://www.auhouseprices.com/sold/list/ACT/2902/Kambah/,118B Bacchus Circuit ,-35.3793810,149.0537308,house,4,2,2,"$675,000",https://www.auhouseprices.com/sold/view/ACT/341428829/118B+Bacchus+Circuit%2C+Kambah+ACT/
162,2902,Kambah,221,https://www.auhouseprices.com/sold/list/ACT/2902/Kambah/,15 Mannheim Street ,-35.3814646,149.0749634,house,4,2,4,"$715,000",https://www.auhouseprices.com/sold/view/ACT/341413429/15+Mannheim+Street%2C+Kambah+ACT/
163,2902,Kambah,221,https://www.auhouseprices.com/sold/list/ACT/2902/Kambah/,33 Lawrence Crescent ,-35.3810694,149.0669948,house,3,2,2,"$705,000",https://www.auhouseprices.com/sold/view/ACT/341023829/33+Lawrence+Crescent%2C+Kambah+ACT/
164,2902,Kambah,221,https://www.auhouseprices.com/sold/list/ACT/2902/Kambah/,51 Summerland Circuit ,-35.3839169,149.0686416,house,4,3,3,"$760,000",https://www.auhouseprices.com/sold/view/ACT/341081829/51+Summerland+Circuit%2C+Kambah+ACT/
165,2902,Kambah,221,https://www.auhouseprices.com/sold/list/ACT/2902/Kambah/,4/35 Ashby Circuit ,-35.3970980,149.0656180,townhouse,3,2,1,"$420,000",https://www.auhouseprices.com/sold/view/ACT/341792129/4-35+Ashby+Circuit%2C+Kambah+ACT/
166,2902,Kambah,221,https://www.auhouseprices.com/sold/list/ACT/2902/Kambah/,6 Foord Place ,-35.3780266,149.0588269,house,3,1,2,,https://www.auhouseprices.com/sold/view/ACT/341278229/6+Foord+Place%2C+Kambah+ACT/
167,2902,Kambah,221,https://www.auhouseprices.com/sold/list/ACT/2902/Kambah/,2 Forrest Place ,-35.3896381,149.0709345,house,4,2,2,"$820,000",https://www.auhouseprices.com/sold/view/ACT/341676729/2+Forrest+Place%2C+Kambah+ACT/
168,2902,Kambah,221,https://www.auhouseprices.com/sold/list/ACT/2902/Kambah/,2 Crozier Circuit ,-35.3879892,149.0502843,house,5,3,4,"$890,000",https://www.auhouseprices.com/sold/view/ACT/341805729/2+Crozier+Circuit%2C+Kambah+ACT/
169,2902,Kambah,221,https://www.auhouseprices.com/sold/list/ACT/2902/Kambah/,8 Seymour Place ,-35.3946181,149.0596451,house,3,1,6,"$570,000",https://www.auhouseprices.com/sold/view/ACT/341213729/8+Seymour+Place%2C+Kambah+ACT/
170,2902,Kambah,221,https://www.auhouseprices.com/sold/list/ACT/2902/Kambah/,1/37 Wyselaskie Circuit ,-35.3803538,149.0619476,townhouse,3,1,1,,https://www.auhouseprices.com/sold/view/ACT/341291129/1-37+Wyselaskie+Circuit%2C+Kambah+ACT/
171,2902,Kambah,221,https://www.auhouseprices.com/sold/list/ACT/2902/Kambah/,1 Beilby Place ,-35.3709264,149.0596811,house,6,3,4,"$865,000",https://www.auhouseprices.com/sold/view/ACT/341901729/1+Beilby+Place%2C+Kambah+ACT/
172,2902,Kambah,221,https://www.auhouseprices.com/sold/list/ACT/2902/Kambah/,108 McKillop Circuit ,-35.3943353,149.0545515,house,3,2,2,,https://www.auhouseprices.com/sold/view/ACT/341391729/108+McKillop+Circuit%2C+Kambah+ACT/
173,2902,Kambah,221,https://www.auhouseprices.com/sold/list/ACT/2902/Kambah/,9 McKenzie Street ,-35.3854749,149.0629351,house,4,2,2,"$635,000",https://www.auhouseprices.com/sold/view/ACT/341216629/9+McKenzie+Street%2C+Kambah+ACT/
174,2902,Kambah,221,https://www.auhouseprices.com/sold/list/ACT/2902/Kambah/,1 Toole Place ,-35.3969949,149.0592982,house,3,1,0,"$500,000",https://www.auhouseprices.com/sold/view/ACT/341729629/1+Toole+Place%2C+Kambah+ACT/
175,2902,Kambah,221,https://www.auhouseprices.com/sold/list/ACT/2902/Kambah/,18 Drysdale Circuit ,-35.3849864,149.0476764,house,4,2,2,"$745,000",https://www.auhouseprices.com/sold/view/ACT/341779519/18+Drysdale+Circuit%2C+Kambah+ACT/
176,2902,Kambah,221,https://www.auhouseprices.com/sold/list/ACT/2902/Kambah/,16 Inkster Street ,-35.3768716,149.0668107,house,3,2,2,"$650,000",https://www.auhouseprices.com/sold/view/ACT/341966519/16+Inkster+Street%2C+Kambah+ACT/
177,2902,Kambah,221,https://www.auhouseprices.com/sold/list/ACT/2902/Kambah/,16 Inkster Street ,-35.3768716,149.0668107,house,3,2,2,"$650,000",https://www.auhouseprices.com/sold/view/ACT/341254519/16+Inkster+Street%2C+Kambah+ACT/
178,2902,Kambah,221,https://www.auhouseprices.com/sold/list/ACT/2902/Kambah/,19 Khull Crescent ,-35.3760688,149.0403295,house,3,2,2,"$783,500",https://www.auhouseprices.com/sold/view/ACT/341763629/19+Khull+Crescent%2C+Kambah+ACT/
179,2902,Kambah,221,https://www.auhouseprices.com/sold/list/ACT/2902/Kambah/,20 Finnerty Place ,-35.3858888,149.0682516,house,3,1,1,"$605,000",https://www.auhouseprices.com/sold/view/ACT/341702519/20+Finnerty+Place%2C+Kambah+ACT/
180,2902,Kambah,221,https://www.auhouseprices.com/sold/list/ACT/2902/Kambah/,37/85 Crozier Circuit ,-35.3882543,149.0450454,house,3,2,1,"$685,000",https://www.auhouseprices.com/sold/view/ACT/341851519/37-85+Crozier+Circuit%2C+Kambah+ACT/
181,2902,Kambah,221,https://www.auhouseprices.com/sold/list/ACT/2902/Kambah/,14 Jarman Place ,-35.3787300,149.0697600,house,3,2,2,"$712,500",https://www.auhouseprices.com/sold/view/ACT/341667419/14+Jarman+Place%2C+Kambah+ACT/
182,2902,Kambah,221,https://www.auhouseprices.com/sold/list/ACT/2902/Kambah/,43 Mannheim Street ,-35.3834938,149.0728138,house,3,3,5,"$725,000",https://www.auhouseprices.com/sold/view/ACT/341609419/43+Mannheim+Street%2C+Kambah+ACT/
183,2902,Kambah,221,https://www.auhouseprices.com/sold/list/ACT/2902/Kambah/,16 Downward Place ,-35.3880666,149.0862952,house,3,2,1,"$570,000",https://www.auhouseprices.com/sold/view/ACT/341576419/16+Downward+Place%2C+Kambah+ACT/
184,2902,Kambah,221,https://www.auhouseprices.com/sold/list/ACT/2902/Kambah/,22 Crozier Circuit ,-35.3881674,149.0488137,house,4,1,2,"$675,000",https://www.auhouseprices.com/sold/view/ACT/341195419/22+Crozier+Circuit%2C+Kambah+ACT/
185,2902,Kambah,221,https://www.auhouseprices.com/sold/list/ACT/2902/Kambah/,65 Mt Vernon Drive ,-35.3897590,149.0362860,house,5,2,2,"$1,100,000",https://www.auhouseprices.com/sold/view/ACT/341488319/65+Mt+Vernon+Drive%2C+Kambah+ACT/
186,2902,Kambah,221,https://www.auhouseprices.com/sold/list/ACT/2902/Kambah/,4/15 Wyselaskie Circuit ,-35.3776929,149.0620350,townhouse,3,1,2,"$532,000",https://www.auhouseprices.com/sold/view/ACT/341324419/4-15+Wyselaskie+Circuit%2C+Kambah+ACT/
187,2902,Kambah,221,https://www.auhouseprices.com/sold/list/ACT/2902/Kambah/,138 Livingston Avenue ,-35.3898953,149.0759060,house,3,1,2,"$473,000",https://www.auhouseprices.com/sold/view/ACT/341104319/138+Livingston+Avenue%2C+Kambah+ACT/
188,2902,Kambah,221,https://www.auhouseprices.com/sold/list/ACT/2902/Kambah/,33 Bellingham Crescent ,-35.3869761,149.0663529,house,4,3,2,"$855,000",https://www.auhouseprices.com/sold/view/ACT/341071319/33+Bellingham+Crescent%2C+Kambah+ACT/
189,2902,Kambah,221,https://www.auhouseprices.com/sold/list/ACT/2902/Kambah/,13 Coglin Place ,-35.3933185,149.0729002,house,3,2,2,"$705,000",https://www.auhouseprices.com/sold/view/ACT/341625219/13+Coglin+Place%2C+Kambah+ACT/
190,2902,Kambah,221,https://www.auhouseprices.com/sold/list/ACT/2902/Kambah/,13 Morrison Street ,-35.3945490,149.0736913,house,3,1,1,"$560,000",https://www.auhouseprices.com/sold/view/ACT/341717419/13+Morrison+Street%2C+Kambah+ACT/
191,2902,Kambah,221,https://www.auhouseprices.com/sold/list/ACT/2902/Kambah/,8 Severne Crescent ,-35.3906033,149.0703757,house,4,2,2,"$675,000",https://www.auhouseprices.com/sold/view/ACT/341590119/8+Severne+Crescent%2C+Kambah+ACT/
192,2902,Kambah,221,https://www.auhouseprices.com/sold/list/ACT/2902/Kambah/,3 Deuchar Close ,-35.3862150,149.0902300,house,5,3,1,"$825,000",https://www.auhouseprices.com/sold/view/ACT/341077119/3+Deuchar+Close%2C+Kambah+ACT/
193,2902,Kambah,221,https://www.auhouseprices.com/sold/list/ACT/2902/Kambah/,113 Livingston Avenue ,-35.3900700,149.0756000,house,3,1,3,"$650,500",https://www.auhouseprices.com/sold/view/ACT/341777119/113+Livingston+Avenue%2C+Kambah+ACT/
194,2902,Kambah,221,https://www.auhouseprices.com/sold/list/ACT/2902/Kambah/,81/25 Pinkerton Circuit ,-35.3975359,149.0666399,unit,2,1,1,"$329,000",https://www.auhouseprices.com/sold/view/ACT/341794119/81-25+Pinkerton+Circuit%2C+Kambah+ACT/
195,2902,Kambah,221,https://www.auhouseprices.com/sold/list/ACT/2902/Kambah/,8/61 Ashby Circuit ,-35.3949189,149.0648919,townhouse,3,2,2,"$495,000",https://www.auhouseprices.com/sold/view/ACT/341906119/8-61+Ashby+Circuit%2C+Kambah+ACT/
196,2902,Kambah,221,https://www.auhouseprices.com/sold/list/ACT/2902/Kambah/,108 Mt Vernon Drive ,-35.3908783,149.0319215,house,5,2,2,"$1,050,000",https://www.auhouseprices.com/sold/view/ACT/341302119/108+Mt+Vernon+Drive%2C+Kambah+ACT/
197,2902,Kambah,221,https://www.auhouseprices.com/sold/list/ACT/2902/Kambah/,4 Finnerty Place ,-35.3871365,149.0675129,house,3,2,2,"$635,000",https://www.auhouseprices.com/sold/view/ACT/341188019/4+Finnerty+Place%2C+Kambah+ACT/
198,2902,Kambah,221,https://www.auhouseprices.com/sold/list/ACT/2902/Kambah/,114 Marconi Crescent ,-35.3800906,149.0657412,house,3,2,2,"$575,000",https://www.auhouseprices.com/sold/view/ACT/341097019/114+Marconi+Crescent%2C+Kambah+ACT/
199,2902,Kambah,221,https://www.auhouseprices.com/sold/list/ACT/2902/Kambah/,2 Dale Circuit ,-35.3977400,149.0622600,house,3,1,1,"$590,000",https://www.auhouseprices.com/sold/view/ACT/341729919/2+Dale+Circuit%2C+Kambah+ACT/
200,2902,Kambah,221,https://www.auhouseprices.com/sold/list/ACT/2902/Kambah/,7 Braund Place ,-35.3923823,149.0506488,house,4,1,1,"$585,000",https://www.auhouseprices.com/sold/view/ACT/341801919/7+Braund+Place%2C+Kambah+ACT/
201,2902,Kambah,221,https://www.auhouseprices.com/sold/list/ACT/2902/Kambah/,33 Bullock Circuit ,-35.3855735,149.0486710,house,3,1,1,"$580,000",https://www.auhouseprices.com/sold/view/ACT/341377919/33+Bullock+Circuit%2C+Kambah+ACT/
202,2902,Kambah,221,https://www.auhouseprices.com/sold/list/ACT/2902/Kambah/,3 Gall Place ,-35.3914323,149.0503164,house,4,2,1,"$626,000",https://www.auhouseprices.com/sold/view/ACT/341555819/3+Gall+Place%2C+Kambah+ACT/
203,2902,Kambah,221,https://www.auhouseprices.com/sold/list/ACT/2902/Kambah/,17 Desailly Crescent ,-35.3840830,149.0867900,house,4,2,2,"$745,000",https://www.auhouseprices.com/sold/view/ACT/341596819/17+Desailly+Crescent%2C+Kambah+ACT/
204,2902,Kambah,221,https://www.auhouseprices.com/sold/list/ACT/2902/Kambah/,9 Wardell Place ,-35.3926703,149.0770450,house,3,1,3,"$530,000",https://www.auhouseprices.com/sold/view/ACT/341001819/9+Wardell+Place%2C+Kambah+ACT/
205,2902,Kambah,221,https://www.auhouseprices.com/sold/list/ACT/2902/Kambah/,9 Cutbush Street ,-35.3897739,149.0803394,house,3,1,4,"$587,000",https://www.auhouseprices.com/sold/view/ACT/341678719/9+Cutbush+Street%2C+Kambah+ACT/
206,2902,Kambah,221,https://www.auhouseprices.com/sold/list/ACT/2902/Kambah/,24 Shipard Place ,-35.3794946,149.0689359,house,5,3,2,"$665,000",https://www.auhouseprices.com/sold/view/ACT/341848719/24+Shipard+Place%2C+Kambah+ACT/
207,2902,Kambah,221,https://www.auhouseprices.com/sold/list/ACT/2902/Kambah/,17 Fimister Circuit ,-35.3891178,149.0781318,house,3,1,6,"$595,000",https://www.auhouseprices.com/sold/view/ACT/341028719/17+Fimister+Circuit%2C+Kambah+ACT/
208,2902,Kambah,221,https://www.auhouseprices.com/sold/list/ACT/2902/Kambah/,19 Barritt Street ,-35.3787359,149.0502223,house,5,3,2,"$820,000",https://www.auhouseprices.com/sold/view/ACT/341836719/19+Barritt+Street%2C+Kambah+ACT/
209,2902,Kambah,221,https://www.auhouseprices.com/sold/list/ACT/2902/Kambah/,3/91 Morrison Street ,-35.3912156,149.0721515,townhouse,3,1,2,"$472,000",https://www.auhouseprices.com/sold/view/ACT/341529719/3-91+Morrison+Street%2C+Kambah+ACT/
210,2902,Kambah,221,https://www.auhouseprices.com/sold/list/ACT/2902/Kambah/,34/19 Ashby Circuit ,-35.3960927,149.0670212,townhouse,3,1,1,"$465,000",https://www.auhouseprices.com/sold/view/ACT/341798509/34-19+Ashby+Circuit%2C+Kambah+ACT/
211,2902,Kambah,221,https://www.auhouseprices.com/sold/list/ACT/2902/Kambah/,17 Stieglitz Circuit ,-35.4019881,149.0630586,house,4,2,2,"$875,000",https://www.auhouseprices.com/sold/view/ACT/341450509/17+Stieglitz+Circuit%2C+Kambah+ACT/
212,2902,Kambah,221,https://www.auhouseprices.com/sold/list/ACT/2902/Kambah/,1/49 Pinkerton Circuit 'Lakeland Court' ,-35.3995196,149.0658938,townhouse,3,1,1,"$434,750",https://www.auhouseprices.com/sold/view/ACT/341335509/1-49+Pinkerton+Circuit+%27Lakeland+Court%27%2C+Kambah+ACT/
213,2902,Kambah,221,https://www.auhouseprices.com/sold/list/ACT/2902/Kambah/,5 Finnerty Place ,-35.3867932,149.0675592,house,4,2,1,"$635,000",https://www.auhouseprices.com/sold/view/ACT/341786509/5+Finnerty+Place%2C+Kambah+ACT/
214,2902,Kambah,221,https://www.auhouseprices.com/sold/list/ACT/2902/Kambah/,19 Drysdale Circuit ,-35.3852384,149.0466370,house,4,2,1,"$720,000",https://www.auhouseprices.com/sold/view/ACT/341578409/19+Drysdale+Circuit%2C+Kambah+ACT/
215,2902,Kambah,221,https://www.auhouseprices.com/sold/list/ACT/2902/Kambah/,133 Learmonth Drive ,-35.3938022,149.0482516,house,3,2,3,"$651,000",https://www.auhouseprices.com/sold/view/ACT/341247619/133+Learmonth+Drive%2C+Kambah+ACT/
216,2902,Kambah,221,https://www.auhouseprices.com/sold/list/ACT/2902/Kambah/,7 Whistler Place ,-35.3968102,149.0627285,house,4,1,2,"$580,000",https://www.auhouseprices.com/sold/view/ACT/341405409/7+Whistler+Place%2C+Kambah+ACT/
217,2902,Kambah,221,https://www.auhouseprices.com/sold/list/ACT/2902/Kambah/,3/10 Ashby Cir ,-35.3956484,149.0657238,townhouse,3,1,2,"$430,000",https://www.auhouseprices.com/sold/view/ACT/341113009/3-10+Ashby+Cir%2C+Kambah+ACT/
218,2902,Kambah,221,https://www.auhouseprices.com/sold/list/ACT/2902/Kambah/,14 Bethune Close ,-35.3866384,149.0517913,house,2,1,1,"$450,000",https://www.auhouseprices.com/sold/view/ACT/341473009/14+Bethune+Close%2C+Kambah+ACT/
219,2902,Kambah,221,https://www.auhouseprices.com/sold/list/ACT/2902/Kambah/,75 Allchin Circuit ,-35.3752909,149.0394184,house,5,3,4,"$925,000",https://www.auhouseprices.com/sold/view/ACT/341593009/75+Allchin+Circuit%2C+Kambah+ACT/
220,2902,Kambah,221,https://www.auhouseprices.com/sold/list/ACT/2902/Kambah/,7 McCullock Place ,-35.3860481,149.0668467,house,3,1,3,"$602,000",https://www.auhouseprices.com/sold/view/ACT/341564009/7+McCullock+Place%2C+Kambah+ACT/
221,2902,Kambah,221,https://www.auhouseprices.com/sold/list/ACT/2902/Kambah/,6 Hector Place ,-35.3829962,149.0639728,house,3,1,2,"$580,000",https://www.auhouseprices.com/sold/view/ACT/341274009/6+Hector+Place%2C+Kambah+ACT/
222,2902,Kambah,221,https://www.auhouseprices.com/sold/list/ACT/2902/Kambah/,4 Griffith Place ,-35.3851835,149.0689051,house,3,1,2,"$551,000",https://www.auhouseprices.com/sold/view/ACT/341394009/4+Griffith+Place%2C+Kambah+ACT/
223,2902,Kambah,221,https://www.auhouseprices.com/sold/list/ACT/2902/Kambah/,3 Axford Place ,-35.3945231,149.0604573,house,3,1,3,"$566,000",https://www.auhouseprices.com/sold/view/ACT/341216009/3+Axford+Place%2C+Kambah+ACT/
224,2902,Kambah,221,https://www.auhouseprices.com/sold/list/ACT/2902/Kambah/,1/36 Gallagher Street ,-35.3863572,149.0645868,house,4,2,2,"$760,000",https://www.auhouseprices.com/sold/view/ACT/341286009/1-36+Gallagher+Street%2C+Kambah+ACT/
225,2902,Kambah,221,https://www.auhouseprices.com/sold/list/ACT/2902/Kambah/,12 Haskett Place ,-35.3758798,149.0631311,house,3,1,1,"$555,000",https://www.auhouseprices.com/sold/view/ACT/341547009/12+Haskett+Place%2C+Kambah+ACT/
226,2902,Kambah,221,https://www.auhouseprices.com/sold/list/ACT/2902/Kambah/,9/73 Morrison Steet ,-35.3918074,149.0708923,townhouse,2,1,2,"$355,000",https://www.auhouseprices.com/sold/view/ACT/341441109/9-73++Morrison+Steet%2C+Kambah+ACT/
227,2902,Kambah,221,https://www.auhouseprices.com/sold/list/ACT/2902/Kambah/,65 Learmonth Drive ,-35.3973591,149.0564449,house,4,2,2,"$870,000",https://www.auhouseprices.com/sold/view/ACT/341412109/65+Learmonth+Drive%2C+Kambah+ACT/
228,2902,Kambah,221,https://www.auhouseprices.com/sold/list/ACT/2902/Kambah/,28 Bellingham Crescent ,-35.3874925,149.0662010,house,4,2,2,"$680,000",https://www.auhouseprices.com/sold/view/ACT/341254109/28+Bellingham+Crescent%2C+Kambah+ACT/
229,2902,Kambah,221,https://www.auhouseprices.com/sold/list/ACT/2902/Kambah/,26 Vanzetti Crescent ,-35.3929450,149.0736502,house,3,1,2,"$485,000",https://www.auhouseprices.com/sold/view/ACT/341105109/26+Vanzetti+Crescent%2C+Kambah+ACT/
230,2902,Kambah,221,https://www.auhouseprices.com/sold/list/ACT/2902/Kambah/,13 Ferrett Circuit ,-35.3843539,149.0514802,house,4,2,3,"$715,000",https://www.auhouseprices.com/sold/view/ACT/341386109/13+Ferrett+Circuit%2C+Kambah+ACT/
231,2902,Kambah,221,https://www.auhouseprices.com/sold/list/ACT/2902/Kambah/,35 Livingston Avenue ,-35.3879124,149.0847830,house,3,1,4,"$585,000",https://www.auhouseprices.com/sold/view/ACT/341038109/35+Livingston+Avenue%2C+Kambah+ACT/
232,2902,Kambah,221,https://www.auhouseprices.com/sold/list/ACT/2902/Kambah/,98 Livingston Avenue ,-35.3892340,149.0792357,house,3,1,2,"$426,000",https://www.auhouseprices.com/sold/view/ACT/341065909/98+Livingston+Avenue%2C+Kambah+ACT/
233,2902,Kambah,221,https://www.auhouseprices.com/sold/list/ACT/2902/Kambah/,64 Allchin Circuit ,-35.3731330,149.0413070,house,4,2,2,"$695,000",https://www.auhouseprices.com/sold/view/ACT/341873909/64+Allchin+Circuit%2C+Kambah+ACT/
234,2902,Kambah,221,https://www.auhouseprices.com/sold/list/ACT/2902/Kambah/,18/15 Wyselaskie Circuit ,-35.3776929,149.0620350,townhouse,3,2,2,"$601,000",https://www.auhouseprices.com/sold/view/ACT/341727809/18-15+Wyselaskie+Circuit%2C+Kambah+ACT/
235,2902,Kambah,221,https://www.auhouseprices.com/sold/list/ACT/2902/Kambah/,76 Sinclair Street ,-35.3748617,149.0641508,house,3,1,3,"$603,250",https://www.auhouseprices.com/sold/view/ACT/341661209/76+Sinclair+Street%2C+Kambah+ACT/
236,2902,Kambah,221,https://www.auhouseprices.com/sold/list/ACT/2902/Kambah/,18 Bethune Close ,-35.3868960,149.0520180,house,2,1,0,"$417,000",https://www.auhouseprices.com/sold/view/ACT/341491209/18+Bethune+Close%2C+Kambah+ACT/
237,2902,Kambah,221,https://www.auhouseprices.com/sold/list/ACT/2902/Kambah/,14 Gleeson Place ,-35.3910834,149.0596983,house,4,2,2,"$635,000",https://www.auhouseprices.com/sold/view/ACT/341179709/14+Gleeson+Place%2C+Kambah+ACT/
238,2902,Kambah,221,https://www.auhouseprices.com/sold/list/ACT/2902/Kambah/,138 Marconi Crescent ,-35.3827081,149.0650002,house,4,1,1,"$565,000",https://www.auhouseprices.com/sold/view/ACT/341462209/138+Marconi+Crescent%2C+Kambah+ACT/
239,2902,Kambah,221,https://www.auhouseprices.com/sold/list/ACT/2902/Kambah/,68 Tepper Circuit ,-35.3781850,149.0527000,house,3,1,0,"$515,000",https://www.auhouseprices.com/sold/view/ACT/341908609/68+Tepper+Circuit%2C+Kambah+ACT/
240,2902,Kambah,221,https://www.auhouseprices.com/sold/list/ACT/2902/Kambah/,17 Karney Street ,-35.3883860,149.0576200,house,4,2,2,"$657,500",https://www.auhouseprices.com/sold/view/ACT/341278609/17+Karney+Street%2C+Kambah+ACT/
241,2902,Kambah,221,https://www.auhouseprices.com/sold/list/ACT/2902/Kambah/,37 Crozier Circuit ,-35.3906586,149.0470382,house,3,1,2,"$500,000",https://www.auhouseprices.com/sold/view/ACT/341779609/37+Crozier+Circuit%2C+Kambah+ACT/
242,2902,Kambah,221,https://www.auhouseprices.com/sold/list/ACT/2902/Kambah/,9 Braund Place ,-35.3923498,149.0504388,house,3,2,2,"$615,000",https://www.auhouseprices.com/sold/view/ACT/341175609/9+Braund+Place%2C+Kambah+ACT/
243,2902,Kambah,221,https://www.auhouseprices.com/sold/list/ACT/2902/Kambah/,7/93 Morrison Street ,-35.3911224,149.0723300,townhouse,2,2,2,"$422,000",https://www.auhouseprices.com/sold/view/ACT/341892609/7-93+Morrison+Street%2C+Kambah+ACT/
244,2902,Kambah,221,https://www.auhouseprices.com/sold/list/ACT/2902/Kambah/,14 Malcolm Place ,-35.3762170,149.0671352,house,4,2,2,"$638,000",https://www.auhouseprices.com/sold/view/ACT/341213609/14+Malcolm+Place%2C+Kambah+ACT/
245,2902,Kambah,221,https://www.auhouseprices.com/sold/list/ACT/2902/Kambah/,5 Studley Street ,-35.3763851,149.0450815,house,5,2,4,"$817,000",https://www.auhouseprices.com/sold/view/ACT/341201609/5+Studley+Street%2C+Kambah+ACT/
246,2902,Kambah,221,https://www.auhouseprices.com/sold/list/ACT/2902/Kambah/,52 Stieglitz Circuit ,-35.4008732,149.0648251,house,3,1,2,"$533,000",https://www.auhouseprices.com/sold/view/ACT/341730499/52+Stieglitz+Circuit%2C+Kambah+ACT/
247,2902,Kambah,221,https://www.auhouseprices.com/sold/list/ACT/2902/Kambah/,2 Oats Place ,-35.3826530,149.0708549,house,4,2,2,"$733,000",https://www.auhouseprices.com/sold/view/ACT/341793499/2+Oats+Place%2C+Kambah+ACT/
248,2902,Kambah,221,https://www.auhouseprices.com/sold/list/ACT/2902/Kambah/,17 Boustead Circuit ,-35.3904393,149.0504014,house,4,2,2,"$665,000",https://www.auhouseprices.com/sold/view/ACT/341524499/17+Boustead+Circuit%2C+Kambah+ACT/
249,2902,Kambah,221,https://www.auhouseprices.com/sold/list/ACT/2902/Kambah/,90 Livingston Avenue ,-35.3888859,149.0795570,house,3,1,2,"$480,000",https://www.auhouseprices.com/sold/view/ACT/341369399/90+Livingston+Avenue%2C+Kambah+ACT/
250,2902,Kambah,221,https://www.auhouseprices.com/sold/list/ACT/2902/Kambah/,15 Tepper Circuit ,-35.3788670,149.0518256,house,3,1,2,"$560,500",https://www.auhouseprices.com/sold/view/ACT/341187399/15+Tepper+Circuit%2C+Kambah+ACT/
251,2902,Kambah,221,https://www.auhouseprices.com/sold/list/ACT/2902/Kambah/,7 Fimister Circuit ,-35.3894368,149.0769113,house,3,1,1,"$496,000",https://www.auhouseprices.com/sold/view/ACT/341283399/7+Fimister+Circuit%2C+Kambah+ACT/
252,2902,Kambah,221,https://www.auhouseprices.com/sold/list/ACT/2902/Kambah/,15 Dinnison Circuit ,-35.3910318,149.0484238,house,3,2,2,"$660,000",https://www.auhouseprices.com/sold/view/ACT/341178299/15+Dinnison+Circuit%2C+Kambah+ACT/
253,2902,Kambah,221,https://www.auhouseprices.com/sold/list/ACT/2902/Kambah/,35 Cutbush Street ,-35.3905429,149.0791372,house,3,1,2,"$553,000",https://www.auhouseprices.com/sold/view/ACT/341808299/35+Cutbush+Street%2C+Kambah+ACT/
254,2902,Kambah,221,https://www.auhouseprices.com/sold/list/ACT/2902/Kambah/,41 Mt Vernon Drive ,-35.3878990,149.0371460,house,4,3,6,"$1,250,000",https://www.auhouseprices.com/sold/view/ACT/341274299/41+Mt+Vernon+Drive%2C+Kambah+ACT/
255,2902,Kambah,221,https://www.auhouseprices.com/sold/list/ACT/2902/Kambah/,4 Grote Place ,-35.3740631,149.0623474,house,4,2,2,"$865,000",https://www.auhouseprices.com/sold/view/ACT/341801299/4+Grote+Place%2C+Kambah+ACT/
256,2902,Kambah,221,https://www.auhouseprices.com/sold/list/ACT/2902/Kambah/,1 Winser Crescent ,-35.3955080,149.0380400,house,5,3,2,"$1,250,000",https://www.auhouseprices.com/sold/view/ACT/341051299/1+Winser+Crescent%2C+Kambah+ACT/
257,2902,Kambah,221,https://www.auhouseprices.com/sold/list/ACT/2902/Kambah/,56 Tepper Circuit ,-35.3789560,149.0529200,house,4,2,2,"$729,000",https://www.auhouseprices.com/sold/view/ACT/341262299/56+Tepper+Circuit%2C+Kambah+ACT/
258,2902,Kambah,221,https://www.auhouseprices.com/sold/list/ACT/2902/Kambah/,22 James Scott Close ,-35.3935722,149.0378750,house,4,3,3,"$1,050,000",https://www.auhouseprices.com/sold/view/ACT/341368199/22+James+Scott+Close%2C+Kambah+ACT/
259,2902,Kambah,221,https://www.auhouseprices.com/sold/list/ACT/2902/Kambah/,31 Morrison Street ,-35.3948763,149.0724776,house,3,1,1,"$480,000",https://www.auhouseprices.com/sold/view/ACT/341936199/31+Morrison+Street%2C+Kambah+ACT/
260,2902,Kambah,221,https://www.auhouseprices.com/sold/list/ACT/2902/Kambah/,39 Marconi Crescent ,-35.3777723,149.0605265,house,2,1,2,"$435,000",https://www.auhouseprices.com/sold/view/ACT/341749199/39+Marconi+Crescent%2C+Kambah+ACT/
261,2902,Kambah,221,https://www.auhouseprices.com/sold/list/ACT/2902/Kambah/,16 Castley Circuit ,-35.3883440,149.0530700,townhouse,2,1,1,"$420,000",https://www.auhouseprices.com/sold/view/ACT/341282199/16+Castley+Circuit%2C+Kambah+ACT/
262,2902,Kambah,221,https://www.auhouseprices.com/sold/list/ACT/2902/Kambah/,43 Symers Street ,-35.3848700,149.0839892,house,4,2,2,"$797,500",https://www.auhouseprices.com/sold/view/ACT/341361199/43+Symers+Street%2C+Kambah+ACT/
263,2902,Kambah,221,https://www.auhouseprices.com/sold/list/ACT/2902/Kambah/,6 Bower Place ,-35.3745407,149.0512427,house,4,2,2,"$965,000",https://www.auhouseprices.com/sold/view/ACT/341651199/6+Bower+Place%2C+Kambah+ACT/
264,2902,Kambah,221,https://www.auhouseprices.com/sold/list/ACT/2902/Kambah/,18/71 Morrison Street ,-35.3923050,149.0706566,house,2,1,1,"$336,000",https://www.auhouseprices.com/sold/view/ACT/341239099/18-71+Morrison+Street%2C+Kambah+ACT/
265,2902,Kambah,221,https://www.auhouseprices.com/sold/list/ACT/2902/Kambah/,44 McDermott Street ,-35.3914779,149.0766621,house,4,1,2,"$590,000",https://www.auhouseprices.com/sold/view/ACT/341658199/44+McDermott+Street%2C+Kambah+ACT/
266,2902,Kambah,221,https://www.auhouseprices.com/sold/list/ACT/2902/Kambah/,41 Lyall Crescent ,-35.3778800,149.0435500,house,4,2,2,"$765,000",https://www.auhouseprices.com/sold/view/ACT/341683099/41+Lyall+Crescent%2C+Kambah+ACT/
267,2902,Kambah,221,https://www.auhouseprices.com/sold/list/ACT/2902/Kambah/,6 Deuchar Close ,-35.3863530,149.0894300,house,4,2,1,"$728,000",https://www.auhouseprices.com/sold/view/ACT/341824099/6+Deuchar+Close%2C+Kambah+ACT/
268,2902,Kambah,221,https://www.auhouseprices.com/sold/list/ACT/2902/Kambah/,4 Ruwoldt Place ,-35.3846470,149.0890692,house,4,2,2,"$750,000",https://www.auhouseprices.com/sold/view/ACT/341812099/4+Ruwoldt+Place%2C+Kambah+ACT/
269,2902,Kambah,221,https://www.auhouseprices.com/sold/list/ACT/2902/Kambah/,1 McDermott Street ,-35.3919915,149.0756294,house,3,2,1,"$583,000",https://www.auhouseprices.com/sold/view/ACT/341896999/1+McDermott+Street%2C+Kambah+ACT/
270,2902,Kambah,221,https://www.auhouseprices.com/sold/list/ACT/2902/Kambah/,21 Seymour Place ,-35.3935893,149.0588044,house,3,1,2,,https://www.auhouseprices.com/sold/view/ACT/341006999/21+Seymour+Place%2C+Kambah+ACT/
271,2902,Kambah,221,https://www.auhouseprices.com/sold/list/ACT/2902/Kambah/,39 Marconi Crescent ,-35.3777723,149.0605265,house,2,1,1,"$435,000",https://www.auhouseprices.com/sold/view/ACT/341488199/39+Marconi+Crescent%2C+Kambah+ACT/
272,2902,Kambah,221,https://www.auhouseprices.com/sold/list/ACT/2902/Kambah/,1/21 Seymour Place ,-35.3935893,149.0588044,unit,3,1,3,"$500,000",https://www.auhouseprices.com/sold/view/ACT/341466309/1-21+Seymour+Place%2C+Kambah+ACT/
273,2902,Kambah,221,https://www.auhouseprices.com/sold/list/ACT/2902/Kambah/,24 Inkster Street ,-35.3767522,149.0658830,house,4,3,2,"$750,000",https://www.auhouseprices.com/sold/view/ACT/341860999/24+Inkster+Street%2C+Kambah+ACT/
274,2902,Kambah,221,https://www.auhouseprices.com/sold/list/ACT/2902/Kambah/,25 McGivern Crescent ,-35.3741909,149.0468862,house,4,2,2,"$725,000",https://www.auhouseprices.com/sold/view/ACT/341321899/25+McGivern+Crescent%2C+Kambah+ACT/
275,2902,Kambah,221,https://www.auhouseprices.com/sold/list/ACT/2902/Kambah/,57 Vansittart Crescent ,-35.4006363,149.0619782,house,4,2,2,"$665,000",https://www.auhouseprices.com/sold/view/ACT/341825799/57+Vansittart+Crescent%2C+Kambah+ACT/
276,2902,Kambah,221,https://www.auhouseprices.com/sold/list/ACT/2902/Kambah/,16 Gallagher Street ,-35.3847050,149.0652200,house,3,1,4,"$655,000",https://www.auhouseprices.com/sold/view/ACT/341693899/16+Gallagher+Street%2C+Kambah+ACT/
277,2902,Kambah,221,https://www.auhouseprices.com/sold/list/ACT/2902/Kambah/,7/15 Vansittart Crescent ,-35.3967044,149.0643312,townhouse,2,2,2,"$440,000",https://www.auhouseprices.com/sold/view/ACT/341274799/7-15+Vansittart+Crescent%2C+Kambah+ACT/
278,2902,Kambah,221,https://www.auhouseprices.com/sold/list/ACT/2902/Kambah/,48 Sinclair Street ,-35.3740236,149.0651861,house,4,2,2,"$790,000",https://www.auhouseprices.com/sold/view/ACT/341916799/48+Sinclair+Street%2C+Kambah+ACT/
279,2902,Kambah,221,https://www.auhouseprices.com/sold/list/ACT/2902/Kambah/,86 Harrington Circuit ,-35.3745570,149.0615660,house,3,1,2,,https://www.auhouseprices.com/sold/view/ACT/341989699/86+Harrington+Circuit%2C+Kambah+ACT/
280,2902,Kambah,221,https://www.auhouseprices.com/sold/list/ACT/2902/Kambah/,5 Cremin Close ,-35.3914340,149.0337200,house,4,2,2,"$955,000",https://www.auhouseprices.com/sold/view/ACT/341207699/5+Cremin+Close%2C+Kambah+ACT/
281,2902,Kambah,221,https://www.auhouseprices.com/sold/list/ACT/2902/Kambah/,15 Barritt Street ,-35.3783771,149.0496112,house,4,2,2,"$780,000",https://www.auhouseprices.com/sold/view/ACT/341373699/15+Barritt+Street%2C+Kambah+ACT/
282,2902,Kambah,221,https://www.auhouseprices.com/sold/list/ACT/2902/Kambah/,9 Lovegrove Place ,-35.3833244,149.0753303,house,3,1,2,"$535,000",https://www.auhouseprices.com/sold/view/ACT/341821699/9+Lovegrove+Place%2C+Kambah+ACT/
283,2902,Kambah,221,https://www.auhouseprices.com/sold/list/ACT/2902/Kambah/,14 Vansittart Crescent ,-35.3970610,149.0637510,house,6,2,2,"$725,000",https://www.auhouseprices.com/sold/view/ACT/341812599/14++Vansittart+Crescent%2C+Kambah+ACT/
284,2902,Kambah,221,https://www.auhouseprices.com/sold/list/ACT/2902/Kambah/,69 McKillop Circuit ,-35.3933950,149.0525900,house,4,2,2,"$685,000",https://www.auhouseprices.com/sold/view/ACT/341141599/69+McKillop+Circuit%2C+Kambah+ACT/
285,2902,Kambah,221,https://www.auhouseprices.com/sold/list/ACT/2902/Kambah/,14 Attiwell Circuit ,-35.3773320,149.0518820,house,3,2,1,"$640,000",https://www.auhouseprices.com/sold/view/ACT/341750599/14+Attiwell+Circuit%2C+Kambah+ACT/
286,2902,Kambah,221,https://www.auhouseprices.com/sold/list/ACT/2902/Kambah/,2 Attiwell Circuit ,-35.3766958,149.0506809,house,4,2,1,"$670,000",https://www.auhouseprices.com/sold/view/ACT/341526489/2+Attiwell+Circuit%2C+Kambah+ACT/
287,2902,Kambah,221,https://www.auhouseprices.com/sold/list/ACT/2902/Kambah/,8 Lacey Place ,-35.3849219,149.0741713,house,3,1,3,"$640,000",https://www.auhouseprices.com/sold/view/ACT/341514489/8+Lacey+Place%2C+Kambah+ACT/
288,2902,Kambah,221,https://www.auhouseprices.com/sold/list/ACT/2902/Kambah/,13 Crichton Crescent ,-35.3746070,149.0428850,house,5,2,2,"$778,000",https://www.auhouseprices.com/sold/view/ACT/341742489/13+Crichton+Crescent%2C+Kambah+ACT/
289,2902,Kambah,221,https://www.auhouseprices.com/sold/list/ACT/2902/Kambah/,5 Brimage Place ,-35.3839587,149.0667273,house,4,1,2,"$610,000",https://www.auhouseprices.com/sold/view/ACT/341862489/5+Brimage+Place%2C+Kambah+ACT/
290,2902,Kambah,221,https://www.auhouseprices.com/sold/list/ACT/2902/Kambah/,1 Myers Place ,-35.3915969,149.0565407,house,3,1,1,"$575,000",https://www.auhouseprices.com/sold/view/ACT/341529389/1+Myers+Place%2C+Kambah+ACT/
291,2902,Kambah,221,https://www.auhouseprices.com/sold/list/ACT/2902/Kambah/,6 Inkster Street ,-35.3766877,149.0680718,house,4,2,3,"$760,000",https://www.auhouseprices.com/sold/view/ACT/341678389/6+Inkster+Street%2C+Kambah+ACT/
292,2902,Kambah,221,https://www.auhouseprices.com/sold/list/ACT/2902/Kambah/,47b Lee-Steere Cres ,-35.3843507,149.0764836,house,3,2,1,"$680,000",https://www.auhouseprices.com/sold/view/ACT/341915389/47b+Lee-Steere+Cres%2C+Kambah+ACT/
293,2902,Kambah,221,https://www.auhouseprices.com/sold/list/ACT/2902/Kambah/,22 Vansittart Crescent ,-35.3981586,149.0640070,house,3,2,2,"$562,000",https://www.auhouseprices.com/sold/view/ACT/341939389/22+Vansittart+Crescent%2C+Kambah+ACT/
294,2902,Kambah,221,https://www.auhouseprices.com/sold/list/ACT/2902/Kambah/,41 Morrison Street ,-35.3942079,149.0720312,house,3,1,2,"$490,000",https://www.auhouseprices.com/sold/view/ACT/341203389/41+Morrison+Street%2C+Kambah+ACT/
295,2902,Kambah,221,https://www.auhouseprices.com/sold/list/ACT/2902/Kambah/,2 Hagen Place ,-35.3917718,149.0483764,house,5,2,4,"$725,000",https://www.auhouseprices.com/sold/view/ACT/341182389/2+Hagen+Place%2C+Kambah+ACT/
296,2902,Kambah,221,https://www.auhouseprices.com/sold/list/ACT/2902/Kambah/,1 Griffith Place ,-35.3857450,149.0690520,house,3,2,0,"$555,000",https://www.auhouseprices.com/sold/view/ACT/341189389/1+Griffith+Place%2C+Kambah+ACT/
297,2902,Kambah,221,https://www.auhouseprices.com/sold/list/ACT/2902/Kambah/,81 Summerland Circuit ,-35.3850800,149.0728100,house,3,1,2,"$618,000",https://www.auhouseprices.com/sold/view/ACT/341540189/81+Summerland+Circuit%2C+Kambah+ACT/
298,2902,Kambah,221,https://www.auhouseprices.com/sold/list/ACT/2902/Kambah/,8 Lomman Place ,-35.3969460,149.0583800,house,3,2,2,"$600,000",https://www.auhouseprices.com/sold/view/ACT/341399189/8+Lomman+Place%2C+Kambah+ACT/
299,2902,Kambah,221,https://www.auhouseprices.com/sold/list/ACT/2902/Kambah/,13 Bacchus Circuit ,-35.3771296,149.0500865,house,4,1,1,,https://www.auhouseprices.com/sold/view/ACT/341768189/13+Bacchus+Circuit%2C+Kambah+ACT/
300,2902,Kambah,221,https://www.auhouseprices.com/sold/list/ACT/2902/Kambah/,9 Finnerty Place ,-35.3864295,149.0677371,house,5,2,3,"$710,000",https://www.auhouseprices.com/sold/view/ACT/341604289/9+Finnerty+Place%2C+Kambah+ACT/
301,2902,Kambah,221,https://www.auhouseprices.com/sold/list/ACT/2902/Kambah/,11 McKillop Circuit ,-35.3919456,149.0567147,house,4,2,3,"$650,000",https://www.auhouseprices.com/sold/view/ACT/341359389/11+McKillop+Circuit%2C+Kambah+ACT/
302,2902,Kambah,221,https://www.auhouseprices.com/sold/list/ACT/2902/Kambah/,33 Humble Court ,-35.3830960,149.0790500,house,4,2,2,"$820,000",https://www.auhouseprices.com/sold/view/ACT/341015189/33+Humble+Court%2C+Kambah+ACT/
303,2902,Kambah,221,https://www.auhouseprices.com/sold/list/ACT/2902/Kambah/,5 Khull Crescent ,-35.3746408,149.0400074,house,3,1,4,,https://www.auhouseprices.com/sold/view/ACT/341457089/5+Khull+Crescent%2C+Kambah+ACT/
304,2902,Kambah,221,https://www.auhouseprices.com/sold/list/ACT/2902/Kambah/,3B Lascelles Circuit ,-35.3823980,149.0644240,house,3,2,1,"$473,500",https://www.auhouseprices.com/sold/view/ACT/341910389/3B+Lascelles+Circuit%2C+Kambah+ACT/
305,2902,Kambah,221,https://www.auhouseprices.com/sold/list/ACT/2902/Kambah/,23 Apperly Close ,-35.3916220,149.0412270,house,4,3,2,"$965,000",https://www.auhouseprices.com/sold/view/ACT/341907989/23+Apperly+Close%2C+Kambah+ACT/
306,2902,Kambah,221,https://www.auhouseprices.com/sold/list/ACT/2902/Kambah/,22 Mt Vernon Drive ,-35.3891700,149.0347020,house,5,3,2,"$899,000",https://www.auhouseprices.com/sold/view/ACT/341157989/22+Mt+Vernon+Drive%2C+Kambah+ACT/
307,2902,Kambah,221,https://www.auhouseprices.com/sold/list/ACT/2902/Kambah/,10 Springbett Street ,-35.3929920,149.0593320,house,4,2,3,"$657,500",https://www.auhouseprices.com/sold/view/ACT/341725989/10+Springbett+Street%2C+Kambah+ACT/
308,2902,Kambah,221,https://www.auhouseprices.com/sold/list/ACT/2902/Kambah/,27 Lyall Crescent ,-35.3771130,149.0430900,house,3,2,1,"$530,500",https://www.auhouseprices.com/sold/view/ACT/341487789/27+Lyall+Crescent%2C+Kambah+ACT/
309,2902,Kambah,221,https://www.auhouseprices.com/sold/list/ACT/2902/Kambah/,47a Lee-Steere Crescent ,-35.3844400,149.0766000,house,3,2,1,,https://www.auhouseprices.com/sold/view/ACT/341686789/47a+Lee-Steere+Crescent%2C+Kambah+ACT/
310,2902,Kambah,221,https://www.auhouseprices.com/sold/list/ACT/2902/Kambah/,108 Summerland Circuit ,-35.3871600,149.0745490,house,3,1,2,"$617,000",https://www.auhouseprices.com/sold/view/ACT/341769389/108+Summerland+Circuit%2C+Kambah+ACT/
311,2902,Kambah,221,https://www.auhouseprices.com/sold/list/ACT/2902/Kambah/,14/53 Ashby Circuit ,-35.3958510,149.0641920,townhouse,2,1,1,,https://www.auhouseprices.com/sold/view/ACT/341207989/14-53+Ashby+Circuit%2C+Kambah+ACT/
312,2902,Kambah,221,https://www.auhouseprices.com/sold/list/ACT/2902/Kambah/,17 Tepper Circuit ,-35.3789320,149.0520530,house,4,2,1,"$600,000",https://www.auhouseprices.com/sold/view/ACT/341740389/17+Tepper+Circuit%2C+Kambah+ACT/
313,2902,Kambah,221,https://www.auhouseprices.com/sold/list/ACT/2902/Kambah/,2/18 Dinnison Circuit ,-35.3899860,149.0482910,duplex-semi-detached,3,2,2,"$635,000",https://www.auhouseprices.com/sold/view/ACT/341873789/2-18+Dinnison+Circuit%2C+Kambah+ACT/
314,2902,Kambah,221,https://www.auhouseprices.com/sold/list/ACT/2902/Kambah/,67 Kingsmill Street ,-35.3887260,149.0739250,house,4,1,2,"$555,000",https://www.auhouseprices.com/sold/view/ACT/341876689/67+Kingsmill+Street%2C+Kambah+ACT/
315,2902,Kambah,221,https://www.auhouseprices.com/sold/list/ACT/2902/Kambah/,72 Ragless Circuit ,-35.3997390,149.0609470,house,4,2,2,"$625,000",https://www.auhouseprices.com/sold/view/ACT/341044689/72+Ragless+Circuit%2C+Kambah+ACT/
316,2902,Kambah,221,https://www.auhouseprices.com/sold/list/ACT/2902/Kambah/,3/17 Pinkerton Circuit ,-35.3975310,149.0655720,unit,2,1,1,"$350,000",https://www.auhouseprices.com/sold/view/ACT/341761689/3-17+Pinkerton+Circuit%2C+Kambah+ACT/
317,2902,Kambah,221,https://www.auhouseprices.com/sold/list/ACT/2902/Kambah/,4 Dale Circuit ,-35.3979330,149.0618880,house,3,2,2,"$624,000",https://www.auhouseprices.com/sold/view/ACT/341519589/4+Dale+Circuit%2C+Kambah+ACT/
318,2902,Kambah,221,https://www.auhouseprices.com/sold/list/ACT/2902/Kambah/,16 Crozier Circuit ,-35.3877940,149.0490070,house,4,2,2,"$660,000",https://www.auhouseprices.com/sold/view/ACT/341720689/16+Crozier+Circuit%2C+Kambah+ACT/
319,2902,Kambah,221,https://www.auhouseprices.com/sold/list/ACT/2902/Kambah/,103 Mt Vernon Drive ,-35.3918810,149.0329810,house,4,2,2,"$980,000",https://www.auhouseprices.com/sold/view/ACT/341570589/103+Mt+Vernon+Drive%2C+Kambah+ACT/
320,2902,Kambah,221,https://www.auhouseprices.com/sold/list/ACT/2902/Kambah/,42 Faithfull Circuit ,-35.3827780,149.0465750,house,4,2,2,"$700,000",https://www.auhouseprices.com/sold/view/ACT/341011589/42+Faithfull+Circuit%2C+Kambah+ACT/
321,2902,Kambah,221,https://www.auhouseprices.com/sold/list/ACT/2902/Kambah/,19 Oldfield Circuit ,-35.3894700,149.0819400,house,1,"$425,000",0,"$425,000",https://www.auhouseprices.com/sold/view/ACT/341967479/19+Oldfield+Circuit%2C+Kambah+ACT/
322,2902,Kambah,221,https://www.auhouseprices.com/sold/list/ACT/2902/Kambah/,19 Fisken Crescent ,-35.3729830,149.0417780,house,4,2,6,"$640,000",https://www.auhouseprices.com/sold/view/ACT/341408479/19+Fisken+Crescent%2C+Kambah+ACT/
323,2902,Kambah,221,https://www.auhouseprices.com/sold/list/ACT/2902/Kambah/,16/15 Wyselaskie Circuit ,-35.3782210,149.0618080,townhouse,3,2,2,"$500,000",https://www.auhouseprices.com/sold/view/ACT/341980389/16-15+Wyselaskie+Circuit%2C+Kambah+ACT/
324,2902,Kambah,221,https://www.auhouseprices.com/sold/list/ACT/2902/Kambah/,47 Ragless Circuit ,-35.3983750,149.0599860,house,4,2,2,"$640,000",https://www.auhouseprices.com/sold/view/ACT/341517599/47+Ragless+Circuit%2C+Kambah+ACT/
325,2902,Kambah,221,https://www.auhouseprices.com/sold/list/ACT/2902/Kambah/,20 Allchin Circuit ,-35.3750470,149.0467880,house,3,1,1,"$560,000",https://www.auhouseprices.com/sold/view/ACT/341400389/20+Allchin+Circuit%2C+Kambah+ACT/
326,2902,Kambah,221,https://www.auhouseprices.com/sold/list/ACT/2902/Kambah/,54 Meredith Circuit ,-35.3954760,149.0490120,house,5,3,3,"$810,000",https://www.auhouseprices.com/sold/view/ACT/341507379/54+Meredith+Circuit%2C+Kambah+ACT/
327,2902,Kambah,221,https://www.auhouseprices.com/sold/list/ACT/2902/Kambah/,8 Cowie Place ,-35.3957600,149.0578580,house,3,1,3,"$550,000",https://www.auhouseprices.com/sold/view/ACT/341855379/8+Cowie+Place%2C+Kambah+ACT/
328,2902,Kambah,221,https://www.auhouseprices.com/sold/list/ACT/2902/Kambah/,11 Khull Crescent ,-35.3751250,149.0405800,house,3,1,4,"$635,000",https://www.auhouseprices.com/sold/view/ACT/341349379/11+Khull+Crescent%2C+Kambah+ACT/
329,2902,Kambah,221,https://www.auhouseprices.com/sold/list/ACT/2902/Kambah/,5/75 Pinkerton Circuit ,-35.3983150,149.0646140,townhouse,2,1,2,,https://www.auhouseprices.com/sold/view/ACT/341462379/5-75+Pinkerton+Circuit%2C+Kambah+ACT/
330,2902,Kambah,221,https://www.auhouseprices.com/sold/list/ACT/2902/Kambah/,25 Withnell Circuit ,-35.3845640,149.0912490,house,4,2,2,"$700,000",https://www.auhouseprices.com/sold/view/ACT/341661379/25+Withnell++Circuit%2C+Kambah+ACT/
331,2902,Kambah,221,https://www.auhouseprices.com/sold/list/ACT/2902/Kambah/,3 Bullock Circuit ,-35.3858850,149.0492420,house,4,1,2,"$570,000",https://www.auhouseprices.com/sold/view/ACT/341611279/3+Bullock+Circuit%2C+Kambah+ACT/
332,2902,Kambah,221,https://www.auhouseprices.com/sold/list/ACT/2902/Kambah/,120 Learmonth Drive ,-35.3938000,149.0502790,house,4,2,2,"$595,000",https://www.auhouseprices.com/sold/view/ACT/341969179/120+Learmonth+Drive%2C+Kambah+ACT/
333,2902,Kambah,221,https://www.auhouseprices.com/sold/list/ACT/2902/Kambah/,1/75 Boddington Crescent ,-35.3844380,149.0508870,duplex-semi-detached,3,2,1,"$595,000",https://www.auhouseprices.com/sold/view/ACT/341701489/1-75+Boddington+Crescent%2C+Kambah+ACT/
334,2902,Kambah,221,https://www.auhouseprices.com/sold/list/ACT/2902/Kambah/,37 Livingston Avenue ,-35.3880350,149.0845500,house,3,1,2,"$505,000",https://www.auhouseprices.com/sold/view/ACT/341377179/37+Livingston+Avenue%2C+Kambah+ACT/
335,2902,Kambah,221,https://www.auhouseprices.com/sold/list/ACT/2902/Kambah/,68 Ivo Whitton Circuit ,-35.3928460,149.0355870,house,5,2,2,"$930,000",https://www.auhouseprices.com/sold/view/ACT/341121489/68+Ivo+Whitton+Circuit%2C+Kambah+ACT/
336,2902,Kambah,221,https://www.auhouseprices.com/sold/list/ACT/2902/Kambah/,4 Schubert Place ,-35.3955130,149.0567560,house,4,3,6,"$745,000",https://www.auhouseprices.com/sold/view/ACT/341531489/4+Schubert+Place%2C+Kambah+ACT/
337,2902,Kambah,221,https://www.auhouseprices.com/sold/list/ACT/2902/Kambah/,12 Dale Circuit ,-35.3985240,149.0611930,house,4,2,2,"$713,000",https://www.auhouseprices.com/sold/view/ACT/341321279/12+Dale+Circuit%2C+Kambah+ACT/
338,2902,Kambah,221,https://www.auhouseprices.com/sold/list/ACT/2902/Kambah/,101 Learmonth Drive ,-35.3959020,149.0530870,house,4,2,2,"$850,000",https://www.auhouseprices.com/sold/view/ACT/341447079/101+Learmonth+Drive%2C+Kambah+ACT/
339,2902,Kambah,221,https://www.auhouseprices.com/sold/list/ACT/2902/Kambah/,3/19 Ashby Circuit ,-35.3958880,149.0666530,townhouse,2,1,1,"$400,000",https://www.auhouseprices.com/sold/view/ACT/341857079/3-19+Ashby+Circuit%2C+Kambah+ACT/
340,2902,Kambah,221,https://www.auhouseprices.com/sold/list/ACT/2902/Kambah/,29 Kidman Close ,-35.3868990,149.0496010,house,3,1,2,"$538,000",https://www.auhouseprices.com/sold/view/ACT/341960079/29+Kidman+Close%2C+Kambah+ACT/
341,2902,Kambah,221,https://www.auhouseprices.com/sold/list/ACT/2902/Kambah/,16 Humble Court ,-35.3840770,149.0792920,house,5,3,2,"$925,000",https://www.auhouseprices.com/sold/view/ACT/341241489/16+Humble+Court%2C+Kambah+ACT/
342,2902,Kambah,221,https://www.auhouseprices.com/sold/list/ACT/2902/Kambah/,71 Livingston Avenue ,-35.3888590,149.0802500,house,3,1,2,"$510,000",https://www.auhouseprices.com/sold/view/ACT/341886079/71+Livingston+Avenue%2C+Kambah+ACT/
343,2902,Kambah,221,https://www.auhouseprices.com/sold/list/ACT/2902/Kambah/,33 Summerland Circuit ,-35.3828260,149.0663910,house,4,2,2,"$577,500",https://www.auhouseprices.com/sold/view/ACT/341926979/33+Summerland+Circuit%2C+Kambah+ACT/
344,2902,Kambah,221,https://www.auhouseprices.com/sold/list/ACT/2902/Kambah/,19/10 Ashby Circuit ,-35.3958640,149.0652330,townhouse,3,1,1,"$415,000",https://www.auhouseprices.com/sold/view/ACT/341305979/19-10+Ashby+Circuit%2C+Kambah+ACT/
345,2902,Kambah,221,https://www.auhouseprices.com/sold/list/ACT/2902/Kambah/,13 Armytage Circuit ,-35.3918870,149.0468740,house,4,2,2,"$720,000",https://www.auhouseprices.com/sold/view/ACT/341806979/13+Armytage+Circuit%2C+Kambah+ACT/
346,2902,Kambah,221,https://www.auhouseprices.com/sold/list/ACT/2902/Kambah/,39 Fitzalan Street ,-35.3854820,149.0817080,house,4,2,4,"$690,000",https://www.auhouseprices.com/sold/view/ACT/341941489/39+Fitzalan+Street%2C+Kambah+ACT/
347,2902,Kambah,221,https://www.auhouseprices.com/sold/list/ACT/2902/Kambah/,12 McCullock Place ,-35.3859040,149.0673670,house,4,2,3,"$638,500",https://www.auhouseprices.com/sold/view/ACT/341706879/12+McCullock+Place%2C+Kambah+ACT/
348,2902,Kambah,221,https://www.auhouseprices.com/sold/list/ACT/2902/Kambah/,30 Symers Street ,-35.3851300,149.0836870,house,4,2,3,"$655,000",https://www.auhouseprices.com/sold/view/ACT/341582879/30+Symers+Street%2C+Kambah+ACT/
349,2902,Kambah,221,https://www.auhouseprices.com/sold/list/ACT/2902/Kambah/,12 Gunning Place ,-35.3758320,149.0591290,house,3,1,2,"$515,000",https://www.auhouseprices.com/sold/view/ACT/341831879/12+Gunning+Place%2C+Kambah+ACT/
350,2902,Kambah,221,https://www.auhouseprices.com/sold/list/ACT/2902/Kambah/,18 Fisken Crescent ,-35.3724630,149.0433200,house,4,2,1,"$785,000",https://www.auhouseprices.com/sold/view/ACT/341539779/18+Fisken+Crescent%2C+Kambah+ACT/
351,2902,Kambah,221,https://www.auhouseprices.com/sold/list/ACT/2902/Kambah/,7/37 Wyselaskie Circuit ,-35.3799520,149.0620530,townhouse,3,1,1,"$425,000",https://www.auhouseprices.com/sold/view/ACT/341149679/7-37+Wyselaskie+Circuit%2C+Kambah+ACT/
352,2902,Kambah,221,https://www.auhouseprices.com/sold/list/ACT/2902/Kambah/,25/69-73 Morrison Street ,-35.3922300,149.0704580,townhouse,2,1,0,,https://www.auhouseprices.com/sold/view/ACT/341286679/25-69-73+Morrison+Street%2C+Kambah+ACT/
353,2902,Kambah,221,https://www.auhouseprices.com/sold/list/ACT/2902/Kambah/,6/19 Ashby Circuit ,-35.3958880,149.0666530,townhouse,2,1,1,"$370,000",https://www.auhouseprices.com/sold/view/ACT/341771489/6-19+Ashby+Circuit%2C+Kambah+ACT/
354,2902,Kambah,221,https://www.auhouseprices.com/sold/list/ACT/2902/Kambah/,41 A&B McConnel Crescent ,-35.3808830,149.0747850,house,5,3,4,,https://www.auhouseprices.com/sold/view/ACT/341050889/41+A%26B+McConnel+Crescent%2C+Kambah+ACT/
355,2902,Kambah,221,https://www.auhouseprices.com/sold/list/ACT/2902/Kambah/,14 Ivo Whitton Circuit ,-35.3936540,149.0386960,house,4,2,2,"$905,000",https://www.auhouseprices.com/sold/view/ACT/341332579/14+Ivo+Whitton+Circuit%2C+Kambah+ACT/
356,2902,Kambah,221,https://www.auhouseprices.com/sold/list/ACT/2902/Kambah/,31 Marconi Crescent ,-35.3779070,149.0600010,house,3,2,2,"$525,000",https://www.auhouseprices.com/sold/view/ACT/341849469/31+Marconi+Crescent%2C+Kambah+ACT/
357,2902,Kambah,221,https://www.auhouseprices.com/sold/list/ACT/2902/Kambah/,5 Beard Place ,-35.3857440,149.0759870,house,3,2,4,"$612,500",https://www.auhouseprices.com/sold/view/ACT/341705469/5+Beard+Place%2C+Kambah+ACT/
358,2902,Kambah,221,https://www.auhouseprices.com/sold/list/ACT/2902/Kambah/,67/81 Crozier Circuit ,-35.3887430,149.0440170,house,3,1,1,"$5,250,000",https://www.auhouseprices.com/sold/view/ACT/341854179/67-81+Crozier+Circuit%2C+Kambah+ACT/
359,2902,Kambah,221,https://www.auhouseprices.com/sold/list/ACT/2902/Kambah/,53 Livingston Avenue ,-35.3880270,149.0821090,house,4,2,2,"$609,000",https://www.auhouseprices.com/sold/view/ACT/341813469/53+Livingston+Avenue%2C+Kambah+ACT/
360,2902,Kambah,221,https://www.auhouseprices.com/sold/list/ACT/2902/Kambah/,1 Tolmer Place ,-35.3944140,149.0612160,house,3,1,1,"$570,000",https://www.auhouseprices.com/sold/view/ACT/341502489/1+Tolmer+Place%2C+Kambah+ACT/
361,2902,Kambah,221,https://www.auhouseprices.com/sold/list/ACT/2902/Kambah/,18 Vanzetti Crescent ,-35.3927660,149.0731580,house,3,1,1,"$483,000",https://www.auhouseprices.com/sold/view/ACT/341212489/18+Vanzetti+Crescent%2C+Kambah+ACT/
362,2902,Kambah,221,https://www.auhouseprices.com/sold/list/ACT/2902/Kambah/,23 Meredith Circuit ,-35.3956770,149.0466770,house,4,2,2,"$650,000",https://www.auhouseprices.com/sold/view/ACT/341985269/23+Meredith+Circuit%2C+Kambah+ACT/
363,2902,Kambah,221,https://www.auhouseprices.com/sold/list/ACT/2902/Kambah/,48 Harrington circuit ,-35.3758320,149.0578530,house,3,1,2,,https://www.auhouseprices.com/sold/view/ACT/341774269/48+Harrington+circuit%2C+Kambah+ACT/
364,2902,Kambah,221,https://www.auhouseprices.com/sold/list/ACT/2902/Kambah/,4 Sims Place ,-35.3923480,149.0600690,house,4,1,3,"$595,000",https://www.auhouseprices.com/sold/view/ACT/341505269/4+Sims+Place%2C+Kambah+ACT/
365,2902,Kambah,221,https://www.auhouseprices.com/sold/list/ACT/2902/Kambah/,1 Arnold Place ,-35.3741060,149.0533210,house,5,2,4,"$665,000",https://www.auhouseprices.com/sold/view/ACT/341671269/1+Arnold+Place%2C+Kambah+ACT/
366,2902,Kambah,221,https://www.auhouseprices.com/sold/list/ACT/2902/Kambah/,12 Tiernan Place ,-35.3936720,149.0755980,house,3,1,4,"$592,500",https://www.auhouseprices.com/sold/view/ACT/341841269/12+Tiernan+Place%2C+Kambah+ACT/
367,2902,Kambah,221,https://www.auhouseprices.com/sold/list/ACT/2902/Kambah/,8 Wardell Place ,-35.3928200,149.0765760,house,3,1,1,"$455,000",https://www.auhouseprices.com/sold/view/ACT/341475669/8+Wardell+Place%2C+Kambah+ACT/
368,2902,Kambah,221,https://www.auhouseprices.com/sold/list/ACT/2902/Kambah/,8 Gibbs Place ,-35.3830050,149.0699140,house,3,2,2,"$635,000",https://www.auhouseprices.com/sold/view/ACT/341425569/8+Gibbs+Place%2C+Kambah+ACT/
369,2902,Kambah,221,https://www.auhouseprices.com/sold/list/ACT/2902/Kambah/,7/1 Pinkerton Circuit ,-35.3975640,149.0647020,townhouse,3,1,2,"$460,000",https://www.auhouseprices.com/sold/view/ACT/341118569/7-1+Pinkerton+Circuit%2C+Kambah+ACT/
370,2902,Kambah,221,https://www.auhouseprices.com/sold/list/ACT/2902/Kambah/,3 Amherst Street ,-35.3853180,149.0641900,house,3,1,2,"$520,000",https://www.auhouseprices.com/sold/view/ACT/341372459/3+Amherst+Street%2C+Kambah+ACT/
371,2902,Kambah,221,https://www.auhouseprices.com/sold/list/ACT/2902/Kambah/,22 Fisken Crescent ,-35.3725480,149.0428300,house,3,2,2,"$687,000",https://www.auhouseprices.com/sold/view/ACT/341068359/22+Fisken+Crescent%2C+Kambah+ACT/
372,2902,Kambah,221,https://www.auhouseprices.com/sold/list/ACT/2902/Kambah/,22 Meredith Circuit ,-35.3957940,149.0456720,house,6,3,2,"$890,000",https://www.auhouseprices.com/sold/view/ACT/341859359/22+Meredith+Circuit%2C+Kambah+ACT/
373,2902,Kambah,221,https://www.auhouseprices.com/sold/list/ACT/2902/Kambah/,22 Jamieson Crescent ,-35.3776500,149.0662140,house,3,1,1,"$510,000",https://www.auhouseprices.com/sold/view/ACT/341557359/22+Jamieson+Crescent%2C+Kambah+ACT/
374,2902,Kambah,221,https://www.auhouseprices.com/sold/list/ACT/2902/Kambah/,14 Severne Crescent ,-35.3905330,149.0697220,house,4,3,2,"$533,000",https://www.auhouseprices.com/sold/view/ACT/341030259/14+Severne+Crescent%2C+Kambah+ACT/
375,2902,Kambah,221,https://www.auhouseprices.com/sold/list/ACT/2902/Kambah/,17 Cumbrae Place ,-35.3920640,149.0736770,house,3,1,1,"$483,000",https://www.auhouseprices.com/sold/view/ACT/341562359/17+Cumbrae+Place%2C+Kambah+ACT/
376,2902,Kambah,221,https://www.auhouseprices.com/sold/list/ACT/2902/Kambah/,82 Livingston Avenue ,-35.3884880,149.0798220,house,4,1,2,"$547,000",https://www.auhouseprices.com/sold/view/ACT/341938569/82+Livingston+Avenue%2C+Kambah+ACT/
377,2902,Kambah,221,https://www.auhouseprices.com/sold/list/ACT/2902/Kambah/,1/1 Feltus Place ,-35.3741510,149.0525840,townhouse,3,2,2,,https://www.auhouseprices.com/sold/view/ACT/341234259/1-1+Feltus+Place%2C+Kambah+ACT/
378,2902,Kambah,221,https://www.auhouseprices.com/sold/list/ACT/2902/Kambah/,13 Cumbrae Place ,-35.3922210,149.0740280,house,3,1,2,"$470,000",https://www.auhouseprices.com/sold/view/ACT/341846159/13+Cumbrae+Place%2C+Kambah+ACT/
379,2902,Kambah,221,https://www.auhouseprices.com/sold/list/ACT/2902/Kambah/,19 Vanzetti Crescent ,-35.3925270,149.0737440,house,3,1,2,"$475,000",https://www.auhouseprices.com/sold/view/ACT/341925159/19+Vanzetti+Crescent%2C+Kambah+ACT/
380,2902,Kambah,221,https://www.auhouseprices.com/sold/list/ACT/2902/Kambah/,4/92 Crozier Circuit ,-35.3894630,149.0445370,townhouse,4,2,2,"$640,000",https://www.auhouseprices.com/sold/view/ACT/341995159/4-92+Crozier+Circuit%2C+Kambah+ACT/
381,2902,Kambah,221,https://www.auhouseprices.com/sold/list/ACT/2902/Kambah/,25 Broad Place ,-35.3905110,149.0574180,house,4,2,2,"$650,000",https://www.auhouseprices.com/sold/view/ACT/341503159/25+Broad+Place%2C+Kambah+ACT/
382,2902,Kambah,221,https://www.auhouseprices.com/sold/list/ACT/2902/Kambah/,120 Livingston Avenue ,-35.3901380,149.0771280,house,3,1,1,"$495,000",https://www.auhouseprices.com/sold/view/ACT/341269059/120+Livingston+Avenue%2C+Kambah+ACT/
383,2902,Kambah,221,https://www.auhouseprices.com/sold/list/ACT/2902/Kambah/,1 Simon Place ,-35.3831110,149.0690120,house,4,3,2,"$712,500",https://www.auhouseprices.com/sold/view/ACT/341101059/1+Simon+Place%2C+Kambah+ACT/
384,2902,Kambah,221,https://www.auhouseprices.com/sold/list/ACT/2902/Kambah/,6 Ey Place ,-35.3890040,149.0586900,house,4,2,6,"$745,000",https://www.auhouseprices.com/sold/view/ACT/341499959/6+Ey+Place%2C+Kambah+ACT/
385,2902,Kambah,221,https://www.auhouseprices.com/sold/list/ACT/2902/Kambah/,32 Kingsmill Street ,-35.3873650,149.0719440,house,3,2,4,"$655,000",https://www.auhouseprices.com/sold/view/ACT/341884259/32+Kingsmill+Street%2C+Kambah+ACT/
386,2902,Kambah,221,https://www.auhouseprices.com/sold/list/ACT/2902/Kambah/,15 Forrest Place ,-35.3894800,149.0696040,house,3,1,2,"$541,000",https://www.auhouseprices.com/sold/view/ACT/341478569/15+Forrest+Place%2C+Kambah+ACT/
387,2902,Kambah,221,https://www.auhouseprices.com/sold/list/ACT/2902/Kambah/,27 Gallagher Street ,-35.3856620,149.0650120,house,4,2,4,"$758,000",https://www.auhouseprices.com/sold/view/ACT/341648859/27+Gallagher+Street%2C+Kambah+ACT/
388,2902,Kambah,221,https://www.auhouseprices.com/sold/list/ACT/2902/Kambah/,2/10 Vanzetti Crescent ,-35.3922190,149.0721540,townhouse,3,1,2,"$475,000",https://www.auhouseprices.com/sold/view/ACT/341797859/2-10+Vanzetti+Crescent%2C+Kambah+ACT/
389,2902,Kambah,221,https://www.auhouseprices.com/sold/list/ACT/2902/Kambah/,7/45 Wyselaskie Circuit ,-35.3802200,149.0611310,townhouse,2,1,1,"$361,000",https://www.auhouseprices.com/sold/view/ACT/341557859/7-45+Wyselaskie+Circuit%2C+Kambah+ACT/
390,2902,Kambah,221,https://www.auhouseprices.com/sold/list/ACT/2902/Kambah/,24 McTaggart Crescent ,-35.3862900,149.0888440,house,3,1,0,"$10,000",https://www.auhouseprices.com/sold/view/ACT/341003859/24+McTaggart+Crescent%2C+Kambah+ACT/
391,2902,Kambah,221,https://www.auhouseprices.com/sold/list/ACT/2902/Kambah/,12 Carleton Street ,-35.3821250,149.0497650,house,3,2,1,"$358,000",https://www.auhouseprices.com/sold/view/ACT/341852859/12+Carleton+Street%2C+Kambah+ACT/
392,2902,Kambah,221,https://www.auhouseprices.com/sold/list/ACT/2902/Kambah/,7/15 Weavell Place ,-35.3882080,149.0853210,townhouse,3,2,2,"$455,000",https://www.auhouseprices.com/sold/view/ACT/341790859/7-15+Weavell+Place%2C+Kambah+ACT/
393,2902,Kambah,221,https://www.auhouseprices.com/sold/list/ACT/2902/Kambah/,41 Mannheim Street ,-35.3833370,149.0730150,house,4,2,3,"$660,000",https://www.auhouseprices.com/sold/view/ACT/341653859/41+Mannheim+Street%2C+Kambah+ACT/
394,2902,Kambah,221,https://www.auhouseprices.com/sold/list/ACT/2902/Kambah/,2/45 Wyselaskie Circuit ,-35.3802200,149.0611310,townhouse,2,1,1,"$416,000",https://www.auhouseprices.com/sold/view/ACT/341325759/2-45+Wyselaskie+Circuit%2C+Kambah+ACT/
395,2902,Kambah,221,https://www.auhouseprices.com/sold/list/ACT/2902/Kambah/,27 Mt Vernon Drive ,-35.3880950,149.0354050,house,4,2,3,"$965,000",https://www.auhouseprices.com/sold/view/ACT/341992759/27+Mt+Vernon+Drive%2C+Kambah+ACT/
396,2902,Kambah,221,https://www.auhouseprices.com/sold/list/ACT/2902/Kambah/,9 Hallett ,-35.3764710,149.0622390,house,3,1,2,"$415,000",https://www.auhouseprices.com/sold/view/ACT/341425859/9+Hallett%2C+Kambah+ACT/
397,2902,Kambah,221,https://www.auhouseprices.com/sold/list/ACT/2902/Kambah/,4/15 Weavell Place ,-35.3882080,149.0853210,townhouse,3,2,1,"$467,260",https://www.auhouseprices.com/sold/view/ACT/341714659/4-15+Weavell+Place%2C+Kambah+ACT/
398,2902,Kambah,221,https://www.auhouseprices.com/sold/list/ACT/2902/Kambah/,9 Schlam Place ,-35.3850010,149.0766730,house,4,2,2,"$660,000",https://www.auhouseprices.com/sold/view/ACT/341822659/9+Schlam+Place%2C+Kambah+ACT/
399,2902,Kambah,221,https://www.auhouseprices.com/sold/list/ACT/2902/Kambah/,21 Carleton Street ,-35.3817770,149.0485540,house,4,2,2,"$650,000",https://www.auhouseprices.com/sold/view/ACT/341883559/21+Carleton+Street%2C+Kambah+ACT/
400,2902,Kambah,221,https://www.auhouseprices.com/sold/list/ACT/2902/Kambah/,20 Harrington Circuit ,-35.3776000,149.0580690,house,2,1,2,"$477,000",https://www.auhouseprices.com/sold/view/ACT/341974559/20+Harrington+Circuit%2C+Kambah+ACT/
401,2902,Kambah,221,https://www.auhouseprices.com/sold/list/ACT/2902/Kambah/,110 Boddington Crescent ,-35.3843690,149.0505330,house,3,2,2,"$545,000",https://www.auhouseprices.com/sold/view/ACT/341188569/110+Boddington+Crescent%2C+Kambah+ACT/
402,2902,Kambah,221,https://www.auhouseprices.com/sold/list/ACT/2902/Kambah/,16 McDermott Street ,-35.3910780,149.0745750,house,3,1,1,"$530,000",https://www.auhouseprices.com/sold/view/ACT/341254449/16+McDermott+Street%2C+Kambah+ACT/
403,2902,Kambah,221,https://www.auhouseprices.com/sold/list/ACT/2902/Kambah/,22 Apperly Close ,-35.3923500,149.0432900,house,4,3,2,"$960,000",https://www.auhouseprices.com/sold/view/ACT/341283449/22+Apperly+Close%2C+Kambah+ACT/
404,2902,Kambah,221,https://www.auhouseprices.com/sold/list/ACT/2902/Kambah/,6/49 Pinkerton Circuit ,-35.3995770,149.0654560,townhouse,3,1,1,"$405,000",https://www.auhouseprices.com/sold/view/ACT/341797569/6-49+Pinkerton+Circuit%2C+Kambah+ACT/
405,2902,Kambah,221,https://www.auhouseprices.com/sold/list/ACT/2902/Kambah/,19 McTaggart Crescent ,-35.3859460,149.0884580,house,3,1,1,"$580,000",https://www.auhouseprices.com/sold/view/ACT/341986349/19+McTaggart+Crescent%2C+Kambah+ACT/
406,2902,Kambah,221,https://www.auhouseprices.com/sold/list/ACT/2902/Kambah/,64 Stieglitz Circuit ,-35.4001750,149.0648260,house,3,1,2,"$541,000",https://www.auhouseprices.com/sold/view/ACT/341515659/64+Stieglitz+Circuit%2C+Kambah+ACT/
407,2902,Kambah,221,https://www.auhouseprices.com/sold/list/ACT/2902/Kambah/,12 Fisken Crescent ,-35.3725340,149.0440960,house,5,3,3,"$1,050,000",https://www.auhouseprices.com/sold/view/ACT/341336349/12+Fisken+Crescent%2C+Kambah+ACT/
408,2902,Kambah,221,https://www.auhouseprices.com/sold/list/ACT/2902/Kambah/,35/25 Pinkerton Circuit ,-35.3975390,149.0671370,townhouse,2,1,1,"$362,000",https://www.auhouseprices.com/sold/view/ACT/341415349/35-25+Pinkerton+Circuit%2C+Kambah+ACT/
409,2902,Kambah,221,https://www.auhouseprices.com/sold/list/ACT/2902/Kambah/,48 Morrison Street ,-35.3925910,149.0716700,house,3,1,1,"$507,000",https://www.auhouseprices.com/sold/view/ACT/341547349/48+Morrison+Street%2C+Kambah+ACT/
410,2902,Kambah,221,https://www.auhouseprices.com/sold/list/ACT/2902/Kambah/,53/25 Pinkerton Circuit ,-35.3975390,149.0671370,unit,2,1,1,"$297,000",https://www.auhouseprices.com/sold/view/ACT/341506349/53-25+Pinkerton+Circuit%2C+Kambah+ACT/
411,2902,Kambah,221,https://www.auhouseprices.com/sold/list/ACT/2902/Kambah/,19 Mt Vernon Drive ,-35.3885080,149.0344450,house,4,3,2,,https://www.auhouseprices.com/sold/view/ACT/341034349/19+Mt+Vernon+Drive%2C+Kambah+ACT/
412,2902,Kambah,221,https://www.auhouseprices.com/sold/list/ACT/2902/Kambah/,32 McGivern Crescent ,-35.3736810,149.0470190,house,5,2,2,"$1,200,000",https://www.auhouseprices.com/sold/view/ACT/341363069/32+McGivern+Crescent%2C+Kambah+ACT/
413,2902,Kambah,221,https://www.auhouseprices.com/sold/list/ACT/2902/Kambah/,9/79 Crozier Circuit ,-35.3887430,149.0440670,townhouse,4,2,1,,https://www.auhouseprices.com/sold/view/ACT/341312349/9-79+Crozier+Circuit%2C+Kambah+ACT/
414,2902,Kambah,221,https://www.auhouseprices.com/sold/list/ACT/2902/Kambah/,15 Karney Street ,-35.3885160,149.0578320,house,5,3,3,"$750,000",https://www.auhouseprices.com/sold/view/ACT/341550249/15+Karney+Street%2C+Kambah+ACT/
415,2902,Kambah,221,https://www.auhouseprices.com/sold/list/ACT/2902/Kambah/,2C Everard Place ,-35.3884680,149.0530450,townhouse,1,1,1,"$385,000",https://www.auhouseprices.com/sold/view/ACT/341631349/2C+Everard+Place%2C+Kambah+ACT/
416,2902,Kambah,221,https://www.auhouseprices.com/sold/list/ACT/2902/Kambah/,5 Amos Place ,-35.4015290,149.0626230,house,3,1,2,"$480,000",https://www.auhouseprices.com/sold/view/ACT/341816249/5+Amos+Place%2C+Kambah+ACT/
417,2902,Kambah,221,https://www.auhouseprices.com/sold/list/ACT/2902/Kambah/,9 Severne Crescent ,-35.3910480,149.0703470,house,4,2,2,"$629,000",https://www.auhouseprices.com/sold/view/ACT/341073069/9+Severne+Crescent%2C+Kambah+ACT/
418,2902,Kambah,221,https://www.auhouseprices.com/sold/list/ACT/2902/Kambah/,12 Vansittart Crescent ,-35.3968640,149.0636880,house,3,2,2,"$450,000",https://www.auhouseprices.com/sold/view/ACT/341295449/12+Vansittart+Crescent%2C+Kambah+ACT/
419,2902,Kambah,221,https://www.auhouseprices.com/sold/list/ACT/2902/Kambah/,32 Vansittart Crescent ,-35.3990400,149.0634370,house,4,1,2,"$575,000",https://www.auhouseprices.com/sold/view/ACT/341538249/32+Vansittart+Crescent%2C+Kambah+ACT/
420,2902,Kambah,221,https://www.auhouseprices.com/sold/list/ACT/2902/Kambah/,97 Allchin Circuit ,-35.3778000,149.0407580,house,4,3,4,"$1,257,000",https://www.auhouseprices.com/sold/view/ACT/341182149/97+Allchin+Circuit%2C+Kambah+ACT/
421,2902,Kambah,221,https://www.auhouseprices.com/sold/list/ACT/2902/Kambah/,99 O'Halloran Circuit ,-35.3959610,149.0618720,house,3,1,2,,https://www.auhouseprices.com/sold/view/ACT/341590049/99+O%27Halloran+Circuit%2C+Kambah+ACT/
422,2902,Kambah,221,https://www.auhouseprices.com/sold/list/ACT/2902/Kambah/,30/83 Crozier Circuit ,-35.3887440,149.0440200,townhouse,4,2,1,"$860,000",https://www.auhouseprices.com/sold/view/ACT/341274849/30-83+Crozier+Circuit%2C+Kambah+ACT/
423,2902,Kambah,221,https://www.auhouseprices.com/sold/list/ACT/2902/Kambah/,4/59 Pinkerton Circuit ,-35.3990630,149.0645720,townhouse,2,1,1,"$385,000",https://www.auhouseprices.com/sold/view/ACT/341158949/4-59+Pinkerton+Circuit%2C+Kambah+ACT/
424,2902,Kambah,221,https://www.auhouseprices.com/sold/list/ACT/2902/Kambah/,64 Tepper Circuit ,-35.3784890,149.0527380,house,3,1,1,"$466,000",https://www.auhouseprices.com/sold/view/ACT/341865439/64+Tepper+Circuit%2C+Kambah+ACT/
425,2902,Kambah,221,https://www.auhouseprices.com/sold/list/ACT/2902/Kambah/,12/49 Pinkerton Circuit ,-35.3995770,149.0654560,townhouse,3,1,1,"$370,000",https://www.auhouseprices.com/sold/view/ACT/341858949/12-49+Pinkerton+Circuit%2C+Kambah+ACT/
426,2902,Kambah,221,https://www.auhouseprices.com/sold/list/ACT/2902/Kambah/,6 Rudder Place ,-35.3942650,149.0482840,house,4,4,2,"$740,000",https://www.auhouseprices.com/sold/view/ACT/341038449/6+Rudder+Place%2C+Kambah+ACT/
427,2902,Kambah,221,https://www.auhouseprices.com/sold/list/ACT/2902/Kambah/,40 Stieglitz Circuit ,-35.4012600,149.0640900,house,4,2,2,"$772,000",https://www.auhouseprices.com/sold/view/ACT/341930339/40+Stieglitz+Circuit%2C+Kambah+ACT/
428,2902,Kambah,221,https://www.auhouseprices.com/sold/list/ACT/2902/Kambah/,45 Ragless Circuit ,-35.3982040,149.0598780,house,4,1,1,,https://www.auhouseprices.com/sold/view/ACT/341477949/45+Ragless+Circuit%2C+Kambah+ACT/
429,2902,Kambah,221,https://www.auhouseprices.com/sold/list/ACT/2902/Kambah/,54 Bissenberger Crescent ,-35.3820110,149.0704420,house,3,1,2,"$560,000",https://www.auhouseprices.com/sold/view/ACT/341426149/54+Bissenberger+Crescent%2C+Kambah+ACT/
