,Postcode,Suburb Name,Recent Sales,Suburb Link,Street Address,Latitude,Longitude,Property Type,Beds,Baths,Cars,Sold Price,Property Link
0,2602,O'Connor,49,https://www.auhouseprices.com/sold/list/ACT/2602/O%27Connor/,44/12 Correa Street ,-35.2519319,149.1220604,apartment,2,1,1,"$370,000",https://www.auhouseprices.com/sold/view/ACT/341635370/44-12+Correa+Street%2C+O%27Connor+ACT/
1,2602,O'Connor,49,https://www.auhouseprices.com/sold/list/ACT/2602/O%27Connor/,28 Boobialla Street ,-35.2503737,149.1163228,house,5,3,2,,https://www.auhouseprices.com/sold/view/ACT/341151370/28+Boobialla+Street%2C+O%27Connor+ACT/
2,2602,O'Connor,49,https://www.auhouseprices.com/sold/list/ACT/2602/O%27Connor/,14/41 David Street ,-35.2643806,149.1231391,unit,1,1,1,"$262,000",https://www.auhouseprices.com/sold/view/ACT/341772370/14-41+David+Street%2C+O%27Connor+ACT/
3,2602,O'Connor,49,https://www.auhouseprices.com/sold/list/ACT/2602/O%27Connor/,6 Blackbutt Street ,-35.2483915,149.1188318,house,3,2,1,,https://www.auhouseprices.com/sold/view/ACT/341883270/6+Blackbutt+Street%2C+O%27Connor+ACT/
4,2602,O'Connor,49,https://www.auhouseprices.com/sold/list/ACT/2602/O%27Connor/,7 Bursaria Street ,-35.2495206,149.1181908,house,3,1,1,"$1,650,000",https://www.auhouseprices.com/sold/view/ACT/341933270/7+Bursaria+Street%2C+O%27Connor+ACT/
5,2602,O'Connor,49,https://www.auhouseprices.com/sold/list/ACT/2602/O%27Connor/,9C Boronia Drive ,-35.2542244,149.1171339,house,3,2,2,"$1,175,000",https://www.auhouseprices.com/sold/view/ACT/341359070/9C+Boronia+Drive%2C+O%27Connor+ACT/
6,2602,O'Connor,49,https://www.auhouseprices.com/sold/list/ACT/2602/O%27Connor/,5/4 Hardman Street ,-35.2648508,149.1210124,apartment,1,1,1,"$430,000",https://www.auhouseprices.com/sold/view/ACT/341189070/5-4+Hardman+Street%2C+O%27Connor+ACT/
7,2602,O'Connor,49,https://www.auhouseprices.com/sold/list/ACT/2602/O%27Connor/,5 Jarrah Street ,-35.2558120,149.1254434,house,3,2,2,"$1,750,000",https://www.auhouseprices.com/sold/view/ACT/341728070/5+Jarrah+Street%2C+O%27Connor+ACT/
8,2602,O'Connor,49,https://www.auhouseprices.com/sold/list/ACT/2602/O%27Connor/,88 Scrivener Street ,-35.2537431,149.1179930,house,4,2,2,"$1,475,000",https://www.auhouseprices.com/sold/view/ACT/341853070/88+Scrivener+Street%2C+O%27Connor+ACT/
9,2602,O'Connor,49,https://www.auhouseprices.com/sold/list/ACT/2602/O%27Connor/,2 Hemmant Street ,-35.2612579,149.1135613,house,8,4,2,"$1,985,000",https://www.auhouseprices.com/sold/view/ACT/341882070/2+Hemmant+Street%2C+O%27Connor+ACT/
10,2602,O'Connor,49,https://www.auhouseprices.com/sold/list/ACT/2602/O%27Connor/,23/41 David Street ,-35.2643806,149.1231391,apartment,1,1,1,"$270,000",https://www.auhouseprices.com/sold/view/ACT/341966870/23-41+David+Street%2C+O%27Connor+ACT/
11,2602,O'Connor,49,https://www.auhouseprices.com/sold/list/ACT/2602/O%27Connor/,5/3 Bagot Street ,-35.2621729,149.1271967,apartment,2,1,1,"$615,000",https://www.auhouseprices.com/sold/view/ACT/341067870/5-3+Bagot+Street%2C+O%27Connor+ACT/
12,2602,O'Connor,49,https://www.auhouseprices.com/sold/list/ACT/2602/O%27Connor/,4/40 Moorhouse Street ,-35.2634302,149.1210540,townhouse,1,1,1,"$550,000",https://www.auhouseprices.com/sold/view/ACT/341304870/4-40+Moorhouse+Street%2C+O%27Connor+ACT/
13,2602,O'Connor,49,https://www.auhouseprices.com/sold/list/ACT/2602/O%27Connor/,10/16 Berrigan Crescent ,-35.2585901,149.1289495,apartment,1,1,1,"$430,000",https://www.auhouseprices.com/sold/view/ACT/341547270/10-16+Berrigan+Crescent%2C+O%27Connor+ACT/
14,2602,O'Connor,49,https://www.auhouseprices.com/sold/list/ACT/2602/O%27Connor/,7 Coolibah Crescent ,-35.2585268,149.1217774,house,3,1,3,"$1,350,000",https://www.auhouseprices.com/sold/view/ACT/341927570/7+Coolibah+Crescent%2C+O%27Connor+ACT/
15,2602,O'Connor,49,https://www.auhouseprices.com/sold/list/ACT/2602/O%27Connor/,14/15 Berrigan Crescent ,-35.2593756,149.1288821,apartment,2,2,2,"$500,000",https://www.auhouseprices.com/sold/view/ACT/341256570/14-15+Berrigan+Crescent%2C+O%27Connor+ACT/
16,2602,O'Connor,49,https://www.auhouseprices.com/sold/list/ACT/2602/O%27Connor/,23 Hovea Street ,-35.2568943,149.1238780,house,5,4,3,"$2,615,000",https://www.auhouseprices.com/sold/view/ACT/341762570/23+Hovea+Street%2C+O%27Connor+ACT/
17,2602,O'Connor,49,https://www.auhouseprices.com/sold/list/ACT/2602/O%27Connor/,26 Westgarth Street ,-35.2635809,149.1173367,house,3,1,1,"$1,460,000",https://www.auhouseprices.com/sold/view/ACT/341882570/26+Westgarth+Street%2C+O%27Connor+ACT/
18,2602,O'Connor,49,https://www.auhouseprices.com/sold/list/ACT/2602/O%27Connor/,28 Scrivener Street ,-35.2563439,149.1249297,house,3,2,1,,https://www.auhouseprices.com/sold/view/ACT/341415770/28+Scrivener+Street%2C+O%27Connor+ACT/
19,2602,O'Connor,49,https://www.auhouseprices.com/sold/list/ACT/2602/O%27Connor/,11/27 Berrigan Crescent ,-35.2585601,149.1286080,apartment,2,2,1,"$611,111",https://www.auhouseprices.com/sold/view/ACT/341212460/11-27+Berrigan+Crescent%2C+O%27Connor+ACT/
20,2602,O'Connor,49,https://www.auhouseprices.com/sold/list/ACT/2602/O%27Connor/,17A Faunce Crescent ,-35.2661449,149.1153709,house,3,2,2,"$875,000",https://www.auhouseprices.com/sold/view/ACT/341894360/17A+Faunce+Crescent%2C+O%27Connor+ACT/
21,2602,O'Connor,49,https://www.auhouseprices.com/sold/list/ACT/2602/O%27Connor/,7 Burt Street ,-35.2618023,149.1215990,house,4,2,2,,https://www.auhouseprices.com/sold/view/ACT/341930260/7+Burt+Street%2C+O%27Connor+ACT/
22,2602,O'Connor,49,https://www.auhouseprices.com/sold/list/ACT/2602/O%27Connor/,8/41 David Street ,-35.2643806,149.1231391,apartment,2,1,1,"$417,000",https://www.auhouseprices.com/sold/view/ACT/341381360/8-41+David+Street%2C+O%27Connor+ACT/
23,2602,O'Connor,49,https://www.auhouseprices.com/sold/list/ACT/2602/O%27Connor/,18 Cassinia Street ,-35.2511545,149.1201236,house,4,2,2,"$1,555,000",https://www.auhouseprices.com/sold/view/ACT/341147160/18+Cassinia+Street%2C+O%27Connor+ACT/
24,2602,O'Connor,49,https://www.auhouseprices.com/sold/list/ACT/2602/O%27Connor/,42 Scrivener Street ,-35.2561894,149.1234640,house,3,2,2,"$1,456,000",https://www.auhouseprices.com/sold/view/ACT/341421060/42+Scrivener+Street%2C+O%27Connor+ACT/
25,2602,O'Connor,49,https://www.auhouseprices.com/sold/list/ACT/2602/O%27Connor/,4/4 Verdon Street ,-35.2616363,149.1284906,apartment,1,1,1,"$411,900",https://www.auhouseprices.com/sold/view/ACT/341804960/4-4+Verdon+Street%2C+O%27Connor+ACT/
26,2602,O'Connor,49,https://www.auhouseprices.com/sold/list/ACT/2602/O%27Connor/,3 Lord Street ,-35.2617663,149.1159376,house,3,1,2,"$1,400,000",https://www.auhouseprices.com/sold/view/ACT/341628760/3+Lord+Street%2C+O%27Connor+ACT/
27,2602,O'Connor,49,https://www.auhouseprices.com/sold/list/ACT/2602/O%27Connor/,35/8 Correa Street ,-35.2520894,149.1218228,apartment,1,1,1,"$270,000",https://www.auhouseprices.com/sold/view/ACT/341223760/35-8+Correa+Street%2C+O%27Connor+ACT/
28,2602,O'Connor,49,https://www.auhouseprices.com/sold/list/ACT/2602/O%27Connor/,144 Miller Street ,-35.2511278,149.1185623,house,4,2,2,"$1,320,000",https://www.auhouseprices.com/sold/view/ACT/341449660/144+Miller+Street%2C+O%27Connor+ACT/
29,2602,O'Connor,49,https://www.auhouseprices.com/sold/list/ACT/2602/O%27Connor/,10 Myall Street ,-35.2563398,149.1169395,house,3,1,3,"$1,075,000",https://www.auhouseprices.com/sold/view/ACT/341909660/10+Myall+Street%2C+O%27Connor+ACT/
30,2602,O'Connor,49,https://www.auhouseprices.com/sold/list/ACT/2602/O%27Connor/,4 Yapunyah Street ,-35.2571633,149.1141803,house,2,1,2,"$1,320,000",https://www.auhouseprices.com/sold/view/ACT/341486560/4+Yapunyah+Street%2C+O%27Connor+ACT/
31,2602,O'Connor,49,https://www.auhouseprices.com/sold/list/ACT/2602/O%27Connor/,24 Quandong Street ,-35.2561436,149.1147583,house,3,2,2,"$1,795,000",https://www.auhouseprices.com/sold/view/ACT/341287560/24+Quandong+Street%2C+O%27Connor+ACT/
32,2602,O'Connor,49,https://www.auhouseprices.com/sold/list/ACT/2602/O%27Connor/,22 Syme Crescent ,-35.2663280,149.1143898,house,4,3,2,"$1,280,000",https://www.auhouseprices.com/sold/view/ACT/341891960/22+Syme+Crescent%2C+O%27Connor+ACT/
33,2602,O'Connor,49,https://www.auhouseprices.com/sold/list/ACT/2602/O%27Connor/,21 Scrivener Street ,-35.2567986,149.1257329,house,2,1,1,,https://www.auhouseprices.com/sold/view/ACT/341715450/21+Scrivener+Street%2C+O%27Connor+ACT/
34,2602,O'Connor,49,https://www.auhouseprices.com/sold/list/ACT/2602/O%27Connor/,4 Ross Street ,-35.2658846,149.1175726,house,2,1,0,"$1,310,000",https://www.auhouseprices.com/sold/view/ACT/341375450/4+Ross+Street%2C+O%27Connor+ACT/
35,2602,O'Connor,49,https://www.auhouseprices.com/sold/list/ACT/2602/O%27Connor/,8/4 Verdon Street ,-35.2616363,149.1284906,apartment,1,1,1,"$378,000",https://www.auhouseprices.com/sold/view/ACT/341308350/8-4+Verdon+Street%2C+O%27Connor+ACT/
36,2602,O'Connor,49,https://www.auhouseprices.com/sold/list/ACT/2602/O%27Connor/,12 Karri Street ,-35.2548947,149.1232653,house,3,2,2,"$1,235,000",https://www.auhouseprices.com/sold/view/ACT/341489250/12+Karri+Street%2C+O%27Connor+ACT/
37,2602,O'Connor,49,https://www.auhouseprices.com/sold/list/ACT/2602/O%27Connor/,2/9 Fairfax Street ,-35.2596311,149.1140626,house,4,2,3,"$1,275,000",https://www.auhouseprices.com/sold/view/ACT/341510250/2-9+Fairfax+Street%2C+O%27Connor+ACT/
38,2602,O'Connor,49,https://www.auhouseprices.com/sold/list/ACT/2602/O%27Connor/,3 Banner Street ,-35.2650198,149.1154726,house,4,2,2,"$1,086,000",https://www.auhouseprices.com/sold/view/ACT/341096250/3+Banner+Street%2C+O%27Connor+ACT/
39,2602,O'Connor,49,https://www.auhouseprices.com/sold/list/ACT/2602/O%27Connor/,89 Wattle Street ,-35.2524005,149.1241234,house,5,2,2,"$1,375,000",https://www.auhouseprices.com/sold/view/ACT/341031250/89+Wattle+Street%2C+O%27Connor+ACT/
40,2602,O'Connor,49,https://www.auhouseprices.com/sold/list/ACT/2602/O%27Connor/,16 Dianella Street ,-35.2531022,149.1200974,house,4,1,3,"$1,285,000",https://www.auhouseprices.com/sold/view/ACT/341907050/16+Dianella+Street%2C+O%27Connor+ACT/
41,2602,O'Connor,49,https://www.auhouseprices.com/sold/list/ACT/2602/O%27Connor/,21 Cockle Street ,-35.2627104,149.1135001,house,3,1,1,"$1,280,000",https://www.auhouseprices.com/sold/view/ACT/341852950/21+Cockle+Street%2C+O%27Connor+ACT/
42,2602,O'Connor,49,https://www.auhouseprices.com/sold/list/ACT/2602/O%27Connor/,2/5 David Street ,-35.2611728,149.1301861,townhouse,3,2,2,"$707,500",https://www.auhouseprices.com/sold/view/ACT/341059850/2-5+David+Street%2C+O%27Connor+ACT/
43,2602,O'Connor,49,https://www.auhouseprices.com/sold/list/ACT/2602/O%27Connor/,6 Greenhood Place ,-35.2519462,149.1160999,house,5,2,2,"$1,650,000",https://www.auhouseprices.com/sold/view/ACT/341017650/6+Greenhood+Place%2C+O%27Connor+ACT/
44,2602,O'Connor,49,https://www.auhouseprices.com/sold/list/ACT/2602/O%27Connor/,161 Miller Street ,-35.2510854,149.1178909,house,4,1,1,"$1,115,000",https://www.auhouseprices.com/sold/view/ACT/341602650/161+Miller+Street%2C+O%27Connor+ACT/
45,2602,O'Connor,49,https://www.auhouseprices.com/sold/list/ACT/2602/O%27Connor/,77 Scrivener Street ,-35.2544014,149.1184937,house,6,2,2,"$1,345,000",https://www.auhouseprices.com/sold/view/ACT/341169550/77+Scrivener+Street%2C+O%27Connor+ACT/
46,2602,O'Connor,49,https://www.auhouseprices.com/sold/list/ACT/2602/O%27Connor/,47/30 Bluebell Street ,-35.2631147,149.1228467,unit,2,2,1,,https://www.auhouseprices.com/sold/view/ACT/341687550/47-30+Bluebell+Street%2C+O%27Connor+ACT/
47,2602,O'Connor,49,https://www.auhouseprices.com/sold/list/ACT/2602/O%27Connor/,9 Finn Street ,-35.2615181,149.1182723,house,3,1,2,"$990,000",https://www.auhouseprices.com/sold/view/ACT/341294550/9+Finn+Street%2C+O%27Connor+ACT/
48,2602,O'Connor,49,https://www.auhouseprices.com/sold/list/ACT/2602/O%27Connor/,12 Belah Street ,-35.2576487,149.1255793,house,3,1,1,"$1,007,000",https://www.auhouseprices.com/sold/view/ACT/341904440/12+Belah+Street%2C+O%27Connor+ACT/
49,2602,O'Connor,49,https://www.auhouseprices.com/sold/list/ACT/2602/O%27Connor/,15A Robinson Street ,-35.2647788,149.1184323,townhouse,3,2,2,,https://www.auhouseprices.com/sold/view/ACT/341406340/15A+Robinson+Street%2C+O%27Connor+ACT/
50,2602,O'Connor,49,https://www.auhouseprices.com/sold/list/ACT/2602/O%27Connor/,11/5 Verdon Street ,-35.2615623,149.1280820,unit,1,1,1,"$425,000",https://www.auhouseprices.com/sold/view/ACT/341821340/11-5+Verdon+Street%2C+O%27Connor+ACT/
51,2602,O'Connor,49,https://www.auhouseprices.com/sold/list/ACT/2602/O%27Connor/,10/35 Berrigan Crescent ,-35.2578158,149.1288962,unit,1,1,1,"$395,000",https://www.auhouseprices.com/sold/view/ACT/341265340/10-35+Berrigan+Crescent%2C+O%27Connor+ACT/
52,2602,O'Connor,49,https://www.auhouseprices.com/sold/list/ACT/2602/O%27Connor/,17 Boobialla Street ,-35.2515193,149.1147371,house,3,1,2,,https://www.auhouseprices.com/sold/view/ACT/341728240/17+Boobialla+Street%2C+O%27Connor+ACT/
53,2602,O'Connor,49,https://www.auhouseprices.com/sold/list/ACT/2602/O%27Connor/,29 Banner Street ,-35.2626331,149.1158612,house,3,1,1,"$1,120,000",https://www.auhouseprices.com/sold/view/ACT/341364240/29+Banner+Street%2C+O%27Connor+ACT/
54,2602,O'Connor,49,https://www.auhouseprices.com/sold/list/ACT/2602/O%27Connor/,48 Cockle Street ,-35.2600415,149.1135297,house,3,2,2,"$1,305,000",https://www.auhouseprices.com/sold/view/ACT/341616140/48+Cockle+Street%2C+O%27Connor+ACT/
55,2602,O'Connor,49,https://www.auhouseprices.com/sold/list/ACT/2602/O%27Connor/,9 Robinson Street ,-35.2651379,149.1190260,house,4,2,2,"$1,630,000",https://www.auhouseprices.com/sold/view/ACT/341085040/9+Robinson+Street%2C+O%27Connor+ACT/
56,2602,O'Connor,49,https://www.auhouseprices.com/sold/list/ACT/2602/O%27Connor/,9/16-18 Berrigan Crescent ,-35.2585901,149.1289495,apartment,1,1,1,"$404,000",https://www.auhouseprices.com/sold/view/ACT/341216940/9-16-18+Berrigan+Crescent%2C+O%27Connor+ACT/
57,2602,O'Connor,49,https://www.auhouseprices.com/sold/list/ACT/2602/O%27Connor/,11 Hemmant Street ,-35.2611063,149.1124362,house,4,2,5,"$1,200,000",https://www.auhouseprices.com/sold/view/ACT/341130940/11+Hemmant+Street%2C+O%27Connor+ACT/
58,2602,O'Connor,49,https://www.auhouseprices.com/sold/list/ACT/2602/O%27Connor/,100 Dryandra Street ,-35.2597388,149.1107344,house,4,3,3,,https://www.auhouseprices.com/sold/view/ACT/341845840/100+Dryandra+Street%2C+O%27Connor+ACT/
59,2602,O'Connor,49,https://www.auhouseprices.com/sold/list/ACT/2602/O%27Connor/,2/16 Berrigan Street ,-35.2585901,149.1289495,unit,1,1,1,"$430,000",https://www.auhouseprices.com/sold/view/ACT/341742840/2-16+Berrigan+Street%2C+O%27Connor+ACT/
60,2602,O'Connor,49,https://www.auhouseprices.com/sold/list/ACT/2602/O%27Connor/,158 Miller Street ,-35.2503581,149.1197841,house,3,2,1,"$950,000",https://www.auhouseprices.com/sold/view/ACT/341177740/158+Miller+Street%2C+O%27Connor+ACT/
61,2602,O'Connor,49,https://www.auhouseprices.com/sold/list/ACT/2602/O%27Connor/,27/22 MacPherson Street ,-35.2631398,149.1214184,apartment,2,2,1,,https://www.auhouseprices.com/sold/view/ACT/341460740/27-22+MacPherson+Street%2C+O%27Connor+ACT/
62,2602,O'Connor,49,https://www.auhouseprices.com/sold/list/ACT/2602/O%27Connor/,27/41 David Street ,-35.2643806,149.1231391,apartment,1,1,1,"$216,000",https://www.auhouseprices.com/sold/view/ACT/341666740/27-41+David+Street%2C+O%27Connor+ACT/
63,2602,O'Connor,49,https://www.auhouseprices.com/sold/list/ACT/2602/O%27Connor/,42 Bluebell Street ,-35.2630222,149.1231839,townhouse,3,2,2,"$970,000",https://www.auhouseprices.com/sold/view/ACT/341698640/42+Bluebell+Street%2C+O%27Connor+ACT/
64,2602,O'Connor,49,https://www.auhouseprices.com/sold/list/ACT/2602/O%27Connor/,3/3 Bagot Street ,-35.2621729,149.1271967,townhouse,2,2,2,"$590,000",https://www.auhouseprices.com/sold/view/ACT/341818540/3-3+Bagot+Street%2C+O%27Connor+ACT/
65,2602,O'Connor,49,https://www.auhouseprices.com/sold/list/ACT/2602/O%27Connor/,84 Scrivener Street ,-35.2540214,149.1185717,house,2,1,0,"$758,000",https://www.auhouseprices.com/sold/view/ACT/341590529/84+Scrivener+Street%2C+O%27Connor+ACT/
66,2602,O'Connor,49,https://www.auhouseprices.com/sold/list/ACT/2602/O%27Connor/,9/19 Moorhouse Street ,-35.2635458,149.1193406,unit,2,1,1,"$350,500",https://www.auhouseprices.com/sold/view/ACT/341088329/9-19+Moorhouse+Street%2C+O%27Connor+ACT/
67,2602,O'Connor,49,https://www.auhouseprices.com/sold/list/ACT/2602/O%27Connor/,35 Cassinia Street ,-35.2516466,149.1187956,house,4,3,2,"$1,170,000",https://www.auhouseprices.com/sold/view/ACT/341313329/35+Cassinia+Street%2C+O%27Connor+ACT/
68,2602,O'Connor,49,https://www.auhouseprices.com/sold/list/ACT/2602/O%27Connor/,7 Clianthus Street ,-35.2527789,149.1210561,house,3,1,2,"$1,137,000",https://www.auhouseprices.com/sold/view/ACT/341951329/7+Clianthus+Street%2C+O%27Connor+ACT/
69,2602,O'Connor,49,https://www.auhouseprices.com/sold/list/ACT/2602/O%27Connor/,15B Robinson Street ,-35.2647788,149.1184323,house,3,2,2,,https://www.auhouseprices.com/sold/view/ACT/341151229/15B+Robinson+Street%2C+O%27Connor+ACT/
70,2602,O'Connor,49,https://www.auhouseprices.com/sold/list/ACT/2602/O%27Connor/,15B/52 Bluebell Street ,-35.2634593,149.1227348,apartment,1,1,1,"$327,000",https://www.auhouseprices.com/sold/view/ACT/341475529/15B-52+Bluebell+Street%2C+O%27Connor+ACT/
71,2602,O'Connor,49,https://www.auhouseprices.com/sold/list/ACT/2602/O%27Connor/,1/5 David Street ,-35.2611728,149.1301861,townhouse,3,2,2,"$705,000",https://www.auhouseprices.com/sold/view/ACT/341046129/1-5+David+Street%2C+O%27Connor+ACT/
72,2602,O'Connor,49,https://www.auhouseprices.com/sold/list/ACT/2602/O%27Connor/,17/27 Berrigan Crescent ,-35.2585601,149.1286080,apartment,2,2,2,"$575,000",https://www.auhouseprices.com/sold/view/ACT/341123429/17-27+Berrigan+Crescent%2C+O%27Connor+ACT/
73,2602,O'Connor,49,https://www.auhouseprices.com/sold/list/ACT/2602/O%27Connor/,7/35 Berrigan Crescent ,-35.2578158,149.1288962,apartment,1,1,1,"$375,000",https://www.auhouseprices.com/sold/view/ACT/341042029/7-35+Berrigan+Crescent%2C+O%27Connor+ACT/
74,2602,O'Connor,49,https://www.auhouseprices.com/sold/list/ACT/2602/O%27Connor/,19/35 Berrigan Crescent ,-35.2578158,149.1288962,unit,2,2,2,"$560,000",https://www.auhouseprices.com/sold/view/ACT/341941029/19-35+Berrigan+Crescent%2C+O%27Connor+ACT/
75,2602,O'Connor,49,https://www.auhouseprices.com/sold/list/ACT/2602/O%27Connor/,40/39 - 49 Brigalow Street ,-35.2519230,149.1220310,apartment,1,1,1,"$270,000",https://www.auhouseprices.com/sold/view/ACT/341569929/40-39+-+49+Brigalow+Street%2C+O%27Connor+ACT/
76,2602,O'Connor,49,https://www.auhouseprices.com/sold/list/ACT/2602/O%27Connor/,21 Clianthus Street ,-35.2524771,149.1187293,house,3,1,1,"$1,001,000",https://www.auhouseprices.com/sold/view/ACT/341279929/21+Clianthus+Street%2C+O%27Connor+ACT/
77,2602,O'Connor,49,https://www.auhouseprices.com/sold/list/ACT/2602/O%27Connor/,16/18 Macpherson Street ,-35.2633716,149.1215674,unit,2,2,1,"$500,000",https://www.auhouseprices.com/sold/view/ACT/341334929/16-18+Macpherson+Street%2C+O%27Connor+ACT/
78,2602,O'Connor,49,https://www.auhouseprices.com/sold/list/ACT/2602/O%27Connor/,15 Blackbutt Street ,-35.2480750,149.1178565,house,3,2,2,"$1,200,000",https://www.auhouseprices.com/sold/view/ACT/341006829/15+Blackbutt+Street%2C+O%27Connor+ACT/
79,2602,O'Connor,49,https://www.auhouseprices.com/sold/list/ACT/2602/O%27Connor/,10/4 Verdon Street ,-35.2616363,149.1284906,apartment,1,1,1,"$390,000",https://www.auhouseprices.com/sold/view/ACT/341615829/10-4+Verdon+Street%2C+O%27Connor+ACT/
80,2602,O'Connor,49,https://www.auhouseprices.com/sold/list/ACT/2602/O%27Connor/,3 Wilga Place ,-35.2556537,149.1190538,house,4,2,2,"$1,397,000",https://www.auhouseprices.com/sold/view/ACT/341620829/3+Wilga+Place%2C+O%27Connor+ACT/
81,2602,O'Connor,49,https://www.auhouseprices.com/sold/list/ACT/2602/O%27Connor/,2 Way Street ,-35.2594465,149.1166247,house,3,2,1,"$1,220,000",https://www.auhouseprices.com/sold/view/ACT/341175729/2+Way+Street%2C+O%27Connor+ACT/
82,2602,O'Connor,49,https://www.auhouseprices.com/sold/list/ACT/2602/O%27Connor/,53/39 Correa Street ,-35.2517469,149.1220851,apartment,1,1,1,"$220,000",https://www.auhouseprices.com/sold/view/ACT/341544729/53-39+Correa+Street%2C+O%27Connor+ACT/
83,2602,O'Connor,49,https://www.auhouseprices.com/sold/list/ACT/2602/O%27Connor/,6a Boronia Drive ,-35.2545486,149.1164981,house,3,2,2,"$885,000",https://www.auhouseprices.com/sold/view/ACT/341183629/6a+Boronia+Drive%2C+O%27Connor+ACT/
84,2602,O'Connor,49,https://www.auhouseprices.com/sold/list/ACT/2602/O%27Connor/,17 Hakea Crescent ,-35.2568795,149.1216356,house,3,1,1,"$892,000",https://www.auhouseprices.com/sold/view/ACT/341117519/17+Hakea+Crescent%2C+O%27Connor+ACT/
85,2602,O'Connor,49,https://www.auhouseprices.com/sold/list/ACT/2602/O%27Connor/,184 Dryandra Street ,-35.2529693,149.1127526,house,4,2,1,"$1,350,000",https://www.auhouseprices.com/sold/view/ACT/341084519/184+Dryandra+Street%2C+O%27Connor+ACT/
86,2602,O'Connor,49,https://www.auhouseprices.com/sold/list/ACT/2602/O%27Connor/,16/19 Moorhouse Street ,-35.2635458,149.1193406,apartment,1,1,1,"$259,000",https://www.auhouseprices.com/sold/view/ACT/341269419/16-19+Moorhouse+Street%2C+O%27Connor+ACT/
87,2602,O'Connor,49,https://www.auhouseprices.com/sold/list/ACT/2602/O%27Connor/,24 Brigalow Street ,-35.2543638,149.1216689,house,3,1,1,"$1,060,000",https://www.auhouseprices.com/sold/view/ACT/341439419/24+Brigalow+Street%2C+O%27Connor+ACT/
88,2602,O'Connor,49,https://www.auhouseprices.com/sold/list/ACT/2602/O%27Connor/,56/18 Correa Street ,-35.2517001,149.1224280,apartment,1,1,1,"$212,500",https://www.auhouseprices.com/sold/view/ACT/341581419/56-18+Correa+Street%2C+O%27Connor+ACT/
89,2602,O'Connor,49,https://www.auhouseprices.com/sold/list/ACT/2602/O%27Connor/,76 Moorhouse Street ,-35.2625986,149.1227788,house,3,2,2,,https://www.auhouseprices.com/sold/view/ACT/341344319/76+Moorhouse+Street%2C+O%27Connor+ACT/
90,2602,O'Connor,49,https://www.auhouseprices.com/sold/list/ACT/2602/O%27Connor/,1 Dianella Street ,-35.2540492,149.1190450,house,3,2,2,"$1,180,000",https://www.auhouseprices.com/sold/view/ACT/341804319/1+Dianella+Street%2C+O%27Connor+ACT/
91,2602,O'Connor,49,https://www.auhouseprices.com/sold/list/ACT/2602/O%27Connor/,52 Cockle Street ,-35.2600492,149.1130902,house,3,1,0,"$1,111,000",https://www.auhouseprices.com/sold/view/ACT/341988119/52+Cockle+Street%2C+O%27Connor+ACT/
92,2602,O'Connor,49,https://www.auhouseprices.com/sold/list/ACT/2602/O%27Connor/,3/5 Verdon Street ,-35.2615623,149.1280820,apartment,1,1,1,,https://www.auhouseprices.com/sold/view/ACT/341384119/3-5+Verdon+Street%2C+O%27Connor+ACT/
93,2602,O'Connor,49,https://www.auhouseprices.com/sold/list/ACT/2602/O%27Connor/,4 Quandong Street ,-35.2580619,149.1148631,house,3,1,2,"$870,000",https://www.auhouseprices.com/sold/view/ACT/341204919/4+Quandong+Street%2C+O%27Connor+ACT/
94,2602,O'Connor,49,https://www.auhouseprices.com/sold/list/ACT/2602/O%27Connor/,74 Macarthur Avenue ,-35.2602801,149.1281979,house,3,1,1,"$1,065,000",https://www.auhouseprices.com/sold/view/ACT/341680819/74+Macarthur+Avenue%2C+O%27Connor+ACT/
95,2602,O'Connor,49,https://www.auhouseprices.com/sold/list/ACT/2602/O%27Connor/,3/5 David Street ,-35.2610460,149.1301110,townhouse,3,2,2,"$688,000",https://www.auhouseprices.com/sold/view/ACT/341728719/3-5+David+Street%2C+O%27Connor+ACT/
96,2602,O'Connor,49,https://www.auhouseprices.com/sold/list/ACT/2602/O%27Connor/,16/27-29 Moorhouse Street ,-35.2628840,149.1203880,townhouse,1,1,1,,https://www.auhouseprices.com/sold/view/ACT/341297719/16-27-29+Moorhouse+Street%2C+O%27Connor+ACT/
97,2602,O'Connor,49,https://www.auhouseprices.com/sold/list/ACT/2602/O%27Connor/,11/4-6 Hardman Street ,-35.2648508,149.1210124,townhouse,2,2,2,"$718,000",https://www.auhouseprices.com/sold/view/ACT/341496719/11-4-6+Hardman+Street%2C+O%27Connor+ACT/
98,2602,O'Connor,49,https://www.auhouseprices.com/sold/list/ACT/2602/O%27Connor/,2/7 Hardman Street ,-35.2647347,149.1203907,townhouse,3,2,1,,https://www.auhouseprices.com/sold/view/ACT/341724619/2-7+Hardman+Street%2C+O%27Connor+ACT/
99,2602,O'Connor,49,https://www.auhouseprices.com/sold/list/ACT/2602/O%27Connor/,31/41 David Street ,-35.2643806,149.1231391,apartment,1,1,1,"$257,000",https://www.auhouseprices.com/sold/view/ACT/341690509/31-41+David+Street%2C+O%27Connor+ACT/
100,2602,O'Connor,49,https://www.auhouseprices.com/sold/list/ACT/2602/O%27Connor/,25/17 David Street ,-35.2618448,149.1289357,apartment,2,2,2,,https://www.auhouseprices.com/sold/view/ACT/341642719/25-17+David+Street%2C+O%27Connor+ACT/
101,2602,O'Connor,49,https://www.auhouseprices.com/sold/list/ACT/2602/O%27Connor/,1/16 Berrigan Crescent ,-35.2585901,149.1289495,unit,2,2,1,"$535,000",https://www.auhouseprices.com/sold/view/ACT/341657409/1-16+Berrigan+Crescent%2C+O%27Connor+ACT/
102,2602,O'Connor,49,https://www.auhouseprices.com/sold/list/ACT/2602/O%27Connor/,12/15 Berrigan Crescent ,-35.2595000,149.1287470,apartment,1,1,1,"$335,000",https://www.auhouseprices.com/sold/view/ACT/341080309/12-15+Berrigan+Crescent%2C+O%27Connor+ACT/
103,2602,O'Connor,49,https://www.auhouseprices.com/sold/list/ACT/2602/O%27Connor/,9/25 Berrigan Crescent ,-35.2592024,149.1300352,apartment,1,1,1,"$399,000",https://www.auhouseprices.com/sold/view/ACT/341545309/9-25+Berrigan+Crescent%2C+O%27Connor+ACT/
104,2602,O'Connor,49,https://www.auhouseprices.com/sold/list/ACT/2602/O%27Connor/,121 Wattle Street ,-35.2501503,149.1218668,house,5,3,3,"$1,170,000",https://www.auhouseprices.com/sold/view/ACT/341887109/121+Wattle+Street%2C+O%27Connor+ACT/
105,2602,O'Connor,49,https://www.auhouseprices.com/sold/list/ACT/2602/O%27Connor/,60 Moorhouse Street ,-35.2627651,149.1222058,townhouse,3,2,2,"$950,000",https://www.auhouseprices.com/sold/view/ACT/341276909/60+Moorhouse+Street%2C+O%27Connor+ACT/
106,2602,O'Connor,49,https://www.auhouseprices.com/sold/list/ACT/2602/O%27Connor/,7/77 MacArthur Avenue ,-35.2599416,149.1284792,apartment,1,1,1,"$405,000",https://www.auhouseprices.com/sold/view/ACT/341922209/7-77+MacArthur+Avenue%2C+O%27Connor+ACT/
107,2602,O'Connor,49,https://www.auhouseprices.com/sold/list/ACT/2602/O%27Connor/,8 Tate Street ,-35.2626196,149.1166303,house,4,2,2,"$1,650,000",https://www.auhouseprices.com/sold/view/ACT/341963709/8+Tate+Street%2C+O%27Connor+ACT/
108,2602,O'Connor,49,https://www.auhouseprices.com/sold/list/ACT/2602/O%27Connor/,16 Yapunyah Street ,-35.2579234,149.1124745,house,5,2,2,"$1,900,000",https://www.auhouseprices.com/sold/view/ACT/341096609/16+Yapunyah+Street%2C+O%27Connor+ACT/
109,2602,O'Connor,49,https://www.auhouseprices.com/sold/list/ACT/2602/O%27Connor/,8 Busby Street ,-35.2618721,149.1196817,house,3,2,2,"$1,030,000",https://www.auhouseprices.com/sold/view/ACT/341693609/8+Busby+Street%2C+O%27Connor+ACT/
110,2602,O'Connor,49,https://www.auhouseprices.com/sold/list/ACT/2602/O%27Connor/,47 Wattle Street ,-35.2557265,149.1272326,house,3,1,1,"$830,000",https://www.auhouseprices.com/sold/view/ACT/341249399/47+Wattle+Street%2C+O%27Connor+ACT/
111,2602,O'Connor,49,https://www.auhouseprices.com/sold/list/ACT/2602/O%27Connor/,3/7 Hardman Street ,-35.2647347,149.1203907,townhouse,3,2,1,,https://www.auhouseprices.com/sold/view/ACT/341623399/3-7+Hardman+Street%2C+O%27Connor+ACT/
112,2602,O'Connor,49,https://www.auhouseprices.com/sold/list/ACT/2602/O%27Connor/,5/5 David Street ,-35.2611728,149.1301861,townhouse,3,2,2,"$702,000",https://www.auhouseprices.com/sold/view/ACT/341460399/5-5+David+Street%2C+O%27Connor+ACT/
113,2602,O'Connor,49,https://www.auhouseprices.com/sold/list/ACT/2602/O%27Connor/,4/77 MacArthur Avenue ,-35.2597710,149.1284600,terrace,2,2,1,"$485,000",https://www.auhouseprices.com/sold/view/ACT/341166299/4-77+MacArthur+Avenue%2C+O%27Connor+ACT/
114,2602,O'Connor,49,https://www.auhouseprices.com/sold/list/ACT/2602/O%27Connor/,25 Nardoo Crescent ,-35.2548685,149.1134393,house,3,1,1,"$1,150,000",https://www.auhouseprices.com/sold/view/ACT/341904299/25+Nardoo+Crescent%2C+O%27Connor+ACT/
115,2602,O'Connor,49,https://www.auhouseprices.com/sold/list/ACT/2602/O%27Connor/,2 Quandong Street ,-35.2581384,149.1151332,house,4,2,1,"$1,100,000",https://www.auhouseprices.com/sold/view/ACT/341034299/2+Quandong+Street%2C+O%27Connor+ACT/
116,2602,O'Connor,49,https://www.auhouseprices.com/sold/list/ACT/2602/O%27Connor/,31 Nardoo Crescent ,-35.2543343,149.1136761,residential land,4,2,1,"$605,000",https://www.auhouseprices.com/sold/view/ACT/341476199/31+Nardoo+Crescent%2C+O%27Connor+ACT/
117,2602,O'Connor,49,https://www.auhouseprices.com/sold/list/ACT/2602/O%27Connor/,183A Miller Street ,-35.2495258,149.1198245,residential land,4,2,1,"$435,000",https://www.auhouseprices.com/sold/view/ACT/341037199/183A+Miller+Street%2C+O%27Connor+ACT/
118,2602,O'Connor,49,https://www.auhouseprices.com/sold/list/ACT/2602/O%27Connor/,19/41 David Street ,-35.2639000,149.1233470,apartment,1,1,1,"$255,000",https://www.auhouseprices.com/sold/view/ACT/341559299/19-41+David+Street%2C+O%27Connor+ACT/
119,2602,O'Connor,49,https://www.auhouseprices.com/sold/list/ACT/2602/O%27Connor/,12/2 Berrigan Crescent ,-35.2590031,149.1300704,townhouse,3,2,2,"$715,000",https://www.auhouseprices.com/sold/view/ACT/341673999/12-2+Berrigan+Crescent%2C+O%27Connor+ACT/
120,2602,O'Connor,49,https://www.auhouseprices.com/sold/list/ACT/2602/O%27Connor/,36 Cockle Street ,-35.2610049,149.1141152,house,4,2,2,"$1,225,000",https://www.auhouseprices.com/sold/view/ACT/341723999/36+Cockle+Street%2C+O%27Connor+ACT/
121,2602,O'Connor,49,https://www.auhouseprices.com/sold/list/ACT/2602/O%27Connor/,21 Hemmant Street ,-35.2604210,149.1116360,house,3,2,1,"$945,000",https://www.auhouseprices.com/sold/view/ACT/341419899/21+Hemmant+Street%2C+O%27Connor+ACT/
122,2602,O'Connor,49,https://www.auhouseprices.com/sold/list/ACT/2602/O%27Connor/,2/118 Miller Street ,-35.2536446,149.1164111,house,3,2,2,"$1,016,000",https://www.auhouseprices.com/sold/view/ACT/341892899/2-118+Miller+Street%2C+O%27Connor+ACT/
123,2602,O'Connor,49,https://www.auhouseprices.com/sold/list/ACT/2602/O%27Connor/,8 ,-35.2590990,149.1293040,house,1,"$3,900,000",0,"$3,900,000",https://www.auhouseprices.com/sold/view/ACT/341031899/8%2C+10%2C12+and+14+Berrigan+Crescent%2C+O%27Connor+ACT/
124,2602,O'Connor,49,https://www.auhouseprices.com/sold/list/ACT/2602/O%27Connor/,17/41 David Street ,-35.2643806,149.1231391,unit,1,1,1,"$219,000",https://www.auhouseprices.com/sold/view/ACT/341078699/17-41+David+Street%2C+O%27Connor+ACT/
125,2602,O'Connor,49,https://www.auhouseprices.com/sold/list/ACT/2602/O%27Connor/,8 Lobelia Street ,-35.2528880,149.1179158,house,3,1,4,"$925,000",https://www.auhouseprices.com/sold/view/ACT/341977699/8+Lobelia+Street%2C+O%27Connor+ACT/
126,2602,O'Connor,49,https://www.auhouseprices.com/sold/list/ACT/2602/O%27Connor/,7 Hobbs Street ,-35.2674039,149.1131713,house,4,2,1,"$1,280,000",https://www.auhouseprices.com/sold/view/ACT/341546599/7+Hobbs+Street%2C+O%27Connor+ACT/
127,2602,O'Connor,49,https://www.auhouseprices.com/sold/list/ACT/2602/O%27Connor/,46 Bluebell Street ,-35.2632247,149.1231821,townhouse,3,2,2,"$815,000",https://www.auhouseprices.com/sold/view/ACT/341695599/46+Bluebell+Street%2C+O%27Connor+ACT/
128,2602,O'Connor,49,https://www.auhouseprices.com/sold/list/ACT/2602/O%27Connor/,5/4 Berrigan Crescent ,-35.2590230,149.1297660,townhouse,3,2,2,"$805,000",https://www.auhouseprices.com/sold/view/ACT/341983899/5-4+Berrigan+Crescent%2C+O%27Connor+ACT/
129,2602,O'Connor,49,https://www.auhouseprices.com/sold/list/ACT/2602/O%27Connor/,1/19 Moorhouse Street ,-35.2633700,149.1194650,apartment,2,1,1,"$312,000",https://www.auhouseprices.com/sold/view/ACT/341067899/1-19+Moorhouse+Street%2C+O%27Connor+ACT/
130,2602,O'Connor,49,https://www.auhouseprices.com/sold/list/ACT/2602/O%27Connor/,45 Wattle Street ,-35.2558685,149.1273572,house,4,2,1,"$1,055,000",https://www.auhouseprices.com/sold/view/ACT/341215389/45+Wattle+Street%2C+O%27Connor+ACT/
131,2602,O'Connor,49,https://www.auhouseprices.com/sold/list/ACT/2602/O%27Connor/,67 Wattle Street ,-35.2539776,149.1255079,house,3,1,1,"$790,000",https://www.auhouseprices.com/sold/view/ACT/341728389/67+Wattle+Street%2C+O%27Connor+ACT/
132,2602,O'Connor,49,https://www.auhouseprices.com/sold/list/ACT/2602/O%27Connor/,13 Hart Street ,-35.2610496,149.1172269,house,4,2,0,"$1,700,000",https://www.auhouseprices.com/sold/view/ACT/341077289/13+Hart+Street%2C+O%27Connor+ACT/
133,2602,O'Connor,49,https://www.auhouseprices.com/sold/list/ACT/2602/O%27Connor/,9 Busby Street ,-35.2616426,149.1193966,house,3,1,2,"$915,000",https://www.auhouseprices.com/sold/view/ACT/341326289/9+Busby+Street%2C+O%27Connor+ACT/
134,2602,O'Connor,49,https://www.auhouseprices.com/sold/list/ACT/2602/O%27Connor/,23/17 David Street ,-35.2616890,149.1286990,unit,2,2,1,"$490,000",https://www.auhouseprices.com/sold/view/ACT/341797189/23-17+David+Street%2C+O%27Connor+ACT/
135,2602,O'Connor,49,https://www.auhouseprices.com/sold/list/ACT/2602/O%27Connor/,2/43 Boobialla Street ,-35.2491610,149.1162030,house,4,2,2,"$1,240,000",https://www.auhouseprices.com/sold/view/ACT/341636309/2-43+Boobialla+Street%2C+O%27Connor+ACT/
136,2602,O'Connor,49,https://www.auhouseprices.com/sold/list/ACT/2602/O%27Connor/,13 Dianella Street ,-35.2530430,149.1195880,residential land,4,2,2,"$926,000",https://www.auhouseprices.com/sold/view/ACT/341011089/13+Dianella+Street%2C+O%27Connor+ACT/
137,2602,O'Connor,49,https://www.auhouseprices.com/sold/list/ACT/2602/O%27Connor/,30/48 Bluebell Street ,-35.2633040,149.1229680,apartment,2,2,1,"$483,000",https://www.auhouseprices.com/sold/view/ACT/341339989/30-48+Bluebell+Street%2C+O%27Connor+ACT/
138,2602,O'Connor,49,https://www.auhouseprices.com/sold/list/ACT/2602/O%27Connor/,12 Hemmant Street ,-35.2606690,149.1125080,house,3,1,1,"$840,000",https://www.auhouseprices.com/sold/view/ACT/341395089/12+Hemmant+Street%2C+O%27Connor+ACT/
139,2602,O'Connor,49,https://www.auhouseprices.com/sold/list/ACT/2602/O%27Connor/,6 Quandong Street ,-35.2579070,149.1148460,house,4,2,2,"$1,400,000",https://www.auhouseprices.com/sold/view/ACT/341850989/6+Quandong+Street%2C+O%27Connor+ACT/
140,2602,O'Connor,49,https://www.auhouseprices.com/sold/list/ACT/2602/O%27Connor/,3/27 David Street ,-35.2622130,149.1277750,townhouse,2,1,2,"$486,500",https://www.auhouseprices.com/sold/view/ACT/341894889/3-27+David+Street%2C+O%27Connor+ACT/
141,2602,O'Connor,49,https://www.auhouseprices.com/sold/list/ACT/2602/O%27Connor/,10 Hakea Crescent ,-35.2576080,149.1232170,house,3,2,2,"$1,460,000",https://www.auhouseprices.com/sold/view/ACT/341628789/10+Hakea+Crescent%2C+O%27Connor+ACT/
142,2602,O'Connor,49,https://www.auhouseprices.com/sold/list/ACT/2602/O%27Connor/,32 Cockle Street ,-35.2613870,149.1142090,house,3,1,1,"$867,500",https://www.auhouseprices.com/sold/view/ACT/341466689/32+Cockle+Street%2C+O%27Connor+ACT/
143,2602,O'Connor,49,https://www.auhouseprices.com/sold/list/ACT/2602/O%27Connor/,53 Cassinia Street ,-35.2505710,149.1202670,house,3,1,1,"$845,000",https://www.auhouseprices.com/sold/view/ACT/341586689/53+Cassinia+Street%2C+O%27Connor+ACT/
144,2602,O'Connor,49,https://www.auhouseprices.com/sold/list/ACT/2602/O%27Connor/,62 Dryandra Street ,-35.2630760,149.1127380,house,4,3,3,"$1,145,000",https://www.auhouseprices.com/sold/view/ACT/341120789/62+Dryandra+Street%2C+O%27Connor+ACT/
145,2602,O'Connor,49,https://www.auhouseprices.com/sold/list/ACT/2602/O%27Connor/,106 Scrivener Street ,-35.2526670,149.1160260,house,3,1,1,"$880,000",https://www.auhouseprices.com/sold/view/ACT/341950479/106+Scrivener+Street%2C+O%27Connor+ACT/
146,2602,O'Connor,49,https://www.auhouseprices.com/sold/list/ACT/2602/O%27Connor/,34 Macpherson Street ,-35.2613990,149.1211660,house,4,2,2,"$1,650,000",https://www.auhouseprices.com/sold/view/ACT/341759379/34+Macpherson+Street%2C+O%27Connor+ACT/
147,2602,O'Connor,49,https://www.auhouseprices.com/sold/list/ACT/2602/O%27Connor/,6B Boronia Drive ,-35.2547330,149.1163910,villa,3,2,2,"$915,000",https://www.auhouseprices.com/sold/view/ACT/341390379/6B+Boronia+Drive%2C+O%27Connor+ACT/
148,2602,O'Connor,49,https://www.auhouseprices.com/sold/list/ACT/2602/O%27Connor/,112 Macarthur Avenue ,-35.2605270,149.1295480,house,5,3,2,"$926,000",https://www.auhouseprices.com/sold/view/ACT/341093379/112+Macarthur+Avenue%2C+O%27Connor+ACT/
149,2602,O'Connor,49,https://www.auhouseprices.com/sold/list/ACT/2602/O%27Connor/,66 Scrivener Street ,-35.2548280,149.1205370,house,3,1,0,"$1,220,000",https://www.auhouseprices.com/sold/view/ACT/341172379/66+Scrivener+Street%2C+O%27Connor+ACT/
150,2602,O'Connor,49,https://www.auhouseprices.com/sold/list/ACT/2602/O%27Connor/,28 Scrivener Street ,-35.2562420,149.1249460,house,3,2,1,,https://www.auhouseprices.com/sold/view/ACT/341117279/28+Scrivener+Street%2C+O%27Connor+ACT/
151,2602,O'Connor,49,https://www.auhouseprices.com/sold/list/ACT/2602/O%27Connor/,20/35 Berrigan Crescent ,-35.2577180,149.1288050,unit,1,1,1,"$365,500",https://www.auhouseprices.com/sold/view/ACT/341105279/20-35+Berrigan+Crescent%2C+O%27Connor+ACT/
152,2602,O'Connor,49,https://www.auhouseprices.com/sold/list/ACT/2602/O%27Connor/,9 Hovea Street ,-35.2582040,149.1235260,house,3,1,0,"$925,000",https://www.auhouseprices.com/sold/view/ACT/341614179/9+Hovea+Street%2C+O%27Connor+ACT/
153,2602,O'Connor,49,https://www.auhouseprices.com/sold/list/ACT/2602/O%27Connor/,1 Lobelia Street ,-35.2532420,149.1171790,house,3,2,1,"$855,000",https://www.auhouseprices.com/sold/view/ACT/341380079/1+Lobelia+Street%2C+O%27Connor+ACT/
154,2602,O'Connor,49,https://www.auhouseprices.com/sold/list/ACT/2602/O%27Connor/,29 Faunce Crescent ,-35.2656110,149.1135720,house,3,1,2,,https://www.auhouseprices.com/sold/view/ACT/341049079/29+Faunce+Crescent%2C+O%27Connor+ACT/
155,2602,O'Connor,49,https://www.auhouseprices.com/sold/list/ACT/2602/O%27Connor/,169 Wattle Street ,-35.2466990,149.1178890,house,4,1,1,"$1,005,000",https://www.auhouseprices.com/sold/view/ACT/341356079/169+Wattle+Street%2C+O%27Connor+ACT/
156,2602,O'Connor,49,https://www.auhouseprices.com/sold/list/ACT/2602/O%27Connor/,52 Moorhouse Street ,-35.2629350,149.1219840,townhouse,3,2,2,"$840,000",https://www.auhouseprices.com/sold/view/ACT/341569979/52+Moorhouse+Street%2C+O%27Connor+ACT/
157,2602,O'Connor,49,https://www.auhouseprices.com/sold/list/ACT/2602/O%27Connor/,6 Yarrow Place ,-35.2488510,149.1164220,house,5,5,3,"$2,000,000",https://www.auhouseprices.com/sold/view/ACT/341152979/6+Yarrow+Place%2C+O%27Connor+ACT/
158,2602,O'Connor,49,https://www.auhouseprices.com/sold/list/ACT/2602/O%27Connor/,2/28 Macpherson Street ,-35.2618910,149.1211120,house,3,2,2,"$1,025,000",https://www.auhouseprices.com/sold/view/ACT/341392479/2-28+Macpherson+Street%2C+O%27Connor+ACT/
159,2602,O'Connor,49,https://www.auhouseprices.com/sold/list/ACT/2602/O%27Connor/,38/39 Brigalow Street ,-35.2519230,149.1220310,apartment,1,1,1,"$240,000",https://www.auhouseprices.com/sold/view/ACT/341735879/38-39+Brigalow+Street%2C+O%27Connor+ACT/
160,2602,O'Connor,49,https://www.auhouseprices.com/sold/list/ACT/2602/O%27Connor/,1/4 Hardman Street ,-35.2646630,149.1212770,apartment,1,1,1,"$405,500",https://www.auhouseprices.com/sold/view/ACT/341603879/1-4+Hardman+Street%2C+O%27Connor+ACT/
161,2602,O'Connor,49,https://www.auhouseprices.com/sold/list/ACT/2602/O%27Connor/,55 Wattle Street ,-35.2552230,149.1265970,house,4,2,1,"$928,000",https://www.auhouseprices.com/sold/view/ACT/341992879/55+Wattle+Street%2C+O%27Connor+ACT/
162,2602,O'Connor,49,https://www.auhouseprices.com/sold/list/ACT/2602/O%27Connor/,8 Mulga Street ,-35.2562000,149.1181220,house,4,2,2,"$1,392,000",https://www.auhouseprices.com/sold/view/ACT/341052879/8+Mulga+Street%2C+O%27Connor+ACT/
163,2602,O'Connor,49,https://www.auhouseprices.com/sold/list/ACT/2602/O%27Connor/,9/4 Verdon Street ,-35.2616890,149.1287490,unit,1,1,1,"$352,500",https://www.auhouseprices.com/sold/view/ACT/341544779/9-4+Verdon+Street%2C+O%27Connor+ACT/
164,2602,O'Connor,49,https://www.auhouseprices.com/sold/list/ACT/2602/O%27Connor/,11 Cassinia Street ,-35.2518590,149.1208330,house,3,1,0,"$825,000",https://www.auhouseprices.com/sold/view/ACT/341953579/11+Cassinia+Street%2C+O%27Connor+ACT/
165,2602,O'Connor,49,https://www.auhouseprices.com/sold/list/ACT/2602/O%27Connor/,25 Robinson Street ,-35.2634450,149.1180900,townhouse,2,1,1,"$705,000",https://www.auhouseprices.com/sold/view/ACT/341729469/25+Robinson+Street%2C+O%27Connor+ACT/
166,2602,O'Connor,49,https://www.auhouseprices.com/sold/list/ACT/2602/O%27Connor/,19 Waratah Street ,-35.2541910,149.1243480,house,3,1,1,"$901,000",https://www.auhouseprices.com/sold/view/ACT/341245469/19+Waratah+Street%2C+O%27Connor+ACT/
167,2602,O'Connor,49,https://www.auhouseprices.com/sold/list/ACT/2602/O%27Connor/,9 Hobbs Street ,-35.2673350,149.1129270,house,3,2,2,"$1,075,000",https://www.auhouseprices.com/sold/view/ACT/341821369/9+Hobbs+Street%2C+O%27Connor+ACT/
168,2602,O'Connor,49,https://www.auhouseprices.com/sold/list/ACT/2602/O%27Connor/,4 Miller Street ,-35.2677280,149.1145660,house,4,2,2,"$1,770,000",https://www.auhouseprices.com/sold/view/ACT/341570269/4+Miller+Street%2C+O%27Connor+ACT/
169,2602,O'Connor,49,https://www.auhouseprices.com/sold/list/ACT/2602/O%27Connor/,9/16 MacPherson Street ,-35.2631880,149.1216690,apartment,1,1,1,,https://www.auhouseprices.com/sold/view/ACT/341964169/9-16+MacPherson+Street%2C+O%27Connor+ACT/
170,2602,O'Connor,49,https://www.auhouseprices.com/sold/list/ACT/2602/O%27Connor/,5 Moorhouse Street ,-35.2646160,149.1164440,other,3,1,2,"$1,050,000",https://www.auhouseprices.com/sold/view/ACT/341406579/5+Moorhouse+Street%2C+O%27Connor+ACT/
171,2602,O'Connor,49,https://www.auhouseprices.com/sold/list/ACT/2602/O%27Connor/,1/13 Bursaria Street ,-35.2490220,149.1188590,house,3,2,2,"$920,000",https://www.auhouseprices.com/sold/view/ACT/341394469/1-13+Bursaria+Street%2C+O%27Connor+ACT/
172,2602,O'Connor,49,https://www.auhouseprices.com/sold/list/ACT/2602/O%27Connor/,24/41 David Street ,-35.2639000,149.1233470,unit,1,1,1,,https://www.auhouseprices.com/sold/view/ACT/341168459/24-41+David+Street%2C+O%27Connor+ACT/
173,2602,O'Connor,49,https://www.auhouseprices.com/sold/list/ACT/2602/O%27Connor/,92 Macarthur Place ,-35.2612590,149.1291550,house,3,1,1,"$845,250",https://www.auhouseprices.com/sold/view/ACT/341429459/92+Macarthur+Place%2C+O%27Connor+ACT/
174,2602,O'Connor,49,https://www.auhouseprices.com/sold/list/ACT/2602/O%27Connor/,23 Hemmant Street ,-35.2602530,149.1115580,house,3,1,1,"$822,000",https://www.auhouseprices.com/sold/view/ACT/341442569/23+Hemmant+Street%2C+O%27Connor+ACT/
175,2602,O'Connor,49,https://www.auhouseprices.com/sold/list/ACT/2602/O%27Connor/,37/8-18 Correa Street ,-35.2522700,149.1229540,house,1,1,1,"$200,000",https://www.auhouseprices.com/sold/view/ACT/341434459/37-8-18+Correa+Street%2C+O%27Connor+ACT/
176,2602,O'Connor,49,https://www.auhouseprices.com/sold/list/ACT/2602/O%27Connor/,75 David Street ,-35.2671770,149.1164240,house,3,1,1,"$932,001",https://www.auhouseprices.com/sold/view/ACT/341018259/75+David+Street%2C+O%27Connor+ACT/
177,2602,O'Connor,49,https://www.auhouseprices.com/sold/list/ACT/2602/O%27Connor/,36 Quandong Street ,-35.2550310,149.1149220,house,3,1,1,"$960,000",https://www.auhouseprices.com/sold/view/ACT/341706259/36+Quandong+Street%2C+O%27Connor+ACT/
178,2602,O'Connor,49,https://www.auhouseprices.com/sold/list/ACT/2602/O%27Connor/,24 Cassinia Street ,-35.2509180,149.1207050,house,3,1,1,"$904,000",https://www.auhouseprices.com/sold/view/ACT/341597159/24+Cassinia+Street%2C+O%27Connor+ACT/
179,2602,O'Connor,49,https://www.auhouseprices.com/sold/list/ACT/2602/O%27Connor/,29A Nardoo Crescent ,-35.2543500,149.1132970,house,4,2,2,"$1,035,000",https://www.auhouseprices.com/sold/view/ACT/341231359/29A+Nardoo+Crescent%2C+O%27Connor+ACT/
180,2602,O'Connor,49,https://www.auhouseprices.com/sold/list/ACT/2602/O%27Connor/,14/15 MacPherson Street ,-35.2637680,149.1208410,townhouse,2,1,1,"$590,500",https://www.auhouseprices.com/sold/view/ACT/341213159/14-15+MacPherson+Street%2C+O%27Connor+ACT/
181,2602,O'Connor,49,https://www.auhouseprices.com/sold/list/ACT/2602/O%27Connor/,unit 1/12a Hardman Street ,-35.2640270,149.1205400,house,4,3,2,,https://www.auhouseprices.com/sold/view/ACT/341971159/unit+1-12a+Hardman+Street%2C+O%27Connor+ACT/
182,2602,O'Connor,49,https://www.auhouseprices.com/sold/list/ACT/2602/O%27Connor/,7/4-6 Hardman St ,-35.2646630,149.1212770,house,1,1,1,,https://www.auhouseprices.com/sold/view/ACT/341866059/7-4-6+Hardman+St%2C+O%27Connor+ACT/
183,2602,O'Connor,49,https://www.auhouseprices.com/sold/list/ACT/2602/O%27Connor/,25/41 David Street ,-35.2639000,149.1233470,apartment,1,1,1,"$295,000",https://www.auhouseprices.com/sold/view/ACT/341626059/25-41+David+Street%2C+O%27Connor+ACT/
184,2602,O'Connor,49,https://www.auhouseprices.com/sold/list/ACT/2602/O%27Connor/,24 MacArthur Ave ,-35.2599630,149.1217030,house,3,1,3,"$870,000",https://www.auhouseprices.com/sold/view/ACT/341801059/24+MacArthur+Ave%2C+O%27Connor+ACT/
185,2602,O'Connor,49,https://www.auhouseprices.com/sold/list/ACT/2602/O%27Connor/,53 David Street ,-35.2655150,149.1201250,house,3,1,1,"$899,000",https://www.auhouseprices.com/sold/view/ACT/341070959/53+David+Street%2C+O%27Connor+ACT/
186,2602,O'Connor,49,https://www.auhouseprices.com/sold/list/ACT/2602/O%27Connor/,6/4 Verdon Street ,-35.2616890,149.1287490,apartment,1,1,1,"$340,000",https://www.auhouseprices.com/sold/view/ACT/341996859/6-4+Verdon+Street%2C+O%27Connor+ACT/
187,2602,O'Connor,49,https://www.auhouseprices.com/sold/list/ACT/2602/O%27Connor/,13 Banksia Street ,-35.2570070,149.1176010,house,3,1,1,,https://www.auhouseprices.com/sold/view/ACT/341264169/13+Banksia+Street%2C+O%27Connor+ACT/
188,2602,O'Connor,49,https://www.auhouseprices.com/sold/list/ACT/2602/O%27Connor/,3 Busby Street ,-35.2621160,149.1191420,house,3,1,1,"$1,040,000",https://www.auhouseprices.com/sold/view/ACT/341135859/3+Busby+Street%2C+O%27Connor+ACT/
189,2602,O'Connor,49,https://www.auhouseprices.com/sold/list/ACT/2602/O%27Connor/,1/48 Moorhouse Street ,-35.2633560,149.1219460,apartment,2,1,1,"$460,000",https://www.auhouseprices.com/sold/view/ACT/341152859/1-48+Moorhouse+Street%2C+O%27Connor+ACT/
190,2602,O'Connor,49,https://www.auhouseprices.com/sold/list/ACT/2602/O%27Connor/,26 Wongoola Close ,-35.2572890,149.1108560,house,5,3,2,"$1,500,000",https://www.auhouseprices.com/sold/view/ACT/341840859/26+Wongoola+Close%2C+O%27Connor+ACT/
191,2602,O'Connor,49,https://www.auhouseprices.com/sold/list/ACT/2602/O%27Connor/,23 Belah Street ,-35.2572950,149.1260910,house,3,2,2,"$940,000",https://www.auhouseprices.com/sold/view/ACT/341448659/23+Belah+Street%2C+O%27Connor+ACT/
192,2602,O'Connor,49,https://www.auhouseprices.com/sold/list/ACT/2602/O%27Connor/,59 David Street ,-35.2660290,149.1190930,house,3,2,2,"$1,310,000",https://www.auhouseprices.com/sold/view/ACT/341751059/59+David+Street%2C+O%27Connor+ACT/
193,2602,O'Connor,49,https://www.auhouseprices.com/sold/list/ACT/2602/O%27Connor/,10 Banjine Street ,-35.2532450,149.1229860,house,3,1,1,"$937,500",https://www.auhouseprices.com/sold/view/ACT/341871559/10+Banjine+Street%2C+O%27Connor+ACT/
194,2602,O'Connor,49,https://www.auhouseprices.com/sold/list/ACT/2602/O%27Connor/,8/41 David Street ,-35.2639000,149.1233470,apartment,2,1,1,"$388,000",https://www.auhouseprices.com/sold/view/ACT/341878349/8-41+David+Street%2C+O%27Connor+ACT/
195,2602,O'Connor,49,https://www.auhouseprices.com/sold/list/ACT/2602/O%27Connor/,15 Cassinia Street ,-35.2519600,149.1203850,house,3,1,2,"$775,000",https://www.auhouseprices.com/sold/view/ACT/341837349/15+Cassinia+Street%2C+O%27Connor+ACT/
196,2602,O'Connor,49,https://www.auhouseprices.com/sold/list/ACT/2602/O%27Connor/,13 Mulga Street ,-35.2557240,149.1176210,house,4,2,1,"$1,295,000",https://www.auhouseprices.com/sold/view/ACT/341245349/13+Mulga+Street%2C+O%27Connor+ACT/
197,2602,O'Connor,49,https://www.auhouseprices.com/sold/list/ACT/2602/O%27Connor/,21/19 Moorhouse Street ,-35.2633700,149.1194650,apartment,2,1,1,"$365,000",https://www.auhouseprices.com/sold/view/ACT/341444349/21-19+Moorhouse+Street%2C+O%27Connor+ACT/
198,2602,O'Connor,49,https://www.auhouseprices.com/sold/list/ACT/2602/O%27Connor/,24 Bluebell Street ,-35.2631910,149.1224540,villa,2,2,1,"$615,000",https://www.auhouseprices.com/sold/view/ACT/341854349/24+Bluebell+Street%2C+O%27Connor+ACT/
199,2602,O'Connor,49,https://www.auhouseprices.com/sold/list/ACT/2602/O%27Connor/,15/2 Verdon Street ,-35.2616560,149.1289480,apartment,2,2,2,"$491,500",https://www.auhouseprices.com/sold/view/ACT/341142059/15-2+Verdon+Street%2C+O%27Connor+ACT/
200,2602,O'Connor,49,https://www.auhouseprices.com/sold/list/ACT/2602/O%27Connor/,19/27 Berrigan Crescent ,-35.2585520,149.1284330,apartment,2,2,2,"$605,000",https://www.auhouseprices.com/sold/view/ACT/341919249/19-27+Berrigan+Crescent%2C+O%27Connor+ACT/
201,2602,O'Connor,49,https://www.auhouseprices.com/sold/list/ACT/2602/O%27Connor/,171 Wattle Street ,-35.2465560,149.1177360,house,4,2,1,"$1,350,000",https://www.auhouseprices.com/sold/view/ACT/341008249/171+Wattle+Street%2C+O%27Connor+ACT/
202,2602,O'Connor,49,https://www.auhouseprices.com/sold/list/ACT/2602/O%27Connor/,74 Macarthur Avenue ,-35.2603970,149.1281750,house,3,1,1,"$950,000",https://www.auhouseprices.com/sold/view/ACT/341277249/74+Macarthur+Avenue%2C+O%27Connor+ACT/
203,2602,O'Connor,49,https://www.auhouseprices.com/sold/list/ACT/2602/O%27Connor/,33 Quandong Street ,-35.2553930,149.1142500,house,4,2,1,"$1,150,000",https://www.auhouseprices.com/sold/view/ACT/341766249/33+Quandong+Street%2C+O%27Connor+ACT/
204,2602,O'Connor,49,https://www.auhouseprices.com/sold/list/ACT/2602/O%27Connor/,17/35 Berrigan Crescent ,-35.2577180,149.1288050,apartment,1,1,1,"$370,000",https://www.auhouseprices.com/sold/view/ACT/341642149/17-35+Berrigan+Crescent%2C+O%27Connor+ACT/
205,2602,O'Connor,49,https://www.auhouseprices.com/sold/list/ACT/2602/O%27Connor/,4/19 Moorhouse Street ,-35.2633700,149.1194650,unit,1,1,1,"$315,000",https://www.auhouseprices.com/sold/view/ACT/341227439/4-19+Moorhouse+Street%2C+O%27Connor+ACT/
206,2602,O'Connor,49,https://www.auhouseprices.com/sold/list/ACT/2602/O%27Connor/,8/2 Bagot Street ,-35.2621060,149.1273100,townhouse,2,1,2,"$512,500",https://www.auhouseprices.com/sold/view/ACT/341575439/8-2+Bagot+Street%2C+O%27Connor+ACT/
207,2602,O'Connor,49,https://www.auhouseprices.com/sold/list/ACT/2602/O%27Connor/,1 Todd Street ,-35.2595780,149.1173420,house,3,1,0,"$1,050,000",https://www.auhouseprices.com/sold/view/ACT/341370239/1+Todd+Street%2C+O%27Connor+ACT/
208,2602,O'Connor,49,https://www.auhouseprices.com/sold/list/ACT/2602/O%27Connor/,7 Nardoo Crescent ,-35.2568400,149.1131960,house,3,1,1,"$1,402,000",https://www.auhouseprices.com/sold/view/ACT/341317239/7+Nardoo+Crescent%2C+O%27Connor+ACT/
209,2602,O'Connor,49,https://www.auhouseprices.com/sold/list/ACT/2602/O%27Connor/,12 Faunce Crescent ,-35.2656910,149.1162060,house,6,3,1,"$1,290,000",https://www.auhouseprices.com/sold/view/ACT/341574239/12+Faunce+Crescent%2C+O%27Connor+ACT/
210,2602,O'Connor,49,https://www.auhouseprices.com/sold/list/ACT/2602/O%27Connor/,41 Cockle Street ,-35.2608590,149.1135890,house,3,1,1,,https://www.auhouseprices.com/sold/view/ACT/341586239/41+Cockle+Street%2C+O%27Connor+ACT/
211,2602,O'Connor,49,https://www.auhouseprices.com/sold/list/ACT/2602/O%27Connor/,14 Macarthur Avenue ,-35.2596570,149.1191470,house,3,1,2,"$750,000",https://www.auhouseprices.com/sold/view/ACT/341607239/14+Macarthur+Avenue%2C+O%27Connor+ACT/
212,2602,O'Connor,49,https://www.auhouseprices.com/sold/list/ACT/2602/O%27Connor/,6/3 Bagot Street ,-35.2622420,149.1270340,townhouse,2,1,1,"$535,000",https://www.auhouseprices.com/sold/view/ACT/341032239/6-3+Bagot+Street%2C+O%27Connor+ACT/
213,2602,O'Connor,49,https://www.auhouseprices.com/sold/list/ACT/2602/O%27Connor/,32 Quandong Street ,-35.2554000,149.1149180,house,4,3,4,"$1,460,000",https://www.auhouseprices.com/sold/view/ACT/341610139/32+Quandong+Street%2C+O%27Connor+ACT/
214,2602,O'Connor,49,https://www.auhouseprices.com/sold/list/ACT/2602/O%27Connor/,1 / 7 Faunce Crescent ,-35.2666050,149.1163000,house,5,3,2,"$705,000",https://www.auhouseprices.com/sold/view/ACT/341744239/1+-+7+Faunce+Crescent%2C+O%27Connor+ACT/
215,2602,O'Connor,49,https://www.auhouseprices.com/sold/list/ACT/2602/O%27Connor/,20/41 David Street ,-35.2639000,149.1233470,apartment,1,1,1,"$290,000",https://www.auhouseprices.com/sold/view/ACT/341072039/20-41+David+Street%2C+O%27Connor+ACT/
216,2602,O'Connor,49,https://www.auhouseprices.com/sold/list/ACT/2602/O%27Connor/,36 Brigalow Street ,-35.2531590,149.1226940,house,3,1,2,"$980,000",https://www.auhouseprices.com/sold/view/ACT/341069939/36+Brigalow+Street%2C+O%27Connor+ACT/
217,2602,O'Connor,49,https://www.auhouseprices.com/sold/list/ACT/2602/O%27Connor/,28/2-4 Clianthus Street ,-35.2526630,149.1222140,apartment,2,1,1,"$320,000",https://www.auhouseprices.com/sold/view/ACT/341517939/28-2-4+Clianthus+Street%2C+O%27Connor+ACT/
218,2602,O'Connor,49,https://www.auhouseprices.com/sold/list/ACT/2602/O%27Connor/,2 Hemmant Street ,-35.2612090,149.1135990,house,8,4,2,"$1,850,000",https://www.auhouseprices.com/sold/view/ACT/341774939/2+Hemmant+Street%2C+O%27Connor+ACT/
219,2602,O'Connor,49,https://www.auhouseprices.com/sold/list/ACT/2602/O%27Connor/,16/16 Berrigan Crescent ,-35.2585920,149.1291350,apartment,2,2,2,"$535,000",https://www.auhouseprices.com/sold/view/ACT/341124939/16-16+Berrigan+Crescent%2C+O%27Connor+ACT/
220,2602,O'Connor,49,https://www.auhouseprices.com/sold/list/ACT/2602/O%27Connor/,133A Miller Street ,-35.2543200,149.1154910,house,4,2,1,"$1,050,000",https://www.auhouseprices.com/sold/view/ACT/341903939/133A+Miller+Street%2C+O%27Connor+ACT/
221,2602,O'Connor,49,https://www.auhouseprices.com/sold/list/ACT/2602/O%27Connor/,10 Hemmant Street ,-35.2607740,149.1127160,house,4,2,1,"$1,286,000",https://www.auhouseprices.com/sold/view/ACT/341203939/10+Hemmant+Street%2C+O%27Connor+ACT/
222,2602,O'Connor,49,https://www.auhouseprices.com/sold/list/ACT/2602/O%27Connor/,80 Dryandra Street ,-35.2614040,149.1120850,house,5,3,2,"$1,370,000",https://www.auhouseprices.com/sold/view/ACT/341206839/80+Dryandra+Street%2C+O%27Connor+ACT/
223,2602,O'Connor,49,https://www.auhouseprices.com/sold/list/ACT/2602/O%27Connor/,26 Dryandra Street ,-35.2664840,149.1121010,house,3,1,1,"$1,130,000",https://www.auhouseprices.com/sold/view/ACT/341885839/26+Dryandra+Street%2C+O%27Connor+ACT/
224,2602,O'Connor,49,https://www.auhouseprices.com/sold/list/ACT/2602/O%27Connor/,104 Macarthur Place ,-35.2607630,149.1293660,townhouse,3,1,2,"$835,000",https://www.auhouseprices.com/sold/view/ACT/341193739/104+Macarthur+Place%2C+O%27Connor+ACT/
225,2602,O'Connor,49,https://www.auhouseprices.com/sold/list/ACT/2602/O%27Connor/,6 Hemmant Street ,-35.2609640,149.1131110,house,4,2,1,"$1,167,000",https://www.auhouseprices.com/sold/view/ACT/341126639/6+Hemmant+Street%2C+O%27Connor+ACT/
226,2602,O'Connor,49,https://www.auhouseprices.com/sold/list/ACT/2602/O%27Connor/,14 Boobialla Street ,-35.2516600,149.1153330,house,5,2,2,"$1,410,000",https://www.auhouseprices.com/sold/view/ACT/341901539/14+Boobialla+Street%2C+O%27Connor+ACT/
227,2602,O'Connor,49,https://www.auhouseprices.com/sold/list/ACT/2602/O%27Connor/,1/4-6 Berrigan Crescent ,-35.2590230,149.1297660,townhouse,3,2,2,,https://www.auhouseprices.com/sold/view/ACT/341752528/1-4-6+Berrigan+Crescent%2C+O%27Connor+ACT/
228,2602,O'Connor,49,https://www.auhouseprices.com/sold/list/ACT/2602/O%27Connor/,23 Nardoo Crescent ,-35.2552620,149.1130930,house,5,3,3,"$1,700,000",https://www.auhouseprices.com/sold/view/ACT/341541528/23+Nardoo+Crescent%2C+O%27Connor+ACT/
229,2602,O'Connor,49,https://www.auhouseprices.com/sold/list/ACT/2602/O%27Connor/,1/12 Hardman St ,-35.2640840,149.1208030,townhouse,3,2,2,"$1,275,000",https://www.auhouseprices.com/sold/view/ACT/341714539/1-12+Hardman+St%2C+O%27Connor+ACT/
230,2602,O'Connor,49,https://www.auhouseprices.com/sold/list/ACT/2602/O%27Connor/,4 Wandoo Street ,-35.2541630,149.1253770,house,3,1,2,"$995,000",https://www.auhouseprices.com/sold/view/ACT/341875428/4+Wandoo+Street%2C+O%27Connor+ACT/
231,2602,O'Connor,49,https://www.auhouseprices.com/sold/list/ACT/2602/O%27Connor/,44/12 Correa Street ,-35.2524540,149.1226690,apartment,2,1,1,"$330,000",https://www.auhouseprices.com/sold/view/ACT/341240839/44-12+Correa+Street%2C+O%27Connor+ACT/
232,2602,O'Connor,49,https://www.auhouseprices.com/sold/list/ACT/2602/O%27Connor/,1 Greenhood Place ,-35.2522450,149.1154320,house,3,1,2,"$1,070,000",https://www.auhouseprices.com/sold/view/ACT/341216328/1+Greenhood+Place%2C+O%27Connor+ACT/
233,2602,O'Connor,49,https://www.auhouseprices.com/sold/list/ACT/2602/O%27Connor/,12 Hardman St ,-35.2640840,149.1208030,house,4,3,2,,https://www.auhouseprices.com/sold/view/ACT/341834428/12+Hardman+St%2C+O%27Connor+ACT/
234,2602,O'Connor,49,https://www.auhouseprices.com/sold/list/ACT/2602/O%27Connor/,5 Westgarth Street ,-35.2660820,149.1179480,house,2,2,1,"$1,200,000",https://www.auhouseprices.com/sold/view/ACT/341157228/5+Westgarth++Street%2C+O%27Connor+ACT/
235,2602,O'Connor,49,https://www.auhouseprices.com/sold/list/ACT/2602/O%27Connor/,32 Brigalow Street ,-35.2536720,149.1223060,house,3,1,2,"$895,000",https://www.auhouseprices.com/sold/view/ACT/341965228/32+Brigalow+Street%2C+O%27Connor+ACT/
236,2602,O'Connor,49,https://www.auhouseprices.com/sold/list/ACT/2602/O%27Connor/,22 Quandong Street ,-35.2563440,149.1149050,house,3,1,0,"$1,050,000",https://www.auhouseprices.com/sold/view/ACT/341160128/22+Quandong+Street%2C+O%27Connor+ACT/
237,2602,O'Connor,49,https://www.auhouseprices.com/sold/list/ACT/2602/O%27Connor/,9 Dianella Street ,-35.2533700,149.1193570,house,4,2,2,,https://www.auhouseprices.com/sold/view/ACT/341285128/9+Dianella+Street%2C+O%27Connor+ACT/
238,2602,O'Connor,49,https://www.auhouseprices.com/sold/list/ACT/2602/O%27Connor/,100 Miller Street ,-35.2558580,149.1160500,house,3,1,1,"$932,000",https://www.auhouseprices.com/sold/view/ACT/341841128/100+Miller+Street%2C+O%27Connor+ACT/
239,2602,O'Connor,49,https://www.auhouseprices.com/sold/list/ACT/2602/O%27Connor/,1/10 MacPherson Street ,-35.2636440,149.1219350,unit,1,1,1,"$325,000",https://www.auhouseprices.com/sold/view/ACT/341633028/1-10+MacPherson+Street%2C+O%27Connor+ACT/
240,2602,O'Connor,49,https://www.auhouseprices.com/sold/list/ACT/2602/O%27Connor/,1 Lomandra Street ,-35.2544030,149.1119700,house,4,2,3,"$1,360,000",https://www.auhouseprices.com/sold/view/ACT/341129928/1+Lomandra+Street%2C+O%27Connor+ACT/
241,2602,O'Connor,49,https://www.auhouseprices.com/sold/list/ACT/2602/O%27Connor/,33 Faunce Crescent ,-35.2658340,149.1132320,house,4,2,2,"$1,550,000",https://www.auhouseprices.com/sold/view/ACT/341779928/33+Faunce+Crescent%2C+O%27Connor+ACT/
242,2602,O'Connor,49,https://www.auhouseprices.com/sold/list/ACT/2602/O%27Connor/,88 Scrivener Street ,-35.2536580,149.1181040,house,5,2,2,"$1,100,000",https://www.auhouseprices.com/sold/view/ACT/341556928/88+Scrivener+Street%2C+O%27Connor+ACT/
243,2602,O'Connor,49,https://www.auhouseprices.com/sold/list/ACT/2602/O%27Connor/,6 Busby Street ,-35.2620200,149.1198330,house,3,2,2,"$1,275,000",https://www.auhouseprices.com/sold/view/ACT/341595549/6+Busby+Street%2C+O%27Connor+ACT/
244,2602,O'Connor,49,https://www.auhouseprices.com/sold/list/ACT/2602/O%27Connor/,10/29 Moorhouse Street ,-35.2628840,149.1203880,townhouse,2,1,1,"$586,000",https://www.auhouseprices.com/sold/view/ACT/341034828/10-29+Moorhouse+Street%2C+O%27Connor+ACT/
245,2602,O'Connor,49,https://www.auhouseprices.com/sold/list/ACT/2602/O%27Connor/,10A/16 Macpherson Street ,-35.2631160,149.1218530,apartment,2,1,1,"$382,000",https://www.auhouseprices.com/sold/view/ACT/341994728/10A-16+Macpherson+Street%2C+O%27Connor+ACT/
246,2602,O'Connor,49,https://www.auhouseprices.com/sold/list/ACT/2602/O%27Connor/,20 Quandong Street ,-35.2565390,149.1148780,house,3,1,0,"$727,500",https://www.auhouseprices.com/sold/view/ACT/341320728/20+Quandong+Street%2C+O%27Connor+ACT/
247,2602,O'Connor,49,https://www.auhouseprices.com/sold/list/ACT/2602/O%27Connor/,3 Westgarth Street ,-35.2662410,149.1180520,house,3,1,1,"$1,350,000",https://www.auhouseprices.com/sold/view/ACT/341455418/3+Westgarth+Street%2C+O%27Connor+ACT/
248,2602,O'Connor,49,https://www.auhouseprices.com/sold/list/ACT/2602/O%27Connor/,18 Bluebell Street ,-35.2633110,149.1225300,townhouse,2,2,1,"$555,000",https://www.auhouseprices.com/sold/view/ACT/341256418/18+Bluebell+Street%2C+O%27Connor+ACT/
249,2602,O'Connor,49,https://www.auhouseprices.com/sold/list/ACT/2602/O%27Connor/,39 Cockle Street ,-35.2610300,149.1136460,house,2,1,1,"$900,000",https://www.auhouseprices.com/sold/view/ACT/341417318/39+Cockle+Street%2C+O%27Connor+ACT/
250,2602,O'Connor,49,https://www.auhouseprices.com/sold/list/ACT/2602/O%27Connor/,10 Quandong Street ,-35.2575190,149.1148640,house,3,1,1,"$791,000",https://www.auhouseprices.com/sold/view/ACT/341868318/10+Quandong+Street%2C+O%27Connor+ACT/
251,2602,O'Connor,49,https://www.auhouseprices.com/sold/list/ACT/2602/O%27Connor/,10 Ross Street ,-35.2662610,149.1169740,house,5,2,2,"$1,801,000",https://www.auhouseprices.com/sold/view/ACT/341520028/10+Ross+Street%2C+O%27Connor+ACT/
252,2602,O'Connor,49,https://www.auhouseprices.com/sold/list/ACT/2602/O%27Connor/,4/4 Hardman Street ,-35.2646630,149.1212770,unit,1,1,1,"$435,000",https://www.auhouseprices.com/sold/view/ACT/341753318/4-4+Hardman+Street%2C+O%27Connor+ACT/
253,2602,O'Connor,49,https://www.auhouseprices.com/sold/list/ACT/2602/O%27Connor/,4 Tate Street ,-35.2625910,149.1155830,house,4,1,1,"$1,310,000",https://www.auhouseprices.com/sold/view/ACT/341355549/4+Tate+Street%2C+O%27Connor+ACT/
254,2602,O'Connor,49,https://www.auhouseprices.com/sold/list/ACT/2602/O%27Connor/,7/5 Verdon Street ,-35.2616330,149.1279280,apartment,1,1,1,"$379,000",https://www.auhouseprices.com/sold/view/ACT/341405839/7-5+Verdon+Street%2C+O%27Connor+ACT/
255,2602,O'Connor,49,https://www.auhouseprices.com/sold/list/ACT/2602/O%27Connor/,2 Merrit Place ,-35.2511030,149.1175900,house,4,2,3,"$1,325,000",https://www.auhouseprices.com/sold/view/ACT/341445118/2+Merrit+Place%2C+O%27Connor+ACT/
256,2602,O'Connor,49,https://www.auhouseprices.com/sold/list/ACT/2602/O%27Connor/,143 Miller Street ,-35.2525060,149.1163330,house,4,2,2,"$1,680,000",https://www.auhouseprices.com/sold/view/ACT/341122018/143+Miller+Street%2C+O%27Connor+ACT/
257,2602,O'Connor,49,https://www.auhouseprices.com/sold/list/ACT/2602/O%27Connor/,17/77 Macarthur Avenue ,-35.2597710,149.1284600,unit,1,1,1,"$338,000",https://www.auhouseprices.com/sold/view/ACT/341086918/17-77+Macarthur+Avenue%2C+O%27Connor+ACT/
258,2602,O'Connor,49,https://www.auhouseprices.com/sold/list/ACT/2602/O%27Connor/,6 Banner Street ,-35.2643910,149.1161010,house,3,1,1,"$1,170,000",https://www.auhouseprices.com/sold/view/ACT/341260739/6+Banner+Street%2C+O%27Connor+ACT/
259,2602,O'Connor,49,https://www.auhouseprices.com/sold/list/ACT/2602/O%27Connor/,22/50 Bluebell Street ,-35.2633600,149.1228180,studio,1,1,1,"$340,000",https://www.auhouseprices.com/sold/view/ACT/341247818/22-50+Bluebell+Street%2C+O%27Connor+ACT/
260,2602,O'Connor,49,https://www.auhouseprices.com/sold/list/ACT/2602/O%27Connor/,117 Wattle Street ,-35.2504620,149.1220930,house,3,2,1,"$1,125,000",https://www.auhouseprices.com/sold/view/ACT/341103818/117+Wattle+Street%2C+O%27Connor+ACT/
261,2602,O'Connor,49,https://www.auhouseprices.com/sold/list/ACT/2602/O%27Connor/,15/5 Verdon Street ,-35.2616330,149.1279280,apartment,1,1,0,"$385,500",https://www.auhouseprices.com/sold/view/ACT/341148128/15-5+Verdon+Street%2C+O%27Connor+ACT/
262,2602,O'Connor,49,https://www.auhouseprices.com/sold/list/ACT/2602/O%27Connor/,18 Syme Crescent ,-35.2663090,149.1149830,house,4,2,2,"$1,759,000",https://www.auhouseprices.com/sold/view/ACT/341624718/18+Syme+Crescent%2C+O%27Connor+ACT/
263,2602,O'Connor,49,https://www.auhouseprices.com/sold/list/ACT/2602/O%27Connor/,25 Myall St ,-35.2549670,149.1164570,house,4,3,4,"$1,175,000",https://www.auhouseprices.com/sold/view/ACT/341097718/25+Myall+St%2C+O%27Connor+ACT/
264,2602,O'Connor,49,https://www.auhouseprices.com/sold/list/ACT/2602/O%27Connor/,15 Hakea Crescent ,-35.2570680,149.1217900,house,5,2,3,"$1,452,500",https://www.auhouseprices.com/sold/view/ACT/341275618/15+Hakea+Crescent%2C+O%27Connor+ACT/
265,2602,O'Connor,49,https://www.auhouseprices.com/sold/list/ACT/2602/O%27Connor/,9B Boronia Drive ,-35.2542260,149.1169430,house,3,2,2,"$970,000",https://www.auhouseprices.com/sold/view/ACT/341193508/9B+Boronia+Drive%2C+O%27Connor+ACT/
266,2602,O'Connor,49,https://www.auhouseprices.com/sold/list/ACT/2602/O%27Connor/,96 Miller Street ,-35.2562380,149.1160460,house,4,2,2,"$1,675,000",https://www.auhouseprices.com/sold/view/ACT/341615408/96+Miller+Street%2C+O%27Connor+ACT/
267,2602,O'Connor,49,https://www.auhouseprices.com/sold/list/ACT/2602/O%27Connor/,59 David Street ,-35.2660290,149.1190930,house,3,2,2,"$1,280,000",https://www.auhouseprices.com/sold/view/ACT/341186108/59+David+Street%2C+O%27Connor+ACT/
268,2602,O'Connor,49,https://www.auhouseprices.com/sold/list/ACT/2602/O%27Connor/,119 Wattle Street ,-35.2503340,149.1219560,house,3,1,1,"$957,500",https://www.auhouseprices.com/sold/view/ACT/341860008/119+Wattle+Street%2C+O%27Connor+ACT/
269,2602,O'Connor,49,https://www.auhouseprices.com/sold/list/ACT/2602/O%27Connor/,34 Jarrah Street ,-35.2546090,149.1219780,house,5,3,0,"$1,370,000",https://www.auhouseprices.com/sold/view/ACT/341189008/34+Jarrah+Street%2C+O%27Connor+ACT/
270,2602,O'Connor,49,https://www.auhouseprices.com/sold/list/ACT/2602/O%27Connor/,11 Coolibah Crescent ,-35.2583720,149.1213000,house,4,2,3,"$1,640,000",https://www.auhouseprices.com/sold/view/ACT/341765549/11+Coolibah+Crescent%2C+O%27Connor+ACT/
271,2602,O'Connor,49,https://www.auhouseprices.com/sold/list/ACT/2602/O%27Connor/,7 Mulga Street ,-35.2563740,149.1174590,house,4,2,0,"$1,170,000",https://www.auhouseprices.com/sold/view/ACT/341232008/7+Mulga+Street%2C+O%27Connor+ACT/
272,2602,O'Connor,49,https://www.auhouseprices.com/sold/list/ACT/2602/O%27Connor/,1 Boronia Drive ,-35.2538770,149.1163140,house,4,2,2,"$1,520,000",https://www.auhouseprices.com/sold/view/ACT/341398808/1+Boronia+Drive%2C+O%27Connor+ACT/
273,2602,O'Connor,49,https://www.auhouseprices.com/sold/list/ACT/2602/O%27Connor/,1/5 Banksia Street ,-35.2574050,149.1163860,townhouse,3,2,2,"$840,000",https://www.auhouseprices.com/sold/view/ACT/341011908/1-5+Banksia+Street%2C+O%27Connor+ACT/
274,2602,O'Connor,49,https://www.auhouseprices.com/sold/list/ACT/2602/O%27Connor/,13/4 Verdon Street ,-35.2616890,149.1287490,apartment,1,1,1,"$385,000",https://www.auhouseprices.com/sold/view/ACT/341913808/13-4+Verdon+Street%2C+O%27Connor+ACT/
275,2602,O'Connor,49,https://www.auhouseprices.com/sold/list/ACT/2602/O%27Connor/,171 Miller Street ,-35.2502920,149.1187960,house,3,1,1,"$1,160,000",https://www.auhouseprices.com/sold/view/ACT/341122808/171+Miller+Street%2C+O%27Connor+ACT/
276,2602,O'Connor,49,https://www.auhouseprices.com/sold/list/ACT/2602/O%27Connor/,7 Caladenia Street ,-35.2539400,149.1201220,house,5,3,2,"$1,875,000",https://www.auhouseprices.com/sold/view/ACT/341901808/7+Caladenia+Street%2C+O%27Connor+ACT/
277,2602,O'Connor,49,https://www.auhouseprices.com/sold/list/ACT/2602/O%27Connor/,15/10 Macpherson Street ,-35.2636440,149.1219350,apartment,3,3,2,"$735,000",https://www.auhouseprices.com/sold/view/ACT/341986708/15-10+Macpherson+Street%2C+O%27Connor+ACT/
278,2602,O'Connor,49,https://www.auhouseprices.com/sold/list/ACT/2602/O%27Connor/,3/77 Macarthur Avenue ,-35.2597710,149.1284600,apartment,2,1,1,"$520,000",https://www.auhouseprices.com/sold/view/ACT/341159508/3-77+Macarthur+Avenue%2C+O%27Connor+ACT/
279,2602,O'Connor,49,https://www.auhouseprices.com/sold/list/ACT/2602/O%27Connor/,3 Syme Crescent ,-35.2673730,149.1153450,house,5,2,2,"$2,235,000",https://www.auhouseprices.com/sold/view/ACT/341907608/3+Syme+Crescent%2C+O%27Connor+ACT/
280,2602,O'Connor,49,https://www.auhouseprices.com/sold/list/ACT/2602/O%27Connor/,5 Boronia Drive ,-35.2540670,149.1166620,house,4,3,1,"$1,100,000",https://www.auhouseprices.com/sold/view/ACT/341977608/5+Boronia+Drive%2C+O%27Connor+ACT/
281,2602,O'Connor,49,https://www.auhouseprices.com/sold/list/ACT/2602/O%27Connor/,33 Boobialla Street ,-35.2501900,149.1158200,house,5,4,2,"$1,543,000",https://www.auhouseprices.com/sold/view/ACT/341490708/33+Boobialla+Street%2C+O%27Connor+ACT/
282,2602,O'Connor,49,https://www.auhouseprices.com/sold/list/ACT/2602/O%27Connor/,13 Cassinia Street ,-35.2519770,149.1206300,house,3,1,2,"$970,000",https://www.auhouseprices.com/sold/view/ACT/341658608/13+Cassinia+Street%2C+O%27Connor+ACT/
283,2602,O'Connor,49,https://www.auhouseprices.com/sold/list/ACT/2602/O%27Connor/,2/9 Bursaria Street ,-35.2492120,149.1182160,house,2,2,2,"$1,100,000",https://www.auhouseprices.com/sold/view/ACT/341345808/2-9+Bursaria+Street%2C+O%27Connor+ACT/
284,2602,O'Connor,49,https://www.auhouseprices.com/sold/list/ACT/2602/O%27Connor/,67 Scrivener Street ,-35.2549730,149.1194070,house,3,1,4,"$940,000",https://www.auhouseprices.com/sold/view/ACT/341643498/67+Scrivener+Street%2C+O%27Connor+ACT/
285,2602,O'Connor,49,https://www.auhouseprices.com/sold/list/ACT/2602/O%27Connor/,12 Lilley Street ,-35.2609050,149.1226390,house,4,2,3,"$1,305,000",https://www.auhouseprices.com/sold/view/ACT/341939298/12+Lilley+Street%2C+O%27Connor+ACT/
286,2602,O'Connor,49,https://www.auhouseprices.com/sold/list/ACT/2602/O%27Connor/,13 Westgarth Street ,-35.2649890,149.1172660,house,2,1,1,"$1,190,000",https://www.auhouseprices.com/sold/view/ACT/341944298/13+Westgarth+Street%2C+O%27Connor+ACT/
287,2602,O'Connor,49,https://www.auhouseprices.com/sold/list/ACT/2602/O%27Connor/,45 David Street ,-35.2650380,149.1212750,townhouse,4,2,4,"$1,575,000",https://www.auhouseprices.com/sold/view/ACT/341021298/45+David+Street%2C+O%27Connor+ACT/
288,2602,O'Connor,49,https://www.auhouseprices.com/sold/list/ACT/2602/O%27Connor/,4 Boobialla street ,-35.2523880,149.1145770,house,2,1,1,"$683,000",https://www.auhouseprices.com/sold/view/ACT/341188098/4+Boobialla+street%2C+O%27Connor+ACT/
289,2602,O'Connor,49,https://www.auhouseprices.com/sold/list/ACT/2602/O%27Connor/,7/16 MacPherson Street ,-35.2631160,149.1218530,apartment,1,1,1,"$347,500",https://www.auhouseprices.com/sold/view/ACT/341645549/7-16+MacPherson+Street%2C+O%27Connor+ACT/
290,2602,O'Connor,49,https://www.auhouseprices.com/sold/list/ACT/2602/O%27Connor/,105A Scrivener Street ,-35.2531880,149.1152000,house,3,1,1,"$725,000",https://www.auhouseprices.com/sold/view/ACT/341882798/105A+Scrivener+Street%2C+O%27Connor+ACT/
291,2602,O'Connor,49,https://www.auhouseprices.com/sold/list/ACT/2602/O%27Connor/,4 Dianella Street ,-35.2540900,149.1195680,house,4,2,2,"$1,310,000",https://www.auhouseprices.com/sold/view/ACT/341417698/4+Dianella+Street%2C+O%27Connor+ACT/
292,2602,O'Connor,49,https://www.auhouseprices.com/sold/list/ACT/2602/O%27Connor/,26 Bursaria Street ,-35.2487290,149.1200690,house,4,2,4,"$1,100,000",https://www.auhouseprices.com/sold/view/ACT/341803698/26+Bursaria+Street%2C+O%27Connor+ACT/
293,2602,O'Connor,49,https://www.auhouseprices.com/sold/list/ACT/2602/O%27Connor/,107 Scrivener Street ,-35.2531020,149.1150320,house,4,2,1,"$1,030,000",https://www.auhouseprices.com/sold/view/ACT/341077698/107+Scrivener+Street%2C+O%27Connor+ACT/
294,2602,O'Connor,49,https://www.auhouseprices.com/sold/list/ACT/2602/O%27Connor/,14 Hovea Street ,-35.2579060,149.1243160,house,3,1,1,"$922,000",https://www.auhouseprices.com/sold/view/ACT/341147598/14+Hovea+Street%2C+O%27Connor+ACT/
295,2602,O'Connor,49,https://www.auhouseprices.com/sold/list/ACT/2602/O%27Connor/,3 David Street ,-35.2608130,149.1301180,house,3,1,1,"$1,120,000",https://www.auhouseprices.com/sold/view/ACT/341657488/3+David+Street%2C+O%27Connor+ACT/
296,2602,O'Connor,49,https://www.auhouseprices.com/sold/list/ACT/2602/O%27Connor/,25/50 Bluebell Street ,-35.2633600,149.1228180,townhouse,1,1,1,"$350,000",https://www.auhouseprices.com/sold/view/ACT/341979388/25-50+Bluebell+Street%2C+O%27Connor+ACT/
297,2602,O'Connor,49,https://www.auhouseprices.com/sold/list/ACT/2602/O%27Connor/,5/15 Berrigan Crescent ,-35.2595000,149.1287470,apartment,1,1,1,"$375,000",https://www.auhouseprices.com/sold/view/ACT/341317388/5-15+Berrigan++Crescent%2C+O%27Connor+ACT/
298,2602,O'Connor,49,https://www.auhouseprices.com/sold/list/ACT/2602/O%27Connor/,12/27 Berrigan Crescent ,-35.2585520,149.1284330,apartment,2,2,1,"$538,000",https://www.auhouseprices.com/sold/view/ACT/341788288/12-27+Berrigan+Crescent%2C+O%27Connor+ACT/
299,2602,O'Connor,49,https://www.auhouseprices.com/sold/list/ACT/2602/O%27Connor/,3/4 Hay Street ,-35.2624110,149.1266120,townhouse,2,2,2,"$540,000",https://www.auhouseprices.com/sold/view/ACT/341616549/3-4+Hay+Street%2C+O%27Connor+ACT/
300,2602,O'Connor,49,https://www.auhouseprices.com/sold/list/ACT/2602/O%27Connor/,6 Pedder Street ,-35.2604330,149.1226640,house,3,1,1,"$996,000",https://www.auhouseprices.com/sold/view/ACT/341196288/6+Pedder+Street%2C+O%27Connor+ACT/
301,2602,O'Connor,49,https://www.auhouseprices.com/sold/list/ACT/2602/O%27Connor/,11/27 Berrigan Crescent ,-35.2585520,149.1284330,apartment,2,2,1,"$540,000",https://www.auhouseprices.com/sold/view/ACT/341326549/11-27+Berrigan+Crescent%2C+O%27Connor+ACT/
302,2602,O'Connor,49,https://www.auhouseprices.com/sold/list/ACT/2602/O%27Connor/,31 Berrigan Crescent ,-35.2581680,149.1283720,house,3,1,2,"$1,610,000",https://www.auhouseprices.com/sold/view/ACT/341460188/31+Berrigan+Crescent%2C+O%27Connor+ACT/
303,2602,O'Connor,49,https://www.auhouseprices.com/sold/list/ACT/2602/O%27Connor/,10B Verdon Street ,-35.2610050,149.1285120,house,3,2,1,"$760,000",https://www.auhouseprices.com/sold/view/ACT/341489188/10B+Verdon+Street%2C+O%27Connor+ACT/
304,2602,O'Connor,49,https://www.auhouseprices.com/sold/list/ACT/2602/O%27Connor/,79 David Street ,-35.2675820,149.1155110,house,4,2,1,"$1,400,000",https://www.auhouseprices.com/sold/view/ACT/341709188/79+David+Street%2C+O%27Connor+ACT/
305,2602,O'Connor,49,https://www.auhouseprices.com/sold/list/ACT/2602/O%27Connor/,2/6-8 Berrigan Street ,-35.2591100,149.1296390,townhouse,3,2,2,,https://www.auhouseprices.com/sold/view/ACT/341246288/2-6-8+Berrigan+Street%2C+O%27Connor+ACT/
306,2602,O'Connor,49,https://www.auhouseprices.com/sold/list/ACT/2602/O%27Connor/,4 Swainsona Street ,-35.2512240,149.1222100,house,3,1,2,"$760,000",https://www.auhouseprices.com/sold/view/ACT/341544188/4+Swainsona+Street%2C+O%27Connor+ACT/
307,2602,O'Connor,49,https://www.auhouseprices.com/sold/list/ACT/2602/O%27Connor/,2/27 Berrigan Crescent ,-35.2585520,149.1284330,apartment,2,2,2,,https://www.auhouseprices.com/sold/view/ACT/341885549/2-27+Berrigan+Crescent%2C+O%27Connor+ACT/
308,2602,O'Connor,49,https://www.auhouseprices.com/sold/list/ACT/2602/O%27Connor/,24 Banner Street ,-35.2627160,149.1163020,house,3,1,2,"$1,120,000",https://www.auhouseprices.com/sold/view/ACT/341048988/24+Banner+Street%2C+O%27Connor+ACT/
309,2602,O'Connor,49,https://www.auhouseprices.com/sold/list/ACT/2602/O%27Connor/,6 Karri Street ,-35.2556850,149.1228530,house,3,1,1,"$712,000",https://www.auhouseprices.com/sold/view/ACT/341691988/6+Karri+Street%2C+O%27Connor+ACT/
310,2602,O'Connor,49,https://www.auhouseprices.com/sold/list/ACT/2602/O%27Connor/,21/4 Verdon Street ,-35.2615570,149.1288760,apartment,2,2,1,"$460,000",https://www.auhouseprices.com/sold/view/ACT/341039888/21-4+Verdon+Street%2C+O%27Connor+ACT/
311,2602,O'Connor,49,https://www.auhouseprices.com/sold/list/ACT/2602/O%27Connor/,33/48 Bluebell Street ,-35.2633040,149.1229680,apartment,2,1,1,"$425,000",https://www.auhouseprices.com/sold/view/ACT/341077988/33-48+Bluebell+Street%2C+O%27Connor+ACT/
312,2602,O'Connor,49,https://www.auhouseprices.com/sold/list/ACT/2602/O%27Connor/,17 Westgarth Street ,-35.2642510,149.1166920,house,4,2,2,"$1,470,000",https://www.auhouseprices.com/sold/view/ACT/341258788/17+Westgarth+Street%2C+O%27Connor+ACT/
313,2602,O'Connor,49,https://www.auhouseprices.com/sold/list/ACT/2602/O%27Connor/,108 Miller Street ,-35.2551010,149.1160600,house,3,1,2,"$865,000",https://www.auhouseprices.com/sold/view/ACT/341747788/108+Miller+Street%2C+O%27Connor+ACT/
314,2602,O'Connor,49,https://www.auhouseprices.com/sold/list/ACT/2602/O%27Connor/,17 Blackbutt Street ,-35.2479330,149.1174780,house,3,1,2,"$1,197,000",https://www.auhouseprices.com/sold/view/ACT/341483888/17+Blackbutt+Street%2C+O%27Connor+ACT/
315,2602,O'Connor,49,https://www.auhouseprices.com/sold/list/ACT/2602/O%27Connor/,14 Burt Street ,-35.2608460,149.1221490,house,3,2,2,"$1,038,000",https://www.auhouseprices.com/sold/view/ACT/341892688/14+Burt+Street%2C+O%27Connor+ACT/
316,2602,O'Connor,49,https://www.auhouseprices.com/sold/list/ACT/2602/O%27Connor/,8 Lilley Street ,-35.2608460,149.1221990,house,3,2,2,"$1,090,000",https://www.auhouseprices.com/sold/view/ACT/341468588/8+Lilley+Street%2C+O%27Connor+ACT/
317,2602,O'Connor,49,https://www.auhouseprices.com/sold/list/ACT/2602/O%27Connor/,1/5 Verdon Street ,-35.2616330,149.1279280,apartment,1,1,1,"$385,000",https://www.auhouseprices.com/sold/view/ACT/341394588/1-5+Verdon+Street%2C+O%27Connor+ACT/
318,2602,O'Connor,49,https://www.auhouseprices.com/sold/list/ACT/2602/O%27Connor/,3/5 Verdon Street ,-35.2616330,149.1279280,unit,1,1,1,"$370,800",https://www.auhouseprices.com/sold/view/ACT/341908688/3-5+Verdon+Street%2C+O%27Connor+ACT/
319,2602,O'Connor,49,https://www.auhouseprices.com/sold/list/ACT/2602/O%27Connor/,25 Quandong Street ,-35.2561390,149.1142470,house,4,3,2,"$1,925,000",https://www.auhouseprices.com/sold/view/ACT/341485378/25+Quandong+Street%2C+O%27Connor+ACT/
320,2602,O'Connor,49,https://www.auhouseprices.com/sold/list/ACT/2602/O%27Connor/,5 Coolibah Crescent ,-35.2587540,149.1217660,house,3,1,0,"$960,000",https://www.auhouseprices.com/sold/view/ACT/341564378/5+Coolibah+Crescent%2C+O%27Connor+ACT/
321,2602,O'Connor,49,https://www.auhouseprices.com/sold/list/ACT/2602/O%27Connor/,15 Mulga Street ,-35.2553070,149.1179510,house,4,3,3,"$2,250,000",https://www.auhouseprices.com/sold/view/ACT/341240088/15+Mulga+Street%2C+O%27Connor+ACT/
322,2602,O'Connor,49,https://www.auhouseprices.com/sold/list/ACT/2602/O%27Connor/,192 Dryandra Street ,-35.2524070,149.1133360,house,4,2,2,"$1,150,000",https://www.auhouseprices.com/sold/view/ACT/341840278/192+Dryandra+Street%2C+O%27Connor+ACT/
323,2602,O'Connor,49,https://www.auhouseprices.com/sold/list/ACT/2602/O%27Connor/,228 Dryandra Street ,-35.2491100,149.1157160,house,5,2,2,"$1,300,000",https://www.auhouseprices.com/sold/view/ACT/341297178/228+Dryandra+Street%2C+O%27Connor+ACT/
324,2602,O'Connor,49,https://www.auhouseprices.com/sold/list/ACT/2602/O%27Connor/,6/4-6 Berrigan Crescent ,-35.2591100,149.1296390,townhouse,3,2,2,,https://www.auhouseprices.com/sold/view/ACT/341450178/6-4-6+Berrigan+Crescent%2C+O%27Connor+ACT/
325,2602,O'Connor,49,https://www.auhouseprices.com/sold/list/ACT/2602/O%27Connor/,7/27 Berrigan Crescent ,-35.2585520,149.1284330,house,1,1,1,"$430,000",https://www.auhouseprices.com/sold/view/ACT/341417078/7-27+Berrigan+Crescent%2C+O%27Connor+ACT/
326,2602,O'Connor,49,https://www.auhouseprices.com/sold/list/ACT/2602/O%27Connor/,7 Busby Street ,-35.2617890,149.1191950,house,4,2,0,"$1,125,000",https://www.auhouseprices.com/sold/view/ACT/341779978/7+Busby+Street%2C+O%27Connor+ACT/
327,2602,O'Connor,49,https://www.auhouseprices.com/sold/list/ACT/2602/O%27Connor/,2/48 Miller Street ,-35.2628600,149.1151190,house,3,2,1,"$800,000",https://www.auhouseprices.com/sold/view/ACT/341621078/2-48+Miller+Street%2C+O%27Connor+ACT/
328,2602,O'Connor,49,https://www.auhouseprices.com/sold/list/ACT/2602/O%27Connor/,17 Quandong Street ,-35.2569640,149.1143390,house,4,2,1,"$980,000",https://www.auhouseprices.com/sold/view/ACT/341660878/17+Quandong+Street%2C+O%27Connor+ACT/
329,2602,O'Connor,49,https://www.auhouseprices.com/sold/list/ACT/2602/O%27Connor/,32/48 Bluebell Street ,-35.2633040,149.1229680,apartment,2,2,1,"$470,000",https://www.auhouseprices.com/sold/view/ACT/341871878/32-48+Bluebell+Street%2C+O%27Connor+ACT/
330,2602,O'Connor,49,https://www.auhouseprices.com/sold/list/ACT/2602/O%27Connor/,13/18 Macpherson Street ,-35.2633420,149.1216830,apartment,2,2,1,"$475,000",https://www.auhouseprices.com/sold/view/ACT/341643878/13-18+Macpherson+Street%2C+O%27Connor+ACT/
331,2602,O'Connor,49,https://www.auhouseprices.com/sold/list/ACT/2602/O%27Connor/,35 Coolibah Crescent ,-35.2583340,149.1184930,house,4,2,2,"$1,050,000",https://www.auhouseprices.com/sold/view/ACT/341212778/35+Coolibah+Crescent%2C+O%27Connor+ACT/
332,2602,O'Connor,49,https://www.auhouseprices.com/sold/list/ACT/2602/O%27Connor/,9 Banjine Street ,-35.2539320,149.1232160,house,3,1,2,"$865,000",https://www.auhouseprices.com/sold/view/ACT/341730778/9+Banjine+Street%2C+O%27Connor+ACT/
333,2602,O'Connor,49,https://www.auhouseprices.com/sold/list/ACT/2602/O%27Connor/,4/4 Verdon Street ,-35.2615570,149.1288760,apartment,1,1,1,"$350,000",https://www.auhouseprices.com/sold/view/ACT/341906549/4-4+Verdon+Street%2C+O%27Connor+ACT/
334,2602,O'Connor,49,https://www.auhouseprices.com/sold/list/ACT/2602/O%27Connor/,95 Scrivener Street ,-35.2536740,149.1166750,house,4,2,2,"$1,370,000",https://www.auhouseprices.com/sold/view/ACT/341575678/95+Scrivener+Street%2C+O%27Connor+ACT/
335,2602,O'Connor,49,https://www.auhouseprices.com/sold/list/ACT/2602/O%27Connor/,4/4 Verdon Street ,-35.2615570,149.1288760,apartment,1,1,1,"$350,000",https://www.auhouseprices.com/sold/view/ACT/341075878/4-4+Verdon+Street%2C+O%27Connor+ACT/
336,2602,O'Connor,49,https://www.auhouseprices.com/sold/list/ACT/2602/O%27Connor/,4 Ross Street ,-35.2660430,149.1176230,house,2,1,1,"$1,136,000",https://www.auhouseprices.com/sold/view/ACT/341961678/4+Ross+Street%2C+O%27Connor+ACT/
337,2602,O'Connor,49,https://www.auhouseprices.com/sold/list/ACT/2602/O%27Connor/,42 Quandong Street ,-35.2544560,149.1149710,house,4,3,3,,https://www.auhouseprices.com/sold/view/ACT/341446578/42+Quandong+Street%2C+O%27Connor+ACT/
338,2602,O'Connor,49,https://www.auhouseprices.com/sold/list/ACT/2602/O%27Connor/,5 Peel Street ,-35.2601820,149.1194540,house,3,2,2,"$977,000",https://www.auhouseprices.com/sold/view/ACT/341517468/5+Peel+Street%2C+O%27Connor+ACT/
339,2602,O'Connor,49,https://www.auhouseprices.com/sold/list/ACT/2602/O%27Connor/,25 Jarrah Street ,-35.2557480,149.1231790,house,4,2,1,"$970,000",https://www.auhouseprices.com/sold/view/ACT/341619268/25+Jarrah+Street%2C+O%27Connor+ACT/
340,2602,O'Connor,49,https://www.auhouseprices.com/sold/list/ACT/2602/O%27Connor/,5 Wattle Street ,-35.2595640,149.1303960,house,3,1,1,"$850,000",https://www.auhouseprices.com/sold/view/ACT/341185549/5+Wattle+Street%2C+O%27Connor+ACT/
341,2602,O'Connor,49,https://www.auhouseprices.com/sold/list/ACT/2602/O%27Connor/,104 Scrivener Street ,-35.2527640,149.1162620,house,4,2,1,"$975,000",https://www.auhouseprices.com/sold/view/ACT/341715268/104+Scrivener+Street%2C+O%27Connor+ACT/
342,2602,O'Connor,49,https://www.auhouseprices.com/sold/list/ACT/2602/O%27Connor/,41/39 Correa Street ,-35.2510670,149.1231610,house,2,1,0,"$272,000",https://www.auhouseprices.com/sold/view/ACT/341027268/41-39+Correa+Street%2C+O%27Connor+ACT/
343,2602,O'Connor,49,https://www.auhouseprices.com/sold/list/ACT/2602/O%27Connor/,27 Clianthus Street ,-35.2524500,149.1176560,house,3,1,1,"$870,000",https://www.auhouseprices.com/sold/view/ACT/341536168/27+Clianthus+Street%2C+O%27Connor+ACT/
344,2602,O'Connor,49,https://www.auhouseprices.com/sold/list/ACT/2602/O%27Connor/,2/40 Moorhouse Street ,-35.2632800,149.1208490,townhouse,1,1,1,"$428,000",https://www.auhouseprices.com/sold/view/ACT/341065549/2-40+Moorhouse+Street%2C+O%27Connor+ACT/
345,2602,O'Connor,49,https://www.auhouseprices.com/sold/list/ACT/2602/O%27Connor/,20/19 Moorehouse Street ,-35.2635410,149.1190500,unit,1,1,1,"$280,000",https://www.auhouseprices.com/sold/view/ACT/341872168/20-19+Moorehouse+Street%2C+O%27Connor+ACT/
346,2602,O'Connor,49,https://www.auhouseprices.com/sold/list/ACT/2602/O%27Connor/,148 Miller Street ,-35.2509830,149.1190040,house,4,1,0,"$952,500",https://www.auhouseprices.com/sold/view/ACT/341412068/148+Miller+Street%2C+O%27Connor+ACT/
347,2602,O'Connor,49,https://www.auhouseprices.com/sold/list/ACT/2602/O%27Connor/,230 Dryandra St ,-35.2489430,149.1158320,house,3,1,0,"$742,500",https://www.auhouseprices.com/sold/view/ACT/341786968/230+Dryandra+St%2C+O%27Connor+ACT/
348,2602,O'Connor,49,https://www.auhouseprices.com/sold/list/ACT/2602/O%27Connor/,12/39 Brigalow Street ,-35.2519230,149.1220310,unit,2,1,1,"$297,000",https://www.auhouseprices.com/sold/view/ACT/341549868/12-39+Brigalow+Street%2C+O%27Connor+ACT/
349,2602,O'Connor,49,https://www.auhouseprices.com/sold/list/ACT/2602/O%27Connor/,1/28 Wongoola Close ,-35.2575340,149.1110280,house,5,2,3,"$1,200,000",https://www.auhouseprices.com/sold/view/ACT/341276868/1-28+Wongoola+Close%2C+O%27Connor+ACT/
350,2602,O'Connor,49,https://www.auhouseprices.com/sold/list/ACT/2602/O%27Connor/,13 Hobbs Street ,-35.2668770,149.1127070,house,3,2,1,"$1,098,000",https://www.auhouseprices.com/sold/view/ACT/341976868/13+Hobbs+Street%2C+O%27Connor+ACT/
351,2602,O'Connor,49,https://www.auhouseprices.com/sold/list/ACT/2602/O%27Connor/,20/4 Verdon Street ,-35.2615570,149.1288760,unit,2,2,2,"$462,500",https://www.auhouseprices.com/sold/view/ACT/341050968/20-4+Verdon+Street%2C+O%27Connor+ACT/
352,2602,O'Connor,49,https://www.auhouseprices.com/sold/list/ACT/2602/O%27Connor/,9/3 Hay Street ,-35.2626690,149.1260210,townhouse,3,1,2,"$800,000",https://www.auhouseprices.com/sold/view/ACT/341028968/9-3+Hay+Street%2C+O%27Connor+ACT/
353,2602,O'Connor,49,https://www.auhouseprices.com/sold/list/ACT/2602/O%27Connor/,16 Dianella Street ,-35.2531630,149.1202230,house,4,1,4,"$1,165,000",https://www.auhouseprices.com/sold/view/ACT/341815549/16+Dianella+Street%2C+O%27Connor+ACT/
354,2602,O'Connor,49,https://www.auhouseprices.com/sold/list/ACT/2602/O%27Connor/,10 Wandoo Street ,-35.2546200,149.1246390,house,2,1,1,"$745,000",https://www.auhouseprices.com/sold/view/ACT/341709358/10+Wandoo+Street%2C+O%27Connor+ACT/
355,2602,O'Connor,49,https://www.auhouseprices.com/sold/list/ACT/2602/O%27Connor/,16/27 Berrigan Crescent ,-35.2585520,149.1284330,unit,2,2,0,"$568,000",https://www.auhouseprices.com/sold/view/ACT/341446549/16-27+Berrigan+Crescent%2C+O%27Connor+ACT/
356,2602,O'Connor,49,https://www.auhouseprices.com/sold/list/ACT/2602/O%27Connor/,25/22 MacPherson Street ,-35.2631040,149.1215280,apartment,2,2,0,,https://www.auhouseprices.com/sold/view/ACT/341725158/25-22+MacPherson+Street%2C+O%27Connor+ACT/
357,2602,O'Connor,49,https://www.auhouseprices.com/sold/list/ACT/2602/O%27Connor/,12 Hardman Street ,-35.2640840,149.1208030,house,4,2,2,"$1,500,000",https://www.auhouseprices.com/sold/view/ACT/341654058/12+Hardman++Street%2C+O%27Connor+ACT/
358,2602,O'Connor,49,https://www.auhouseprices.com/sold/list/ACT/2602/O%27Connor/,10 Cockle Street ,-35.2633660,149.1136800,house,6,4,3,"$1,950,000",https://www.auhouseprices.com/sold/view/ACT/341475549/10+Cockle+Street%2C+O%27Connor+ACT/
359,2602,O'Connor,49,https://www.auhouseprices.com/sold/list/ACT/2602/O%27Connor/,37 Coolibah Crescent ,-35.2583670,149.1181950,house,5,2,2,"$1,425,000",https://www.auhouseprices.com/sold/view/ACT/341047958/37+Coolibah+Crescent%2C+O%27Connor+ACT/
360,2602,O'Connor,49,https://www.auhouseprices.com/sold/list/ACT/2602/O%27Connor/,14 Finn Street ,-35.2612050,149.1187940,house,5,2,1,"$1,280,000",https://www.auhouseprices.com/sold/view/ACT/341421958/14+Finn+Street%2C+O%27Connor+ACT/
361,2602,O'Connor,49,https://www.auhouseprices.com/sold/list/ACT/2602/O%27Connor/,4 Grevillea Street ,-35.2536730,149.1186930,house,4,1,2,"$830,000",https://www.auhouseprices.com/sold/view/ACT/341014858/4+Grevillea+Street%2C+O%27Connor+ACT/
362,2602,O'Connor,49,https://www.auhouseprices.com/sold/list/ACT/2602/O%27Connor/,5/5 Verdon Street ,-35.2616330,149.1279280,apartment,1,1,1,"$365,000",https://www.auhouseprices.com/sold/view/ACT/341977658/5-5+Verdon+Street%2C+O%27Connor+ACT/
363,2602,O'Connor,49,https://www.auhouseprices.com/sold/list/ACT/2602/O%27Connor/,2/101A Scrivener Street ,-35.2532120,149.1156570,other,2,1,1,,https://www.auhouseprices.com/sold/view/ACT/341156549/2-101A+Scrivener+Street%2C+O%27Connor+ACT/
364,2602,O'Connor,49,https://www.auhouseprices.com/sold/list/ACT/2602/O%27Connor/,38 Macpherson Street ,-35.2610050,149.1212300,house,3,1,1,"$870,000",https://www.auhouseprices.com/sold/view/ACT/341596658/38+Macpherson+Street%2C+O%27Connor+ACT/
365,2602,O'Connor,49,https://www.auhouseprices.com/sold/list/ACT/2602/O%27Connor/,37 Scrivener Street ,-35.2566790,149.1231130,house,3,1,1,"$1,155,000",https://www.auhouseprices.com/sold/view/ACT/341737658/37+Scrivener+Street%2C+O%27Connor+ACT/
366,2602,O'Connor,49,https://www.auhouseprices.com/sold/list/ACT/2602/O%27Connor/,8 Wilga Place ,-35.2554840,149.1197170,house,3,1,0,"$900,000",https://www.auhouseprices.com/sold/view/ACT/341540758/8+Wilga+Place%2C+O%27Connor+ACT/
367,2602,O'Connor,49,https://www.auhouseprices.com/sold/list/ACT/2602/O%27Connor/,10/10 Macpherson Street ,-35.2636440,149.1219350,apartment,2,2,1,"$520,000",https://www.auhouseprices.com/sold/view/ACT/341050558/10-10+Macpherson+Street%2C+O%27Connor+ACT/
368,2602,O'Connor,49,https://www.auhouseprices.com/sold/list/ACT/2602/O%27Connor/,4 Scrivener Street ,-35.2564890,149.1275990,house,3,1,1,"$815,000",https://www.auhouseprices.com/sold/view/ACT/341430448/4+Scrivener+Street%2C+O%27Connor+ACT/
369,2602,O'Connor,49,https://www.auhouseprices.com/sold/list/ACT/2602/O%27Connor/,17 Coolibah Street ,-35.2580700,149.1207420,house,4,2,2,"$1,200,000",https://www.auhouseprices.com/sold/view/ACT/341215348/17+Coolibah+Street%2C+O%27Connor+ACT/
370,2602,O'Connor,49,https://www.auhouseprices.com/sold/list/ACT/2602/O%27Connor/,3 Swainsona Street ,-35.2513310,149.1216210,house,3,1,2,"$780,000",https://www.auhouseprices.com/sold/view/ACT/341613348/3+Swainsona+Street%2C+O%27Connor+ACT/
371,2602,O'Connor,49,https://www.auhouseprices.com/sold/list/ACT/2602/O%27Connor/,19/41 David Street ,-35.2639000,149.1233470,unit,1,1,1,"$260,000",https://www.auhouseprices.com/sold/view/ACT/341662248/19-41+David+Street%2C+O%27Connor+ACT/
372,2602,O'Connor,49,https://www.auhouseprices.com/sold/list/ACT/2602/O%27Connor/,15B Faunce Crescent ,-35.2660630,149.1157090,house,3,2,1,"$1,080,000",https://www.auhouseprices.com/sold/view/ACT/341598148/15B+Faunce+Crescent%2C+O%27Connor+ACT/
373,2602,O'Connor,49,https://www.auhouseprices.com/sold/list/ACT/2602/O%27Connor/,11/15 Berrigan Crescent ,-35.2595000,149.1287470,apartment,2,2,2,"$462,000",https://www.auhouseprices.com/sold/view/ACT/341235549/11-15+Berrigan+Crescent%2C+O%27Connor+ACT/
374,2602,O'Connor,49,https://www.auhouseprices.com/sold/list/ACT/2602/O%27Connor/,91 Scrivener Street ,-35.2538600,149.1170660,house,3,1,2,"$825,000",https://www.auhouseprices.com/sold/view/ACT/341764048/91+Scrivener+Street%2C+O%27Connor+ACT/
375,2602,O'Connor,49,https://www.auhouseprices.com/sold/list/ACT/2602/O%27Connor/,33 Clianthus Street ,-35.2523870,149.1171370,house,3,1,2,"$775,000",https://www.auhouseprices.com/sold/view/ACT/341919948/33+Clianthus+Street%2C+O%27Connor+ACT/
376,2602,O'Connor,49,https://www.auhouseprices.com/sold/list/ACT/2602/O%27Connor/,24 Nardoo Crescent ,-35.2550570,149.1138940,house,4,2,3,"$925,000",https://www.auhouseprices.com/sold/view/ACT/341209148/24+Nardoo+Crescent%2C+O%27Connor+ACT/
377,2602,O'Connor,49,https://www.auhouseprices.com/sold/list/ACT/2602/O%27Connor/,5 Lilley Street ,-35.2603010,149.1218850,house,4,2,0,"$990,000",https://www.auhouseprices.com/sold/view/ACT/341282948/5+Lilley+Street%2C+O%27Connor+ACT/
378,2602,O'Connor,49,https://www.auhouseprices.com/sold/list/ACT/2602/O%27Connor/,86 Miller Street ,-35.2572030,149.1159890,house,3,2,2,"$960,000",https://www.auhouseprices.com/sold/view/ACT/341935549/86+Miller+Street%2C+O%27Connor+ACT/
379,2602,O'Connor,49,https://www.auhouseprices.com/sold/list/ACT/2602/O%27Connor/,18 Wongoola Close ,-35.2563000,149.1112090,house,5,2,1,"$1,200,000",https://www.auhouseprices.com/sold/view/ACT/341148848/18+Wongoola+Close%2C+O%27Connor+ACT/
380,2602,O'Connor,49,https://www.auhouseprices.com/sold/list/ACT/2602/O%27Connor/,1 Hart Street ,-35.2620850,149.1169370,house,4,1,0,"$1,080,000",https://www.auhouseprices.com/sold/view/ACT/341870848/1+Hart+Street%2C+O%27Connor+ACT/
381,2602,O'Connor,49,https://www.auhouseprices.com/sold/list/ACT/2602/O%27Connor/,248 Dryandra Street ,-35.2475360,149.1171520,house,4,2,1,"$1,015,000",https://www.auhouseprices.com/sold/view/ACT/341551848/248+Dryandra+Street%2C+O%27Connor+ACT/
382,2602,O'Connor,49,https://www.auhouseprices.com/sold/list/ACT/2602/O%27Connor/,10 Macarthur Avenue ,-35.2595350,149.1180180,house,3,1,0,"$660,000",https://www.auhouseprices.com/sold/view/ACT/341510848/10++Macarthur+Avenue%2C+O%27Connor+ACT/
383,2602,O'Connor,49,https://www.auhouseprices.com/sold/list/ACT/2602/O%27Connor/,22 Sundew Crescent ,-35.2586750,149.1194790,house,3,1,3,"$902,000",https://www.auhouseprices.com/sold/view/ACT/341832748/22+Sundew+Crescent%2C+O%27Connor+ACT/
384,2602,O'Connor,49,https://www.auhouseprices.com/sold/list/ACT/2602/O%27Connor/,22/10 Macpherson Street ,-35.2636440,149.1219350,apartment,3,3,2,"$675,000",https://www.auhouseprices.com/sold/view/ACT/341036549/22-10+Macpherson+Street%2C+O%27Connor+ACT/
385,2602,O'Connor,49,https://www.auhouseprices.com/sold/list/ACT/2602/O%27Connor/,36 Miller Street ,-35.2639000,149.1149510,house,3,2,2,"$945,000",https://www.auhouseprices.com/sold/view/ACT/341387648/36+Miller+Street%2C+O%27Connor+ACT/
386,2602,O'Connor,49,https://www.auhouseprices.com/sold/list/ACT/2602/O%27Connor/,42 Brigalow Street ,-35.2527280,149.1231530,house,4,2,1,"$940,000",https://www.auhouseprices.com/sold/view/ACT/341888648/42+Brigalow+Street%2C+O%27Connor+ACT/
387,2602,O'Connor,49,https://www.auhouseprices.com/sold/list/ACT/2602/O%27Connor/,"12/15 ""echelon"" Berrigan Crescent ",-35.2595000,149.1287470,apartment,1,1,1,"$372,000",https://www.auhouseprices.com/sold/view/ACT/341525549/12-15+%22echelon%22+Berrigan+Crescent%2C+O%27Connor+ACT/
388,2602,O'Connor,49,https://www.auhouseprices.com/sold/list/ACT/2602/O%27Connor/,31 Westgarth Street ,-35.2630050,149.1168320,house,3,1,1,"$1,000,000",https://www.auhouseprices.com/sold/view/ACT/341999548/31+Westgarth+Street%2C+O%27Connor+ACT/
389,2602,O'Connor,49,https://www.auhouseprices.com/sold/list/ACT/2602/O%27Connor/,10 Pedder Street ,-35.2611580,149.1225990,house,4,3,2,"$1,670,000",https://www.auhouseprices.com/sold/view/ACT/341938438/10+Pedder+Street%2C+O%27Connor+ACT/
390,2602,O'Connor,49,https://www.auhouseprices.com/sold/list/ACT/2602/O%27Connor/,19/52 Bluebell Street ,-35.2634400,149.1227640,unit,2,2,1,"$442,000",https://www.auhouseprices.com/sold/view/ACT/341761438/19-52+Bluebell+Street%2C+O%27Connor+ACT/
391,2602,O'Connor,49,https://www.auhouseprices.com/sold/list/ACT/2602/O%27Connor/,8/40 Bluebell Street ,-35.2629140,149.1231770,townhouse,2,2,2,,https://www.auhouseprices.com/sold/view/ACT/341554549/8-40+Bluebell+Street%2C+O%27Connor+ACT/
392,2602,O'Connor,49,https://www.auhouseprices.com/sold/list/ACT/2602/O%27Connor/,17/27 Berrigan Crescent ,-35.2585520,149.1284080,apartment,2,2,2,"$525,000",https://www.auhouseprices.com/sold/view/ACT/341946338/17-27+Berrigan+Crescent%2C+O%27Connor+ACT/
393,2602,O'Connor,49,https://www.auhouseprices.com/sold/list/ACT/2602/O%27Connor/,20 Miller Street ,-35.2657080,149.1146060,house,5,2,2,"$1,205,000",https://www.auhouseprices.com/sold/view/ACT/341656338/20+Miller+Street%2C+O%27Connor+ACT/
394,2602,O'Connor,49,https://www.auhouseprices.com/sold/list/ACT/2602/O%27Connor/,128 Scrivener Street ,-35.2532090,149.1131290,house,3,2,1,"$975,000",https://www.auhouseprices.com/sold/view/ACT/341296438/128+Scrivener+Street%2C+O%27Connor+ACT/
395,2602,O'Connor,49,https://www.auhouseprices.com/sold/list/ACT/2602/O%27Connor/,10 Dryandra Street ,-35.2677440,149.1128670,house,4,2,0,"$1,026,500",https://www.auhouseprices.com/sold/view/ACT/341351438/10+Dryandra+Street%2C+O%27Connor+ACT/
396,2602,O'Connor,49,https://www.auhouseprices.com/sold/list/ACT/2602/O%27Connor/,39/8-18 Correa Street ,-35.2522700,149.1229540,apartment,1,1,1,"$230,000",https://www.auhouseprices.com/sold/view/ACT/341951338/39-8-18+Correa+Street%2C+O%27Connor+ACT/
397,2602,O'Connor,49,https://www.auhouseprices.com/sold/list/ACT/2602/O%27Connor/,101 Miller Street ,-35.2573510,149.1152360,house,4,2,3,"$1,325,000",https://www.auhouseprices.com/sold/view/ACT/341491338/101+Miller+Street%2C+O%27Connor+ACT/
398,2602,O'Connor,49,https://www.auhouseprices.com/sold/list/ACT/2602/O%27Connor/,24 Quandong Street ,-35.2561460,149.1149080,house,3,2,2,"$1,440,000",https://www.auhouseprices.com/sold/view/ACT/341389138/24+Quandong+Street%2C+O%27Connor+ACT/
399,2602,O'Connor,49,https://www.auhouseprices.com/sold/list/ACT/2602/O%27Connor/,8 Hakea Crescent ,-35.2577970,149.1231850,house,3,2,2,"$925,000",https://www.auhouseprices.com/sold/view/ACT/341415138/8+Hakea+Crescent%2C+O%27Connor+ACT/
400,2602,O'Connor,49,https://www.auhouseprices.com/sold/list/ACT/2602/O%27Connor/,35 MacPherson Street ,-35.2613830,149.1204090,house,3,1,2,"$910,000",https://www.auhouseprices.com/sold/view/ACT/341907038/35+MacPherson+Street%2C+O%27Connor+ACT/
401,2602,O'Connor,49,https://www.auhouseprices.com/sold/list/ACT/2602/O%27Connor/,8/4 Verdon Street ,-35.2615570,149.1288760,apartment,1,1,1,"$366,000",https://www.auhouseprices.com/sold/view/ACT/341243938/8-4+Verdon+Street%2C+O%27Connor+ACT/
402,2602,O'Connor,49,https://www.auhouseprices.com/sold/list/ACT/2602/O%27Connor/,1/20 Tate Street ,-35.2630710,149.1191280,house,3,2,2,,https://www.auhouseprices.com/sold/view/ACT/341073938/1-20+Tate+Street%2C+O%27Connor+ACT/
403,2602,O'Connor,49,https://www.auhouseprices.com/sold/list/ACT/2602/O%27Connor/,24 Waratah Street ,-35.2546780,149.1255270,house,3,2,2,"$1,020,000",https://www.auhouseprices.com/sold/view/ACT/341032938/24+Waratah+Street%2C+O%27Connor+ACT/
404,2602,O'Connor,49,https://www.auhouseprices.com/sold/list/ACT/2602/O%27Connor/,36 Bluebell Street ,-35.2627630,149.1231120,house,3,2,2,"$750,000",https://www.auhouseprices.com/sold/view/ACT/341929838/36+Bluebell+Street%2C+O%27Connor+ACT/
405,2602,O'Connor,49,https://www.auhouseprices.com/sold/list/ACT/2602/O%27Connor/,6/10 Macpherson Street ,-35.2636440,149.1219350,apartment,2,2,2,"$527,790",https://www.auhouseprices.com/sold/view/ACT/341076838/6-10+Macpherson+Street%2C+O%27Connor+ACT/
406,2602,O'Connor,49,https://www.auhouseprices.com/sold/list/ACT/2602/O%27Connor/,12 Myall Street ,-35.2561540,149.1170850,house,3,1,0,"$817,000",https://www.auhouseprices.com/sold/view/ACT/341433838/12+Myall+Street%2C+O%27Connor+ACT/
407,2602,O'Connor,49,https://www.auhouseprices.com/sold/list/ACT/2602/O%27Connor/,4/3 Banjine Street ,-35.2540960,149.1238520,townhouse,2,2,2,"$579,000",https://www.auhouseprices.com/sold/view/ACT/341407738/4-3+Banjine+Street%2C+O%27Connor+ACT/
408,2602,O'Connor,49,https://www.auhouseprices.com/sold/list/ACT/2602/O%27Connor/,12 Pedder Street ,-35.2613630,149.1225990,house,3,2,1,"$977,000",https://www.auhouseprices.com/sold/view/ACT/341055738/12+Pedder+Street%2C+O%27Connor+ACT/
409,2602,O'Connor,49,https://www.auhouseprices.com/sold/list/ACT/2602/O%27Connor/,36 Moorhouse Street ,-35.2636430,149.1204590,house,3,2,2,,https://www.auhouseprices.com/sold/view/ACT/341424738/36++Moorhouse+Street%2C+O%27Connor+ACT/
410,2602,O'Connor,49,https://www.auhouseprices.com/sold/list/ACT/2602/O%27Connor/,7 Burt Street ,-35.2617890,149.1214750,house,4,2,2,"$1,300,000",https://www.auhouseprices.com/sold/view/ACT/341983738/7+Burt+Street%2C+O%27Connor+ACT/
411,2602,O'Connor,49,https://www.auhouseprices.com/sold/list/ACT/2602/O%27Connor/,13/27 David Street ,-35.2622130,149.1277750,apartment,1,1,0,"$338,000",https://www.auhouseprices.com/sold/view/ACT/341271738/13-27+David+Street%2C+O%27Connor+ACT/
